{"color":"#C61D23","headsign":"Reboleira (Estação)","id":"1001_0_1","long_name":"Alfragide (Estr Seminario) - Reboleira (Estação)","line_id":"1001","shape_id":"1_4X7ZR","path":[{"index":1,"name":"Alfragide (Hosp Veterinário)","id":"030001","lat":"38.734441","lon":"-9.220576","lines":["1001","1002","1506","1507","1712"],"schedule":{"travel_time":0,"stop_id":"030001"}},{"index":2,"name":"Av Ivens","id":"030003","lat":"38.733053","lon":"-9.219634","lines":["1001","1002"],"schedule":{"travel_time":1,"stop_id":"030003"}},{"index":3,"name":"Av D Luis I","id":"030005","lat":"38.731393","lon":"-9.218354","lines":["1001","1002"],"schedule":{"travel_time":0,"stop_id":"030005"}},{"index":4,"name":"Alfragide Sul","id":"030007","lat":"38.732904","lon":"-9.216968","lines":["1001","1002"],"schedule":{"travel_time":1,"stop_id":"030007"}},{"index":5,"name":"Estr Zambujal (Escolas)","id":"030009","lat":"38.732430","lon":"-9.216304","lines":["1001"],"schedule":{"travel_time":0,"stop_id":"030009"}},{"index":6,"name":"Escola Almeida Garrett","id":"030011","lat":"38.733342","lon":"-9.215294","lines":["1001"],"schedule":{"travel_time":1,"stop_id":"030011"}},{"index":7,"name":"Escola Luís Madureira","id":"030013","lat":"38.732765","lon":"-9.213566","lines":["1001"],"schedule":{"travel_time":0,"stop_id":"030013"}},{"index":8,"name":"R da Misericórdia","id":"030015","lat":"38.733839","lon":"-9.210783","lines":["1001"],"schedule":{"travel_time":1,"stop_id":"030015"}},{"index":9,"name":"Bº Zambujal","id":"030561","lat":"38.735878","lon":"-9.209207","lines":["1001","1503","1504"],"schedule":{"travel_time":2,"stop_id":"030561"}},{"index":10,"name":"R das Galegas 13","id":"030019","lat":"38.737652","lon":"-9.207923","lines":["1001","1503","1504"],"schedule":{"travel_time":0,"stop_id":"030019"}},{"index":11,"name":"Bº Zambujal","id":"030021","lat":"38.738756","lon":"-9.210536","lines":["1001","1503","1504"],"schedule":{"travel_time":1,"stop_id":"030021"}},{"index":12,"name":"Estr Alfragide (X) R Dr Nuno Rodrigues dos Santos","id":"030775","lat":"38.738534","lon":"-9.212249","lines":["1001","1704","1713","1718"],"schedule":{"travel_time":0,"stop_id":"030775"}},{"index":13,"name":"Alfragide (F Aérea)","id":"030025","lat":"38.738756","lon":"-9.214022","lines":["1001","1507","1718"],"schedule":{"travel_time":1,"stop_id":"030025"}},{"index":14,"name":"Av Republica (Pav Desportivo)","id":"030027","lat":"38.742203","lon":"-9.212634","lines":["1001","1507","1704","1718"],"schedule":{"travel_time":1,"stop_id":"030027"}},{"index":15,"name":"R 5 Outubro 10","id":"030029","lat":"38.741813","lon":"-9.211766","lines":["1001","1507","1704"],"schedule":{"travel_time":1,"stop_id":"030029"}},{"index":16,"name":"R Luís Vaz de Camões 3 (Centro Saúde)","id":"030031","lat":"38.740757","lon":"-9.208915","lines":["1001","1507","1704"],"schedule":{"travel_time":0,"stop_id":"030031"}},{"index":17,"name":"R Gonçalves Zarco 13A","id":"030033","lat":"38.741715","lon":"-9.206602","lines":["1001","1507","1704"],"schedule":{"travel_time":1,"stop_id":"030033"}},{"index":18,"name":"Av Camilo Castelo Branco 6","id":"030035","lat":"38.744466","lon":"-9.207682","lines":["1001","1507","1704"],"schedule":{"travel_time":1,"stop_id":"030035"}},{"index":19,"name":"R Trindade Coelho 14","id":"030037","lat":"38.744140","lon":"-9.209918","lines":["1001","1507","1704"],"schedule":{"travel_time":1,"stop_id":"030037"}},{"index":20,"name":"Av República 15A","id":"030039","lat":"38.746124","lon":"-9.212196","lines":["1001","1507","1704","1718"],"schedule":{"travel_time":1,"stop_id":"030039"}},{"index":21,"name":"R António Aleixo (Rotunda)","id":"030041","lat":"38.747006","lon":"-9.215621","lines":["1001","1507","1718"],"schedule":{"travel_time":0,"stop_id":"030041"}},{"index":22,"name":"R Bartolomeu Dias (Aqueduto)","id":"030043","lat":"38.748065","lon":"-9.217084","lines":["1001","1015","1501","1507","1704","1713","1718"],"schedule":{"travel_time":1,"stop_id":"030043"}},{"index":23,"name":"Reboleira (Estação) P3","id":"030844","lat":"38.750066","lon":"-9.221399","lines":["1001","1015"],"schedule":{"travel_time":1,"stop_id":"030844"}}]}