{"color":"#3D85C6","headsign":"Amadora Este (Metro)","id":"1008_0_3","long_name":"Amadora Este (Metro) | Circular","line_id":"1008","shape_id":"17_4X7ZR","path":[{"index":1,"name":"Amadora Este (Metro) P2","id":"030155","lat":"38.758258","lon":"-9.218777","lines":["1008","1514","2601"],"schedule":{"travel_time":0,"stop_id":"030155"}},{"index":2,"name":"R H Paiva Couceiro (X) R Lat Coelho","id":"030305","lat":"38.753988","lon":"-9.218384","lines":["1008"],"schedule":{"travel_time":4,"stop_id":"030305"}},{"index":3,"name":"R Latino Coelho 12B","id":"030307","lat":"38.753482","lon":"-9.219001","lines":["1008"],"schedule":{"travel_time":0,"stop_id":"030307"}},{"index":4,"name":"R Fontainhas (April)","id":"030283","lat":"38.751196","lon":"-9.219046","lines":["1008","1011","2601"],"schedule":{"travel_time":1,"stop_id":"030283"}},{"index":5,"name":"R Das Fontainhas (ED Areeiro)","id":"030285","lat":"38.750832","lon":"-9.217038","lines":["1008","1011","1507","2601"],"schedule":{"travel_time":1,"stop_id":"030285"}},{"index":6,"name":"R Francisco Simões Carneiro 4","id":"030287","lat":"38.751443","lon":"-9.215976","lines":["1008","1011","1713","2601"],"schedule":{"travel_time":1,"stop_id":"030287"}},{"index":7,"name":"Av Curry Cabral (X) R Élio Rego","id":"030289","lat":"38.753489","lon":"-9.215530","lines":["1008","1713"],"schedule":{"travel_time":1,"stop_id":"030289"}},{"index":8,"name":"Av Chaby Pinheiro 3A","id":"030291","lat":"38.753232","lon":"-9.212506","lines":["1008","1713"],"schedule":{"travel_time":2,"stop_id":"030291"}},{"index":9,"name":"Rua Óscar Monteiro Torres 30","id":"032191","lat":"38.754758","lon":"-9.211444","lines":["1008"],"schedule":{"travel_time":1,"stop_id":"032191"}},{"index":10,"name":"Rua do Parque (Frente Pavilhão Desportivo)","id":"039383","lat":"38.756032","lon":"-9.211222","lines":["1008"],"schedule":{"travel_time":1,"stop_id":"039383"}},{"index":11,"name":"R Padre António Vieira 30","id":"030293","lat":"38.756865","lon":"-9.209163","lines":["1008"],"schedule":{"travel_time":1,"stop_id":"030293"}},{"index":12,"name":"R D Nuno Álvares Pereira 19c","id":"030295","lat":"38.755662","lon":"-9.209640","lines":["1008"],"schedule":{"travel_time":1,"stop_id":"030295"}},{"index":13,"name":"R Ant Augusto Custódio","id":"030297","lat":"38.754491","lon":"-9.209349","lines":["1008"],"schedule":{"travel_time":1,"stop_id":"030297"}},{"index":14,"name":"R Elias Garcia (Portas de Benfica)","id":"030299","lat":"38.753721","lon":"-9.210032","lines":["1008","1707","1713","1717","1720","1721"],"schedule":{"travel_time":1,"stop_id":"030299"}},{"index":15,"name":"R Elias Garcia 28C","id":"030301","lat":"38.754596","lon":"-9.213767","lines":["1008","1707","1717","1720","1721"],"schedule":{"travel_time":1,"stop_id":"030301"}},{"index":16,"name":"R Elias Garcia (Hipermercado)","id":"030303","lat":"38.755675","lon":"-9.216855","lines":["1008","1707","1717","1720","1721"],"schedule":{"travel_time":1,"stop_id":"030303"}},{"index":17,"name":"Amadora Este (Metro) P2","id":"030155","lat":"38.758258","lon":"-9.218777","lines":["1008","1514","2601"],"schedule":{"travel_time":0,"stop_id":"030155"}}]}