{"color":"#C61D23","headsign":"Brandoa (Escola)","id":"1010_0_2","long_name":"Brandoa (Pólo Escola) - Casal da Mira","line_id":"1010","shape_id":"20_4X7ZR","path":[{"index":1,"name":"Casal Mira","id":"030261","lat":"38.782089","lon":"-9.226467","lines":["1006","1010","1707"],"schedule":{"travel_time":0,"stop_id":"030261"}},{"index":2,"name":"R 5 Outubro 11","id":"030263","lat":"38.782424","lon":"-9.225723","lines":["1006","1010","1707"],"schedule":{"travel_time":1,"stop_id":"030263"}},{"index":3,"name":"R dos Lirios 7","id":"030265","lat":"38.782516","lon":"-9.224055","lines":["1006","1010","1707"],"schedule":{"travel_time":1,"stop_id":"030265"}},{"index":4,"name":"R Ramiro Martins 9A","id":"030267","lat":"38.782480","lon":"-9.222639","lines":["1006","1010","1707"],"schedule":{"travel_time":2,"stop_id":"030267"}},{"index":5,"name":"R Alberto da Conceição Guerreiro 11","id":"030269","lat":"38.779745","lon":"-9.224412","lines":["1006","1010","1707"],"schedule":{"travel_time":2,"stop_id":"030269"}},{"index":6,"name":"R Nova York (Eb J Garcês)","id":"030271","lat":"38.777992","lon":"-9.224225","lines":["1006","1010","1707"],"schedule":{"travel_time":1,"stop_id":"030271"}},{"index":7,"name":"R Julio Dantas 7B","id":"030886","lat":"38.768814","lon":"-9.232549","lines":["1009","1010"],"schedule":{"travel_time":12,"stop_id":"030886"}},{"index":8,"name":"R Oliveira Martins 7C","id":"030135","lat":"38.767194","lon":"-9.231995","lines":["1003","1005","1006","1010","1514","1517","1703","1707"],"schedule":{"travel_time":1,"stop_id":"030135"}},{"index":9,"name":"Casal São Brás","id":"030177","lat":"38.766107","lon":"-9.229482","lines":["1003","1005","1006","1010","1703"],"schedule":{"travel_time":2,"stop_id":"030177"}},{"index":10,"name":"R Moínho Galega 14","id":"030179","lat":"38.767041","lon":"-9.228115","lines":["1003","1005","1006","1010","1703"],"schedule":{"travel_time":1,"stop_id":"030179"}},{"index":11,"name":"R Seara Trigo (Campo Futebol)","id":"030854","lat":"38.768452","lon":"-9.225233","lines":["1005","1010"],"schedule":{"travel_time":2,"stop_id":"030854"}},{"index":12,"name":"Brandoa (Alto)","id":"030367","lat":"38.768080","lon":"-9.223820","lines":["1010","1012","1706","1708"],"schedule":{"travel_time":1,"stop_id":"030367"}},{"index":13,"name":"R Joaquim Tim Tim Sitima 1","id":"030369","lat":"38.766555","lon":"-9.223235","lines":["1010","1012","1706","1708"],"schedule":{"travel_time":0,"stop_id":"030369"}},{"index":14,"name":"Av Liberdade Fte 96","id":"030859","lat":"38.766825","lon":"-9.222648","lines":["1010","1012","1514","1703","1706","1708"],"schedule":{"travel_time":1,"stop_id":"030859"}},{"index":15,"name":"R Liberdade (Parque Infantil)","id":"030371","lat":"38.767907","lon":"-9.221205","lines":["1010","1012","1514","1703","1706","1708"],"schedule":{"travel_time":1,"stop_id":"030371"}},{"index":16,"name":"R Liberdade 63","id":"030360","lat":"38.768581","lon":"-9.219795","lines":["1010","1012","1514","1703","1706","1708"],"schedule":{"travel_time":0,"stop_id":"030360"}},{"index":17,"name":"R Luis Vaz Camões 46","id":"030373","lat":"38.767862","lon":"-9.217057","lines":["1010","1012","1514","1703","1706","1708"],"schedule":{"travel_time":2,"stop_id":"030373"}},{"index":18,"name":"Av Ruy Luís Gomes (Fte Escola)","id":"030356","lat":"38.764423","lon":"-9.215684","lines":["1010","1012"],"schedule":{"travel_time":2,"stop_id":"030356"}},{"index":19,"name":"Brandoa (Escola)","id":"030355","lat":"38.764629","lon":"-9.215759","lines":["1010"],"schedule":{"travel_time":3,"stop_id":"030355"}}]}