{"color":"#C61D23","headsign":"Amadora (Cemitério)","id":"1013_0_2","long_name":"Amadora (Cemitério) - Atalaia (Escola Secundária) via Casas do Lago","line_id":"1013","shape_id":"26_4X7ZR","path":[{"index":1,"name":"Atalaia (Escola Secundária)","id":"030113","lat":"38.744938","lon":"-9.226621","lines":["1002","1013","1015","1510"],"schedule":{"travel_time":0,"stop_id":"030113"}},{"index":2,"name":"R Terreiro Rossio (Escola)","id":"030081","lat":"38.744994","lon":"-9.226114","lines":["1013","1510"],"schedule":{"travel_time":0,"stop_id":"030081"}},{"index":3,"name":"Av João Paulo II (Pça Gama Pinto)","id":"030448","lat":"38.746067","lon":"-9.227339","lines":["1013","1510"],"schedule":{"travel_time":1,"stop_id":"030448"}},{"index":4,"name":"R Madame Curie 16","id":"030449","lat":"38.747260","lon":"-9.230591","lines":["1013","1510"],"schedule":{"travel_time":1,"stop_id":"030449"}},{"index":5,"name":"Av Prof Dr António Flores 22","id":"030451","lat":"38.747229","lon":"-9.232174","lines":["1013","1015","1510"],"schedule":{"travel_time":1,"stop_id":"030451"}},{"index":6,"name":"R Prof Dr Ant Flores (X) R Quir Rosa","id":"030453","lat":"38.748730","lon":"-9.231294","lines":["1013","1015","1510"],"schedule":{"travel_time":1,"stop_id":"030453"}},{"index":7,"name":"Av D José I 77","id":"030446","lat":"38.749317","lon":"-9.233309","lines":["1013","1014","1502","1514","1704","1712","1714","1716"],"schedule":{"travel_time":1,"stop_id":"030446"}},{"index":8,"name":"Amadora (Cemitério)","id":"030437","lat":"38.742732","lon":"-9.238009","lines":["1013","1014"],"schedule":{"travel_time":3,"stop_id":"030437"}},{"index":9,"name":"R D Ant Luz (X) R Euseb Silva Ferreira","id":"030875","lat":"38.741897","lon":"-9.240131","lines":["1013","1014"],"schedule":{"travel_time":1,"stop_id":"030875"}},{"index":10,"name":"R D António Luz (X) R Vitor Damas","id":"030439","lat":"38.742395","lon":"-9.241742","lines":["1013","1014"],"schedule":{"travel_time":0,"stop_id":"030439"}},{"index":11,"name":"R Baden Pawell 12","id":"030441","lat":"38.744266","lon":"-9.239768","lines":["1013","1014"],"schedule":{"travel_time":1,"stop_id":"030441"}},{"index":12,"name":"Av Cruz Vermelha (Rotunda)","id":"030443","lat":"38.744281","lon":"-9.236975","lines":["1013","1014"],"schedule":{"travel_time":1,"stop_id":"030443"}},{"index":13,"name":"Amadora (Cemitério)","id":"030437","lat":"38.742732","lon":"-9.238009","lines":["1013","1014"],"schedule":{"travel_time":3,"stop_id":"030437"}}]}