{"color":"#C61D23","headsign":"Alfragide (Centro Comercial)","id":"1101_0_2","long_name":"Alfragide (Centro Comercial) - Algés (Estação)","line_id":"1101","shape_id":"207_4X7ZR","path":[{"index":1,"name":"Algés (Estação) P11","id":"120081","lat":"38.699238","lon":"-9.227612","lines":["1101","1504"],"schedule":{"travel_time":0,"stop_id":"120081"}},{"index":2,"name":"R Damião de Gois 36A","id":"120327","lat":"38.699541","lon":"-9.228383","lines":["1101","1106","1113","1114","1504","1722"],"schedule":{"travel_time":0,"stop_id":"120327"}},{"index":3,"name":"Al Hermano Patrone (Palácio Ribamar)","id":"120083","lat":"38.699518","lon":"-9.232077","lines":["1101","1106","1113","1504","1722"],"schedule":{"travel_time":1,"stop_id":"120083"}},{"index":4,"name":"R Direita - Aquário Vasco Gama","id":"120078","lat":"38.699252","lon":"-9.237400","lines":["1101","1106","1113","1504","1722"],"schedule":{"travel_time":2,"stop_id":"120078"}},{"index":5,"name":"R Direita 46","id":"120085","lat":"38.700012","lon":"-9.239641","lines":["1101","1106","1113","1504","1722"],"schedule":{"travel_time":0,"stop_id":"120085"}},{"index":6,"name":"R S João Deus Fte 12","id":"120087","lat":"38.701406","lon":"-9.239445","lines":["1101","1113","1504","1722"],"schedule":{"travel_time":1,"stop_id":"120087"}},{"index":7,"name":"Dafundo (B S Mateus)","id":"120072","lat":"38.702699","lon":"-9.240005","lines":["1101","1113","1504","1722"],"schedule":{"travel_time":2,"stop_id":"120072"}},{"index":8,"name":"Linda-a-velha (Alto Stª Catarina)","id":"120070","lat":"38.705292","lon":"-9.240430","lines":["1101","1504","1722","1724","1728","1730"],"schedule":{"travel_time":1,"stop_id":"120070"}},{"index":9,"name":"R Manuel Ferreira 12","id":"120089","lat":"38.704121","lon":"-9.241711","lines":["1101","1504","1722","1724","1728","1730"],"schedule":{"travel_time":1,"stop_id":"120089"}},{"index":10,"name":"R Manuel Ferreira (Esc Secundária)","id":"120066","lat":"38.705772","lon":"-9.241997","lines":["1101","1504","1722","1724","1728","1730"],"schedule":{"travel_time":1,"stop_id":"120066"}},{"index":11,"name":"Av D Pedro V 1","id":"120064","lat":"38.708040","lon":"-9.244525","lines":["1101","1504","1722"],"schedule":{"travel_time":1,"stop_id":"120064"}},{"index":12,"name":"Av D Pedro V 16D","id":"120062","lat":"38.709834","lon":"-9.245140","lines":["1101","1103","1107","1114","1504","1722","1724","1728","1730"],"schedule":{"travel_time":0,"stop_id":"120062"}},{"index":13,"name":"Av D Pedro V 28","id":"120060","lat":"38.711436","lon":"-9.246127","lines":["1101","1103","1107","1114","1504","1722","1724","1728","1730"],"schedule":{"travel_time":1,"stop_id":"120060"}},{"index":14,"name":"Calçada Chafariz 4","id":"120058","lat":"38.713110","lon":"-9.245274","lines":["1101","1103","1107","1114","1504","1722","1724","1728","1730"],"schedule":{"travel_time":1,"stop_id":"120058"}},{"index":15,"name":"Av Tomás Ribeiro 58","id":"120091","lat":"38.715054","lon":"-9.244524","lines":["1101","1114","1504","1528","1722"],"schedule":{"travel_time":1,"stop_id":"120091"}},{"index":16,"name":"Av Tomás Ribeiro 88A","id":"120093","lat":"38.716852","lon":"-9.244808","lines":["1101","1504","1528","1722"],"schedule":{"travel_time":0,"stop_id":"120093"}},{"index":17,"name":"Av Tomás Ribeiro (Qta Acácias)","id":"120095","lat":"38.722550","lon":"-9.243007","lines":["1101","1105","1109","1110","1504","1528","1722","1726","1730"],"schedule":{"travel_time":3,"stop_id":"120095"}},{"index":18,"name":"Av Tomás Ribeiro 47 (Cemitério)","id":"120050","lat":"38.724040","lon":"-9.243265","lines":["1101","1105","1109","1110","1504","1528","1722","1726","1730"],"schedule":{"travel_time":0,"stop_id":"120050"}},{"index":19,"name":"Carnaxide (Av Portugal)","id":"120097","lat":"38.726788","lon":"-9.244454","lines":["1101","1105","1503","1504","1507","1522","1722","1723","1726","1728","1730"],"schedule":{"travel_time":1,"stop_id":"120097"}},{"index":20,"name":"R Aquilino Ribeiro 3","id":"120099","lat":"38.729102","lon":"-9.243899","lines":["1101","1105","1110","1503","1504","1522","1722","1723","1726","1728","1730"],"schedule":{"travel_time":2,"stop_id":"120099"}},{"index":21,"name":"R Aquilino Ribeiro 27","id":"120044","lat":"38.728207","lon":"-9.241369","lines":["1101","1105","1110","1503","1504","1522","1722","1723","1726","1728","1730"],"schedule":{"travel_time":0,"stop_id":"120044"}},{"index":22,"name":"R Manuel Teixeira Gomes 11","id":"120101","lat":"38.726940","lon":"-9.239777","lines":["1101","1103","1105","1107","1109","1502","1503","1504","1522","1722","1723","1726","1728","1730"],"schedule":{"travel_time":1,"stop_id":"120101"}},{"index":23,"name":"Av de Portugal 16","id":"120103","lat":"38.725972","lon":"-9.239058","lines":["1101","1103","1105","1107","1109","1502","1503","1504","1522","1605","1606","1722","1723","1726","1728","1730"],"schedule":{"travel_time":1,"stop_id":"120103"}},{"index":24,"name":"Av Portugal (X) Pct Eugénio Castro","id":"120105","lat":"38.726523","lon":"-9.236853","lines":["1101","1103","1105","1107","1109","1502","1503","1504","1522","1605","1606","1722","1723","1726","1728","1730"],"schedule":{"travel_time":0,"stop_id":"120105"}},{"index":25,"name":"R Ten Gen Zef Sequeira (Ed S Paulo)","id":"120107","lat":"38.725752","lon":"-9.235193","lines":["1101","1103","1105","1107","1109","1502","1503","1504","1522","1605","1606","1722","1723","1726","1728","1730"],"schedule":{"travel_time":1,"stop_id":"120107"}},{"index":26,"name":"Av Forte (Posto Combust)","id":"120109","lat":"38.723619","lon":"-9.235042","lines":["1101","1103","1105","1107","1109","1502","1503","1504","1520","1522","1722","1723","1726","1728","1730","1731"],"schedule":{"travel_time":1,"stop_id":"120109"}},{"index":27,"name":"R nossa Senhora Conceição 2","id":"120032","lat":"38.720811","lon":"-9.233417","lines":["1101","1109","1504","1722","1726","1728","1730"],"schedule":{"travel_time":1,"stop_id":"120032"}},{"index":28,"name":"R Manuel Ant Rodrigues (Escadinhas)","id":"120030","lat":"38.720648","lon":"-9.232694","lines":["1101","1109","1504","1722","1726","1728","1730"],"schedule":{"travel_time":1,"stop_id":"120030"}},{"index":29,"name":"R Mário Moreira 16A","id":"120111","lat":"38.719041","lon":"-9.232961","lines":["1101","1109","1504","1722","1726","1728","1730"],"schedule":{"travel_time":0,"stop_id":"120111"}},{"index":30,"name":"R C Belo Morais (Alam Alto Barronhos)","id":"120026","lat":"38.717322","lon":"-9.231836","lines":["1101","1504","1722","1726","1728","1730"],"schedule":{"travel_time":1,"stop_id":"120026"}},{"index":31,"name":"R Carlos Belo Morais 37","id":"120113","lat":"38.719958","lon":"-9.227499","lines":["1101","1109","1504","1722","1726","1728","1730"],"schedule":{"travel_time":2,"stop_id":"120113"}},{"index":32,"name":"Av Professor D Bernardino Machado","id":"120115","lat":"38.722979","lon":"-9.229622","lines":["1101","1504","1722","1726","1728","1730"],"schedule":{"travel_time":2,"stop_id":"120115"}},{"index":33,"name":"R Cravos Abril 45","id":"120117","lat":"38.724053","lon":"-9.227517","lines":["1101","1503","1504","1605","1606","1722","1726","1728","1730"],"schedule":{"travel_time":0,"stop_id":"120117"}},{"index":34,"name":"R Cravos Abril (X) R Elisio Moura","id":"120119","lat":"38.723661","lon":"-9.226026","lines":["1101","1503","1504","1605","1606","1722","1726","1728","1730"],"schedule":{"travel_time":1,"stop_id":"120119"}},{"index":35,"name":"Estr Portela (Esc Primária)","id":"120016","lat":"38.722258","lon":"-9.224642","lines":["1101","1109","1503","1504","1605","1606","1722","1726","1728","1730"],"schedule":{"travel_time":0,"stop_id":"120016"}},{"index":36,"name":"Estr Velha Portela 2","id":"120014","lat":"38.721225","lon":"-9.221537","lines":["1101","1503","1504","1605","1606","1722","1726","1728","1730"],"schedule":{"travel_time":1,"stop_id":"120014"}},{"index":37,"name":"R Cincinato da Costa 39","id":"120012","lat":"38.720343","lon":"-9.219416","lines":["1101","1503","1504","1605","1606","1722","1726","1728","1730"],"schedule":{"travel_time":1,"stop_id":"120012"}},{"index":38,"name":"R Qta Paizinho 11","id":"120010","lat":"38.722155","lon":"-9.217749","lines":["1101","1503","1504","1605","1606","1713","1722","1726","1728","1730"],"schedule":{"travel_time":1,"stop_id":"120010"}},{"index":39,"name":"R Qta Paizinho 8","id":"120008","lat":"38.723885","lon":"-9.215236","lines":["1101","1503","1504","1605","1606","1713","1722","1726","1728","1730"],"schedule":{"travel_time":1,"stop_id":"120008"}},{"index":40,"name":"Av Cavaleiros 70","id":"120006","lat":"38.726751","lon":"-9.215993","lines":["1101","1504","1605","1606","1722"],"schedule":{"travel_time":1,"stop_id":"120006"}},{"index":41,"name":"Alfragide (Centro Comercial)","id":"120001","lat":"38.728625","lon":"-9.218620","lines":["1101","1109","1504","1605","1606","1722"],"schedule":{"travel_time":1,"stop_id":"120001"}}]}