{"color":"#C61D23","headsign":"Queluz Baixo (Centro Comercial)","id":"1105_1_1","long_name":"Carnaxide (Escola Secundária) - Queluz Baixo (Centro Comercial)","line_id":"1105","shape_id":"212_4X7ZR","path":[{"index":1,"name":"Carnaxide (Escola Secundária)","id":"120123","lat":"38.722622","lon":"-9.244832","lines":["1101","1105","1109","1110","1726","1730"],"schedule":{"travel_time":0,"stop_id":"120123"}},{"index":2,"name":"Av Tomás Ribeiro (Qta Acácias)","id":"120095","lat":"38.722550","lon":"-9.243007","lines":["1101","1105","1109","1110","1504","1528","1722","1726","1730"],"schedule":{"travel_time":1,"stop_id":"120095"}},{"index":3,"name":"Av Tomás Ribeiro 47 (Cemitério)","id":"120050","lat":"38.724040","lon":"-9.243265","lines":["1101","1105","1109","1110","1504","1528","1722","1726","1730"],"schedule":{"travel_time":0,"stop_id":"120050"}},{"index":4,"name":"R 5 Outubro 13 (Lgo Pátria Nova)","id":"120279","lat":"38.725387","lon":"-9.246036","lines":["1103","1105","1107","1109","1110","1507","1520","1522","1527","1528","1605","1606","1726","1728","1730","1731"],"schedule":{"travel_time":1,"stop_id":"120279"}},{"index":5,"name":"R 5 Outubro 2","id":"120281","lat":"38.725095","lon":"-9.249104","lines":["1103","1105","1107","1109","1110","1507","1520","1522","1527","1528","1605","1606","1726","1728","1730","1731"],"schedule":{"travel_time":1,"stop_id":"120281"}},{"index":6,"name":"Estr Queluz (Qta Gandarela)","id":"120363","lat":"38.725204","lon":"-9.253236","lines":["1105","1109","1522","1527"],"schedule":{"travel_time":1,"stop_id":"120363"}},{"index":7,"name":"Estr Queluz 95","id":"120365","lat":"38.730803","lon":"-9.258445","lines":["1105","1522","1527"],"schedule":{"travel_time":3,"stop_id":"120365"}},{"index":8,"name":"Estr Queluz","id":"120367","lat":"38.733308","lon":"-9.259666","lines":["1105","1522","1527"],"schedule":{"travel_time":1,"stop_id":"120367"}},{"index":9,"name":"Valejas (X) Estr Milit","id":"120369","lat":"38.736519","lon":"-9.259814","lines":["1105","1522","1527"],"schedule":{"travel_time":1,"stop_id":"120369"}},{"index":10,"name":"Estr Militar (Casal Martins)","id":"120371","lat":"38.737651","lon":"-9.263631","lines":["1105","1522","1527"],"schedule":{"travel_time":2,"stop_id":"120371"}},{"index":11,"name":"Estr Militar 1","id":"120373","lat":"38.734992","lon":"-9.264776","lines":["1105","1522","1527"],"schedule":{"travel_time":1,"stop_id":"120373"}},{"index":12,"name":"Valejas Cima","id":"120375","lat":"38.735611","lon":"-9.267373","lines":["1105","1522","1527"],"schedule":{"travel_time":1,"stop_id":"120375"}},{"index":13,"name":"R Trabalho (Fábricas)","id":"120377","lat":"38.738220","lon":"-9.269267","lines":["1105","1107","1111","1522","1527","1528","1717","1729","1730"],"schedule":{"travel_time":1,"stop_id":"120377"}},{"index":14,"name":"R Mário Castelhano 40","id":"120379","lat":"38.740304","lon":"-9.268346","lines":["1105","1107","1111","1522","1527","1528","1717","1729","1730"],"schedule":{"travel_time":2,"stop_id":"120379"}},{"index":15,"name":"R Mario Castelhano (Consiglieri Park)","id":"120381","lat":"38.741741","lon":"-9.269270","lines":["1105","1107","1111","1522","1527","1528","1717","1729","1730"],"schedule":{"travel_time":0,"stop_id":"120381"}},{"index":16,"name":"Estr Consiglieri Pedroso 69","id":"120383","lat":"38.742764","lon":"-9.267929","lines":["1105","1107","1111","1522","1527","1528","1530","1601","1717","1729","1730"],"schedule":{"travel_time":1,"stop_id":"120383"}},{"index":17,"name":"Queluz Baixo (Centro Comercial)","id":"120403","lat":"38.744686","lon":"-9.266123","lines":["1105","1106","1107","1527","1729","1730"],"schedule":{"travel_time":1,"stop_id":"120403"}}]}