{"color":"#C61D23","headsign":"Algés (Estação)","id":"1106_1_2","long_name":"Algés (Estação) - Queijas (PSP)","line_id":"1106","shape_id":"218_4X7ZR","path":[{"index":1,"name":"Queijas (PSP)","id":"120309","lat":"38.720514","lon":"-9.263724","lines":["1103","1106","1107","1110","1111","1507","1520","1527","1528","1726","1728","1729","1730","1731","1733"],"schedule":{"travel_time":0,"stop_id":"120309"}},{"index":2,"name":"R Mouzinho Silveira 25","id":"120299","lat":"38.722013","lon":"-9.263508","lines":["1103","1106","1107","1507","1527","1726","1728","1729","1730","1733"],"schedule":{"travel_time":0,"stop_id":"120299"}},{"index":3,"name":"R Mouzinho Silveira (X) Açores","id":"120543","lat":"38.723493","lon":"-9.263602","lines":["1103","1106","1107","1111","1507","1527","1726","1728","1729","1730","1733"],"schedule":{"travel_time":1,"stop_id":"120543"}},{"index":4,"name":"R Açores 32","id":"120303","lat":"38.723270","lon":"-9.266329","lines":["1103","1106","1107","1110","1111","1507","1527","1726","1728","1729","1730","1733"],"schedule":{"travel_time":0,"stop_id":"120303"}},{"index":5,"name":"R Angra Heroísmo (Escadinhas)","id":"120305","lat":"38.721763","lon":"-9.266498","lines":["1103","1106","1107","1110","1111","1507","1520","1527","1528","1726","1728","1729","1730","1731","1733"],"schedule":{"travel_time":1,"stop_id":"120305"}},{"index":6,"name":"R Qta Bonfim (X) R Marquez Sá Bandeira","id":"120307","lat":"38.720458","lon":"-9.265822","lines":["1103","1106","1107","1110","1111","1507","1520","1527","1528","1726","1728","1729","1730","1731","1733"],"schedule":{"travel_time":0,"stop_id":"120307"}},{"index":7,"name":"Queijas (PSP)","id":"120309","lat":"38.720514","lon":"-9.263724","lines":["1103","1106","1107","1110","1111","1507","1520","1527","1528","1726","1728","1729","1730","1731","1733"],"schedule":{"travel_time":0,"stop_id":"120309"}},{"index":8,"name":"R João XXI (Igreja)","id":"120313","lat":"38.718816","lon":"-9.263157","lines":["1103","1106","1107","1110","1111","1507","1520","1527","1528","1726","1728","1729","1730","1731","1733"],"schedule":{"travel_time":0,"stop_id":"120313"}},{"index":9,"name":"R João XXI 1","id":"120296","lat":"38.717532","lon":"-9.263398","lines":["1103","1106","1107","1110","1111","1507","1520","1527","1528","1726","1728","1729","1730","1731","1733"],"schedule":{"travel_time":1,"stop_id":"120296"}},{"index":10,"name":"Estádio Nacional","id":"120337","lat":"38.709558","lon":"-9.258894","lines":["1106"],"schedule":{"travel_time":5,"stop_id":"120337"}},{"index":11,"name":"Cruz Quebrada (Piscinas)","id":"120125","lat":"38.703416","lon":"-9.256710","lines":["1106","1113"],"schedule":{"travel_time":1,"stop_id":"120125"}},{"index":12,"name":"Cruz Quebrada","id":"120127","lat":"38.701578","lon":"-9.251838","lines":["1106","1113"],"schedule":{"travel_time":2,"stop_id":"120127"}},{"index":13,"name":"R Sacadura Cabral 93","id":"120129","lat":"38.701008","lon":"-9.249745","lines":["1106"],"schedule":{"travel_time":0,"stop_id":"120129"}},{"index":14,"name":"R Sacadura Cabral 55","id":"120258","lat":"38.700245","lon":"-9.246508","lines":["1106"],"schedule":{"travel_time":1,"stop_id":"120258"}},{"index":15,"name":"R Sacadura Cabral 29","id":"120136","lat":"38.700667","lon":"-9.244403","lines":["1106"],"schedule":{"travel_time":0,"stop_id":"120136"}},{"index":16,"name":"R Direita 77","id":"120075","lat":"38.700060","lon":"-9.240029","lines":["1101","1106","1504","1722"],"schedule":{"travel_time":1,"stop_id":"120075"}},{"index":17,"name":"R Direita - Aquário Vasco Gama","id":"120077","lat":"38.699195","lon":"-9.237565","lines":["1101","1106","1504","1722"],"schedule":{"travel_time":1,"stop_id":"120077"}},{"index":18,"name":"R Damião Góis (Palácio Anjos)","id":"120079","lat":"38.699240","lon":"-9.230784","lines":["1101","1103","1106","1107","1113","1502","1504","1722"],"schedule":{"travel_time":1,"stop_id":"120079"}},{"index":19,"name":"R Damião de Gois 39","id":"120328","lat":"38.699365","lon":"-9.228699","lines":["1106","1113","1722"],"schedule":{"travel_time":1,"stop_id":"120328"}},{"index":20,"name":"Algés (Estação) P12","id":"120325","lat":"38.699316","lon":"-9.227629","lines":["1106"],"schedule":{"travel_time":0,"stop_id":"120325"}}]}