{"color":"#C61D23","headsign":"Queluz Baixo (Centro Comercial)","id":"1107_0_1","long_name":"Algés (Estação) - Queluz Baixo via Queijas","line_id":"1107","shape_id":"219_4X7ZR","path":[{"index":1,"name":"Algés (Estação) P10","id":"120261","lat":"38.699162","lon":"-9.227591","lines":["1103","1107"],"schedule":{"travel_time":0,"stop_id":"120261"}},{"index":2,"name":"R João Chagas - Biblioteca Mun Algés","id":"120263","lat":"38.699776","lon":"-9.231540","lines":["1103","1107","1502"],"schedule":{"travel_time":1,"stop_id":"120263"}},{"index":3,"name":"R João Chagas 16","id":"120265","lat":"38.700389","lon":"-9.233161","lines":["1103","1107"],"schedule":{"travel_time":0,"stop_id":"120265"}},{"index":4,"name":"R João Chagas - Esc Preparatória","id":"120267","lat":"38.701482","lon":"-9.236453","lines":["1103","1107"],"schedule":{"travel_time":1,"stop_id":"120267"}},{"index":5,"name":"Algés (Junça)","id":"120269","lat":"38.705980","lon":"-9.238695","lines":["1103","1107","1114","1724"],"schedule":{"travel_time":1,"stop_id":"120269"}},{"index":6,"name":"R João Chagas 159","id":"120271","lat":"38.708107","lon":"-9.240848","lines":["1103","1107","1114","1724"],"schedule":{"travel_time":0,"stop_id":"120271"}},{"index":7,"name":"R Francisco José Vitorino 6","id":"120273","lat":"38.709458","lon":"-9.243273","lines":["1103","1107","1114","1724"],"schedule":{"travel_time":1,"stop_id":"120273"}},{"index":8,"name":"R Francisco José Vitorino 13","id":"120151","lat":"38.709122","lon":"-9.244315","lines":["1103","1107","1114","1724","1728","1730"],"schedule":{"travel_time":0,"stop_id":"120151"}},{"index":9,"name":"Av D Pedro V 16D","id":"120062","lat":"38.709834","lon":"-9.245140","lines":["1101","1103","1107","1114","1504","1722","1724","1728","1730"],"schedule":{"travel_time":1,"stop_id":"120062"}},{"index":10,"name":"Av D Pedro V 28","id":"120060","lat":"38.711436","lon":"-9.246127","lines":["1101","1103","1107","1114","1504","1722","1724","1728","1730"],"schedule":{"travel_time":0,"stop_id":"120060"}},{"index":11,"name":"Calçada Chafariz 4","id":"120058","lat":"38.713110","lon":"-9.245274","lines":["1101","1103","1107","1114","1504","1722","1724","1728","1730"],"schedule":{"travel_time":0,"stop_id":"120058"}},{"index":12,"name":"Av 25 de Abril Fte 22","id":"120249","lat":"38.714632","lon":"-9.242100","lines":["1103","1107","1502","1528","1724","1728","1730"],"schedule":{"travel_time":1,"stop_id":"120249"}},{"index":13,"name":"Av 25 de Abril - Central Park","id":"120173","lat":"38.716695","lon":"-9.238147","lines":["1103","1107","1502","1528","1724","1728","1730"],"schedule":{"travel_time":1,"stop_id":"120173"}},{"index":14,"name":"Av Forte (Proteção Civil)","id":"120275","lat":"38.719983","lon":"-9.234703","lines":["1103","1105","1107","1502","1503","1520","1522","1723","1728","1730","1731"],"schedule":{"travel_time":1,"stop_id":"120275"}},{"index":15,"name":"Av Forte (Posto Combust)","id":"120033","lat":"38.724253","lon":"-9.234694","lines":["1101","1103","1105","1107","1502","1503","1504","1520","1522","1722","1723","1726","1728","1730","1731"],"schedule":{"travel_time":1,"stop_id":"120033"}},{"index":16,"name":"Av Prof Rein Santos (Edif S Paulo)","id":"120035","lat":"38.725609","lon":"-9.234424","lines":["1101","1103","1105","1107","1109","1110","1502","1503","1504","1522","1605","1606","1722","1723","1726","1728","1730"],"schedule":{"travel_time":0,"stop_id":"120035"}},{"index":17,"name":"Av Prof Reinaldo Santos (Hosp Sta Cruz)","id":"120037","lat":"38.727377","lon":"-9.234218","lines":["1101","1103","1105","1107","1109","1110","1502","1503","1504","1522","1605","1606","1722","1723","1726","1728","1730"],"schedule":{"travel_time":0,"stop_id":"120037"}},{"index":18,"name":"R Manuel Teixeira Gomes (Bombeiros)","id":"120039","lat":"38.728748","lon":"-9.236794","lines":["1101","1103","1105","1107","1109","1110","1502","1503","1504","1522","1605","1606","1722","1723","1726","1728","1730"],"schedule":{"travel_time":1,"stop_id":"120039"}},{"index":19,"name":"R Manuel Teixeira Gomes 23A","id":"120473","lat":"38.728194","lon":"-9.238484","lines":["1101","1103","1105","1107","1109","1110","1502","1503","1504","1522","1605","1606","1722","1723","1726","1728","1730"],"schedule":{"travel_time":0,"stop_id":"120473"}},{"index":20,"name":"R Manuel Teixeira Gomes 11","id":"120101","lat":"38.726940","lon":"-9.239777","lines":["1101","1103","1105","1107","1109","1502","1503","1504","1522","1722","1723","1726","1728","1730"],"schedule":{"travel_time":1,"stop_id":"120101"}},{"index":21,"name":"Av Portugal 44","id":"120277","lat":"38.726178","lon":"-9.243488","lines":["1103","1107","1502"],"schedule":{"travel_time":1,"stop_id":"120277"}},{"index":22,"name":"R 5 Outubro 13 (Lgo Pátria Nova)","id":"120279","lat":"38.725387","lon":"-9.246036","lines":["1103","1105","1107","1109","1110","1507","1520","1522","1527","1528","1605","1606","1726","1728","1730","1731"],"schedule":{"travel_time":0,"stop_id":"120279"}},{"index":23,"name":"R 5 Outubro 2","id":"120281","lat":"38.725095","lon":"-9.249104","lines":["1103","1105","1107","1109","1110","1507","1520","1522","1527","1528","1605","1606","1726","1728","1730","1731"],"schedule":{"travel_time":1,"stop_id":"120281"}},{"index":24,"name":"Av Tomás Ribeiro 81","id":"120283","lat":"38.723219","lon":"-9.248406","lines":["1103","1107","1110","1507","1520","1527","1528","1605","1606","1726","1728","1730","1731"],"schedule":{"travel_time":1,"stop_id":"120283"}},{"index":25,"name":"Av Tomás Ribeiro (X) Sant N Sra Rocha","id":"120285","lat":"38.720735","lon":"-9.250854","lines":["1103","1107","1110","1507","1520","1527","1528","1605","1606","1726","1728","1730","1731"],"schedule":{"travel_time":1,"stop_id":"120285"}},{"index":26,"name":"Av Tomás Ribeiro 82","id":"120287","lat":"38.717509","lon":"-9.252359","lines":["1103","1107","1110","1507","1520","1527","1528","1605","1606","1726","1728","1730","1731"],"schedule":{"travel_time":0,"stop_id":"120287"}},{"index":27,"name":"Av Tomás Ribeiro (X) Tv Godinho","id":"120289","lat":"38.715998","lon":"-9.254038","lines":["1103","1107","1110","1507","1520","1527","1528","1605","1606","1726","1728","1730","1731"],"schedule":{"travel_time":1,"stop_id":"120289"}},{"index":28,"name":"Av Tomás Ribeiro (X) Visconde m rey","id":"120291","lat":"38.714789","lon":"-9.256263","lines":["1103","1107","1507","1520","1527","1528","1605","1606","1726","1728","1730","1731"],"schedule":{"travel_time":0,"stop_id":"120291"}},{"index":29,"name":"Av Tomás Ribeiro (Rot Queijas)","id":"120293","lat":"38.715626","lon":"-9.262791","lines":["1103","1107","1111","1507","1520","1527","1528","1726","1728","1730","1731"],"schedule":{"travel_time":1,"stop_id":"120293"}},{"index":30,"name":"R João XXI 10","id":"120295","lat":"38.717597","lon":"-9.263256","lines":["1103","1106","1107","1111","1507","1520","1527","1528","1726","1728","1729","1730","1731","1733"],"schedule":{"travel_time":1,"stop_id":"120295"}},{"index":31,"name":"R João XXI (Igreja)","id":"120297","lat":"38.719079","lon":"-9.263025","lines":["1103","1106","1107","1111","1507","1520","1527","1528","1726","1728","1729","1730","1731","1733"],"schedule":{"travel_time":0,"stop_id":"120297"}},{"index":32,"name":"R Mouzinho Silveira 25","id":"120299","lat":"38.722013","lon":"-9.263508","lines":["1103","1106","1107","1507","1527","1726","1728","1729","1730","1733"],"schedule":{"travel_time":1,"stop_id":"120299"}},{"index":33,"name":"R Mouzinho Silveira (X) Açores","id":"120543","lat":"38.723493","lon":"-9.263602","lines":["1103","1106","1107","1111","1507","1527","1726","1728","1729","1730","1733"],"schedule":{"travel_time":0,"stop_id":"120543"}},{"index":34,"name":"R Açores 32","id":"120303","lat":"38.723270","lon":"-9.266329","lines":["1103","1106","1107","1110","1111","1507","1527","1726","1728","1729","1730","1733"],"schedule":{"travel_time":1,"stop_id":"120303"}},{"index":35,"name":"R Ilha S Jorge 4 (C Lameiro)","id":"120411","lat":"38.722255","lon":"-9.267172","lines":["1107","1111","1520","1729","1730","1731"],"schedule":{"travel_time":0,"stop_id":"120411"}},{"index":36,"name":"Estr Militar (Viv GNR)","id":"120408","lat":"38.731203","lon":"-9.272105","lines":["1107","1111","1729","1730"],"schedule":{"travel_time":3,"stop_id":"120408"}},{"index":37,"name":"Estr Militar (Fte Estudios)","id":"120406","lat":"38.733294","lon":"-9.270125","lines":["1107","1111","1729","1730"],"schedule":{"travel_time":1,"stop_id":"120406"}},{"index":38,"name":"Estr Militar 75","id":"120413","lat":"38.735323","lon":"-9.267924","lines":["1107","1111","1729","1730"],"schedule":{"travel_time":0,"stop_id":"120413"}},{"index":39,"name":"R Trabalho (Fábricas)","id":"120377","lat":"38.738220","lon":"-9.269267","lines":["1105","1107","1111","1522","1527","1528","1717","1729","1730"],"schedule":{"travel_time":1,"stop_id":"120377"}},{"index":40,"name":"R Mário Castelhano 40","id":"120379","lat":"38.740304","lon":"-9.268346","lines":["1105","1107","1111","1522","1527","1528","1717","1729","1730"],"schedule":{"travel_time":1,"stop_id":"120379"}},{"index":41,"name":"R Mario Castelhano (Consiglieri Park)","id":"120381","lat":"38.741741","lon":"-9.269270","lines":["1105","1107","1111","1522","1527","1528","1717","1729","1730"],"schedule":{"travel_time":0,"stop_id":"120381"}},{"index":42,"name":"Estr Consiglieri Pedroso 69","id":"120383","lat":"38.742764","lon":"-9.267929","lines":["1105","1107","1111","1522","1527","1528","1530","1601","1717","1729","1730"],"schedule":{"travel_time":0,"stop_id":"120383"}},{"index":43,"name":"Queluz Baixo (Centro Comercial)","id":"120403","lat":"38.744686","lon":"-9.266123","lines":["1105","1106","1107","1527","1729","1730"],"schedule":{"travel_time":1,"stop_id":"120403"}}]}