{"color":"#C61D23","headsign":"Algés (Estação)","id":"1107_0_2","long_name":"Algés (Estação) - Queluz Baixo via Queijas","line_id":"1107","shape_id":"220_4X7ZR","path":[{"index":1,"name":"Queluz Baixo (Centro Comercial)","id":"120403","lat":"38.744686","lon":"-9.266123","lines":["1105","1106","1107","1527","1729","1730"],"schedule":{"travel_time":0,"stop_id":"120403"}},{"index":2,"name":"Estr Consigl Pedroso 52","id":"120387","lat":"38.744306","lon":"-9.266936","lines":["1105","1106","1107","1111","1522","1527","1528","1530","1601","1717","1729","1730"],"schedule":{"travel_time":0,"stop_id":"120387"}},{"index":3,"name":"Estr Consiglieri P (X) R M Castelhano","id":"120389","lat":"38.741884","lon":"-9.269407","lines":["1105","1106","1107","1111","1522","1527","1528","1530","1601","1717","1729","1730"],"schedule":{"travel_time":1,"stop_id":"120389"}},{"index":4,"name":"Estr Palmeiras (X) Estr Consig Pedroso","id":"120391","lat":"38.740537","lon":"-9.271399","lines":["1105","1106","1107","1111","1522","1527","1528","1717","1729","1730"],"schedule":{"travel_time":0,"stop_id":"120391"}},{"index":5,"name":"Estr Palmeiras 36","id":"120393","lat":"38.737897","lon":"-9.269560","lines":["1105","1106","1107","1111","1522","1527","1729","1730"],"schedule":{"travel_time":1,"stop_id":"120393"}},{"index":6,"name":"Estr Militar 73","id":"120405","lat":"38.735591","lon":"-9.267984","lines":["1106","1107","1111","1729","1730"],"schedule":{"travel_time":1,"stop_id":"120405"}},{"index":7,"name":"Estr Militar (Estudios)","id":"121275","lat":"38.733279","lon":"-9.270406","lines":["1106","1107","1111","1729","1730"],"schedule":{"travel_time":0,"stop_id":"121275"}},{"index":8,"name":"Estr Militar (Viv GNR)","id":"120407","lat":"38.731203","lon":"-9.272248","lines":["1106","1107","1111","1729","1730"],"schedule":{"travel_time":1,"stop_id":"120407"}},{"index":9,"name":"R Angra Heroísmo (Escadinhas)","id":"120305","lat":"38.721763","lon":"-9.266498","lines":["1103","1106","1107","1110","1111","1507","1520","1527","1528","1726","1728","1729","1730","1731","1733"],"schedule":{"travel_time":3,"stop_id":"120305"}},{"index":10,"name":"R Qta Bonfim (X) R Marquez Sá Bandeira","id":"120307","lat":"38.720458","lon":"-9.265822","lines":["1103","1106","1107","1110","1111","1507","1520","1527","1528","1726","1728","1729","1730","1731","1733"],"schedule":{"travel_time":0,"stop_id":"120307"}},{"index":11,"name":"Queijas (PSP)","id":"120309","lat":"38.720514","lon":"-9.263724","lines":["1103","1106","1107","1110","1111","1507","1520","1527","1528","1726","1728","1729","1730","1731","1733"],"schedule":{"travel_time":1,"stop_id":"120309"}},{"index":12,"name":"R Mouzinho Silveira 25","id":"120299","lat":"38.722013","lon":"-9.263508","lines":["1103","1106","1107","1507","1527","1726","1728","1729","1730","1733"],"schedule":{"travel_time":0,"stop_id":"120299"}},{"index":13,"name":"R Mouzinho Silveira (X) Açores","id":"120543","lat":"38.723493","lon":"-9.263602","lines":["1103","1106","1107","1111","1507","1527","1726","1728","1729","1730","1733"],"schedule":{"travel_time":0,"stop_id":"120543"}},{"index":14,"name":"R Açores 32","id":"120303","lat":"38.723270","lon":"-9.266329","lines":["1103","1106","1107","1110","1111","1507","1527","1726","1728","1729","1730","1733"],"schedule":{"travel_time":1,"stop_id":"120303"}},{"index":15,"name":"R Angra Heroísmo (Escadinhas)","id":"120305","lat":"38.721763","lon":"-9.266498","lines":["1103","1106","1107","1110","1111","1507","1520","1527","1528","1726","1728","1729","1730","1731","1733"],"schedule":{"travel_time":3,"stop_id":"120305"}},{"index":16,"name":"R Qta Bonfim (X) R Marquez Sá Bandeira","id":"120307","lat":"38.720458","lon":"-9.265822","lines":["1103","1106","1107","1110","1111","1507","1520","1527","1528","1726","1728","1729","1730","1731","1733"],"schedule":{"travel_time":0,"stop_id":"120307"}},{"index":17,"name":"Queijas (PSP)","id":"120309","lat":"38.720514","lon":"-9.263724","lines":["1103","1106","1107","1110","1111","1507","1520","1527","1528","1726","1728","1729","1730","1731","1733"],"schedule":{"travel_time":1,"stop_id":"120309"}},{"index":18,"name":"R João XXI (Igreja)","id":"120313","lat":"38.718816","lon":"-9.263157","lines":["1103","1106","1107","1110","1111","1507","1520","1527","1528","1726","1728","1729","1730","1731","1733"],"schedule":{"travel_time":0,"stop_id":"120313"}},{"index":19,"name":"R João XXI 1","id":"120296","lat":"38.717532","lon":"-9.263398","lines":["1103","1106","1107","1110","1111","1507","1520","1527","1528","1726","1728","1729","1730","1731","1733"],"schedule":{"travel_time":1,"stop_id":"120296"}},{"index":20,"name":"Av Tomás Ribeiro (Rot Queijas)","id":"120315","lat":"38.715391","lon":"-9.262512","lines":["1103","1107","1110","1507","1520","1527","1528","1605","1606","1726","1728","1730","1731"],"schedule":{"travel_time":0,"stop_id":"120315"}},{"index":21,"name":"Av Tomás Ribeiro (X) Beco dos Mouros","id":"120292","lat":"38.714581","lon":"-9.256510","lines":["1103","1107","1110","1507","1520","1527","1528","1605","1606","1726","1728","1730","1731"],"schedule":{"travel_time":1,"stop_id":"120292"}},{"index":22,"name":"Av Tomás Ribeiro (X) Tv Godinho","id":"120290","lat":"38.716036","lon":"-9.253846","lines":["1103","1107","1110","1507","1520","1527","1528","1605","1606","1726","1728","1730","1731"],"schedule":{"travel_time":1,"stop_id":"120290"}},{"index":23,"name":"Av Tomás Ribeiro 82","id":"120288","lat":"38.717430","lon":"-9.252296","lines":["1103","1107","1110","1507","1520","1527","1528","1605","1606","1726","1728","1730","1731"],"schedule":{"travel_time":0,"stop_id":"120288"}},{"index":24,"name":"Av Tomás Ribeiro (X) Sant N Sra Rocha","id":"120286","lat":"38.720707","lon":"-9.250737","lines":["1103","1107","1110","1507","1520","1527","1528","1605","1606","1726","1728","1730","1731"],"schedule":{"travel_time":1,"stop_id":"120286"}},{"index":25,"name":"Av Tomás Ribeiro 81A","id":"120284","lat":"38.723045","lon":"-9.248548","lines":["1103","1107","1110","1507","1520","1527","1528","1605","1606","1726","1728","1730","1731"],"schedule":{"travel_time":1,"stop_id":"120284"}},{"index":26,"name":"Av Tomás Ribeiro (Tv Escadinhas)","id":"120317","lat":"38.724371","lon":"-9.246609","lines":["1103","1105","1107","1109","1110","1507","1520","1522","1527","1528","1605","1606","1726","1728","1730","1731"],"schedule":{"travel_time":0,"stop_id":"120317"}},{"index":27,"name":"Av Portugal (X) Av Sacadura Cabral","id":"120047","lat":"38.725914","lon":"-9.243228","lines":["1101","1103","1107","1502","1503","1504","1605","1606","1722"],"schedule":{"travel_time":1,"stop_id":"120047"}},{"index":28,"name":"Av de Portugal 16","id":"120103","lat":"38.725972","lon":"-9.239058","lines":["1101","1103","1105","1107","1109","1502","1503","1504","1522","1605","1606","1722","1723","1726","1728","1730"],"schedule":{"travel_time":1,"stop_id":"120103"}},{"index":29,"name":"Av Portugal (X) Pct Eugénio Castro","id":"120105","lat":"38.726523","lon":"-9.236853","lines":["1101","1103","1105","1107","1109","1502","1503","1504","1522","1605","1606","1722","1723","1726","1728","1730"],"schedule":{"travel_time":0,"stop_id":"120105"}},{"index":30,"name":"R Ten Gen Zef Sequeira (Ed S Paulo)","id":"120107","lat":"38.725752","lon":"-9.235193","lines":["1101","1103","1105","1107","1109","1502","1503","1504","1522","1605","1606","1722","1723","1726","1728","1730"],"schedule":{"travel_time":1,"stop_id":"120107"}},{"index":31,"name":"Av Forte (Posto Combust)","id":"120109","lat":"38.723619","lon":"-9.235042","lines":["1101","1103","1105","1107","1109","1502","1503","1504","1520","1522","1722","1723","1726","1728","1730","1731"],"schedule":{"travel_time":0,"stop_id":"120109"}},{"index":32,"name":"Av Forte (Proteção Civil)","id":"120276","lat":"38.720202","lon":"-9.234913","lines":["1103","1105","1107","1502","1503","1520","1522","1723","1728","1730","1731"],"schedule":{"travel_time":1,"stop_id":"120276"}},{"index":33,"name":"Av 25 de Abril - Central Park","id":"120241","lat":"38.716867","lon":"-9.238174","lines":["1103","1107","1502","1528","1724"],"schedule":{"travel_time":1,"stop_id":"120241"}},{"index":34,"name":"Av 25 de Abril 16","id":"120167","lat":"38.715330","lon":"-9.241290","lines":["1103","1107","1502","1528","1724"],"schedule":{"travel_time":1,"stop_id":"120167"}},{"index":35,"name":"Av 25 de Abril 34","id":"120319","lat":"38.714259","lon":"-9.243410","lines":["1103","1107","1502","1528","1724"],"schedule":{"travel_time":0,"stop_id":"120319"}},{"index":36,"name":"Calçada Chafariz 8","id":"120057","lat":"38.712738","lon":"-9.245883","lines":["1101","1103","1107","1504","1722","1724"],"schedule":{"travel_time":1,"stop_id":"120057"}},{"index":37,"name":"Av D Pedro V 49","id":"120059","lat":"38.711291","lon":"-9.246191","lines":["1101","1103","1107","1113","1504","1722","1724"],"schedule":{"travel_time":0,"stop_id":"120059"}},{"index":38,"name":"Av D Pedro V 25","id":"120061","lat":"38.710001","lon":"-9.245391","lines":["1101","1103","1107","1113","1504","1722","1724"],"schedule":{"travel_time":0,"stop_id":"120061"}},{"index":39,"name":"R Francisco José Vitorino 11","id":"120152","lat":"38.709030","lon":"-9.244100","lines":["1103","1107","1113","1724"],"schedule":{"travel_time":1,"stop_id":"120152"}},{"index":40,"name":"R Francisco José Vitorino 1A","id":"120321","lat":"38.709638","lon":"-9.242775","lines":["1103","1107","1724"],"schedule":{"travel_time":0,"stop_id":"120321"}},{"index":41,"name":"R João Chagas 159","id":"120272","lat":"38.708102","lon":"-9.241007","lines":["1103","1107","1724","1728","1730"],"schedule":{"travel_time":0,"stop_id":"120272"}},{"index":42,"name":"Algés (Junça)","id":"120323","lat":"38.705134","lon":"-9.238704","lines":["1103","1107","1113"],"schedule":{"travel_time":1,"stop_id":"120323"}},{"index":43,"name":"R João Chagas - Esc Preparatória","id":"120268","lat":"38.701729","lon":"-9.236947","lines":["1103","1107"],"schedule":{"travel_time":1,"stop_id":"120268"}},{"index":44,"name":"R João Chagas 9","id":"120266","lat":"38.700279","lon":"-9.233060","lines":["1103","1107"],"schedule":{"travel_time":1,"stop_id":"120266"}},{"index":45,"name":"R Damião Góis (Palácio Anjos)","id":"120079","lat":"38.699240","lon":"-9.230784","lines":["1101","1103","1106","1107","1113","1502","1504","1722"],"schedule":{"travel_time":0,"stop_id":"120079"}},{"index":46,"name":"Algés (Estação) P10","id":"120261","lat":"38.699162","lon":"-9.227591","lines":["1103","1107"],"schedule":{"travel_time":1,"stop_id":"120261"}}]}