{"color":"#C61D23","headsign":"Carnaxide (Centro Cívico)","id":"1110_0_3","long_name":"Carnaxide via Queijas | Circular","line_id":"1110","shape_id":"222_4X7ZR","path":[{"index":1,"name":"Carnaxide (Centro Cívico)","id":"120415","lat":"38.725827","lon":"-9.241155","lines":["1109","1110"],"schedule":{"travel_time":0,"stop_id":"120415"}},{"index":2,"name":"R Cesário Verde","id":"120481","lat":"38.726941","lon":"-9.242331","lines":["1110"],"schedule":{"travel_time":1,"stop_id":"120481"}},{"index":3,"name":"R 25 de Abril","id":"120476","lat":"38.727840","lon":"-9.243276","lines":["1110"],"schedule":{"travel_time":0,"stop_id":"120476"}},{"index":4,"name":"R Aquilino Ribeiro 3","id":"120099","lat":"38.729102","lon":"-9.243899","lines":["1101","1105","1110","1503","1504","1522","1722","1723","1726","1728","1730"],"schedule":{"travel_time":1,"stop_id":"120099"}},{"index":5,"name":"R Aquilino Ribeiro 27","id":"120044","lat":"38.728207","lon":"-9.241369","lines":["1101","1105","1110","1503","1504","1522","1722","1723","1726","1728","1730"],"schedule":{"travel_time":1,"stop_id":"120044"}},{"index":6,"name":"R Aquilino Ribeiro 7","id":"120042","lat":"38.727592","lon":"-9.240131","lines":["1110"],"schedule":{"travel_time":0,"stop_id":"120042"}},{"index":7,"name":"R M Teixeira Gomes (C Saúde)","id":"120474","lat":"38.727798","lon":"-9.238717","lines":["1110"],"schedule":{"travel_time":0,"stop_id":"120474"}},{"index":8,"name":"R Manuel Teixeira Gomes (Bombeiros)","id":"120040","lat":"38.728626","lon":"-9.236855","lines":["1110"],"schedule":{"travel_time":1,"stop_id":"120040"}},{"index":9,"name":"Av Pf Reinaldo Santos (Hosp Sta Cruz)","id":"120038","lat":"38.727023","lon":"-9.234460","lines":["1110"],"schedule":{"travel_time":0,"stop_id":"120038"}},{"index":10,"name":"Estr da Outurela / Merc Municipal","id":"120438","lat":"38.725267","lon":"-9.236372","lines":["1110","1520","1731"],"schedule":{"travel_time":1,"stop_id":"120438"}},{"index":11,"name":"Estr da Outurela 135 / Escadaria","id":"120483","lat":"38.725463","lon":"-9.239097","lines":["1110","1520","1731"],"schedule":{"travel_time":1,"stop_id":"120483"}},{"index":12,"name":"Estr Outurela 164","id":"120417","lat":"38.724651","lon":"-9.242743","lines":["1109","1110","1520","1731"],"schedule":{"travel_time":1,"stop_id":"120417"}},{"index":13,"name":"R 5 Outubro 13 (Lgo Pátria Nova)","id":"120279","lat":"38.725387","lon":"-9.246036","lines":["1103","1105","1107","1109","1110","1507","1520","1522","1527","1528","1605","1606","1726","1728","1730","1731"],"schedule":{"travel_time":1,"stop_id":"120279"}},{"index":14,"name":"R 5 Outubro 2","id":"120281","lat":"38.725095","lon":"-9.249104","lines":["1103","1105","1107","1109","1110","1507","1520","1522","1527","1528","1605","1606","1726","1728","1730","1731"],"schedule":{"travel_time":0,"stop_id":"120281"}},{"index":15,"name":"Estr Desvio 20","id":"120395","lat":"38.724601","lon":"-9.249770","lines":["1105","1109","1110","1520","1522","1527","1731"],"schedule":{"travel_time":1,"stop_id":"120395"}},{"index":16,"name":"Carnaxide (C Branca)","id":"120431","lat":"38.723774","lon":"-9.247636","lines":["1110","1507","1520","1527","1528","1605","1606","1731"],"schedule":{"travel_time":0,"stop_id":"120431"}},{"index":17,"name":"Av Tomás Ribeiro 81","id":"120283","lat":"38.723219","lon":"-9.248406","lines":["1103","1107","1110","1507","1520","1527","1528","1605","1606","1726","1728","1730","1731"],"schedule":{"travel_time":1,"stop_id":"120283"}},{"index":18,"name":"Av Tomás Ribeiro (X) Sant N Sra Rocha","id":"120285","lat":"38.720735","lon":"-9.250854","lines":["1103","1107","1110","1507","1520","1527","1528","1605","1606","1726","1728","1730","1731"],"schedule":{"travel_time":1,"stop_id":"120285"}},{"index":19,"name":"Av Tomás Ribeiro 82","id":"120287","lat":"38.717509","lon":"-9.252359","lines":["1103","1107","1110","1507","1520","1527","1528","1605","1606","1726","1728","1730","1731"],"schedule":{"travel_time":1,"stop_id":"120287"}},{"index":20,"name":"Av Tomás Ribeiro (X) Tv Godinho","id":"120289","lat":"38.715998","lon":"-9.254038","lines":["1103","1107","1110","1507","1520","1527","1528","1605","1606","1726","1728","1730","1731"],"schedule":{"travel_time":0,"stop_id":"120289"}},{"index":21,"name":"R Cesário Verde (X) R C Lobo Oliveira","id":"120485","lat":"38.717921","lon":"-9.254864","lines":["1110"],"schedule":{"travel_time":1,"stop_id":"120485"}},{"index":22,"name":"R Cesário Verde 40","id":"120487","lat":"38.720090","lon":"-9.253599","lines":["1110"],"schedule":{"travel_time":1,"stop_id":"120487"}},{"index":23,"name":"R Cesário Verde 75","id":"120489","lat":"38.720144","lon":"-9.255674","lines":["1110"],"schedule":{"travel_time":1,"stop_id":"120489"}},{"index":24,"name":"R Ant Lopes Ribeiro (Farmácia)","id":"120491","lat":"38.719521","lon":"-9.257474","lines":["1110"],"schedule":{"travel_time":1,"stop_id":"120491"}},{"index":25,"name":"R J Iteperano Duarte 11","id":"120546","lat":"38.720122","lon":"-9.260461","lines":["1110","1111"],"schedule":{"travel_time":0,"stop_id":"120546"}},{"index":26,"name":"R António Maria Costa Macedo 27","id":"120501","lat":"38.720637","lon":"-9.261232","lines":["1110","1111"],"schedule":{"travel_time":0,"stop_id":"120501"}},{"index":27,"name":"Alameda de Queijas 1","id":"120503","lat":"38.722154","lon":"-9.260326","lines":["1110","1111"],"schedule":{"travel_time":1,"stop_id":"120503"}},{"index":28,"name":"R São Romão","id":"120505","lat":"38.724324","lon":"-9.262336","lines":["1110","1111"],"schedule":{"travel_time":1,"stop_id":"120505"}},{"index":29,"name":"R Açores 32","id":"120303","lat":"38.723270","lon":"-9.266329","lines":["1103","1106","1107","1110","1111","1507","1527","1726","1728","1729","1730","1733"],"schedule":{"travel_time":1,"stop_id":"120303"}},{"index":30,"name":"R Angra Heroísmo (Escadinhas)","id":"120305","lat":"38.721763","lon":"-9.266498","lines":["1103","1106","1107","1110","1111","1507","1520","1527","1528","1726","1728","1729","1730","1731","1733"],"schedule":{"travel_time":0,"stop_id":"120305"}},{"index":31,"name":"R Qta Bonfim (X) R Marquez Sá Bandeira","id":"120307","lat":"38.720458","lon":"-9.265822","lines":["1103","1106","1107","1110","1111","1507","1520","1527","1528","1726","1728","1729","1730","1731","1733"],"schedule":{"travel_time":1,"stop_id":"120307"}},{"index":32,"name":"Queijas (PSP)","id":"120309","lat":"38.720514","lon":"-9.263724","lines":["1103","1106","1107","1110","1111","1507","1520","1527","1528","1726","1728","1729","1730","1731","1733"],"schedule":{"travel_time":0,"stop_id":"120309"}},{"index":33,"name":"R João XXI (Igreja)","id":"120313","lat":"38.718816","lon":"-9.263157","lines":["1103","1106","1107","1110","1111","1507","1520","1527","1528","1726","1728","1729","1730","1731","1733"],"schedule":{"travel_time":1,"stop_id":"120313"}},{"index":34,"name":"R João XXI 1","id":"120296","lat":"38.717532","lon":"-9.263398","lines":["1103","1106","1107","1110","1111","1507","1520","1527","1528","1726","1728","1729","1730","1731","1733"],"schedule":{"travel_time":0,"stop_id":"120296"}},{"index":35,"name":"Av Tomás Ribeiro (Rot Queijas)","id":"120315","lat":"38.715391","lon":"-9.262512","lines":["1103","1107","1110","1507","1520","1527","1528","1605","1606","1726","1728","1730","1731"],"schedule":{"travel_time":1,"stop_id":"120315"}},{"index":36,"name":"Av Tomás Ribeiro (X) Beco dos Mouros","id":"120292","lat":"38.714581","lon":"-9.256510","lines":["1103","1107","1110","1507","1520","1527","1528","1605","1606","1726","1728","1730","1731"],"schedule":{"travel_time":2,"stop_id":"120292"}},{"index":37,"name":"Av Tomás Ribeiro (X) Tv Godinho","id":"120290","lat":"38.716036","lon":"-9.253846","lines":["1103","1107","1110","1507","1520","1527","1528","1605","1606","1726","1728","1730","1731"],"schedule":{"travel_time":0,"stop_id":"120290"}},{"index":38,"name":"Av Tomás Ribeiro 82","id":"120288","lat":"38.717430","lon":"-9.252296","lines":["1103","1107","1110","1507","1520","1527","1528","1605","1606","1726","1728","1730","1731"],"schedule":{"travel_time":1,"stop_id":"120288"}},{"index":39,"name":"Av Tomás Ribeiro (X) Sant N Sra Rocha","id":"120286","lat":"38.720707","lon":"-9.250737","lines":["1103","1107","1110","1507","1520","1527","1528","1605","1606","1726","1728","1730","1731"],"schedule":{"travel_time":1,"stop_id":"120286"}},{"index":40,"name":"Av Tomás Ribeiro 81A","id":"120284","lat":"38.723045","lon":"-9.248548","lines":["1103","1107","1110","1507","1520","1527","1528","1605","1606","1726","1728","1730","1731"],"schedule":{"travel_time":1,"stop_id":"120284"}},{"index":41,"name":"Av Tomás Ribeiro (Tv Escadinhas)","id":"120317","lat":"38.724371","lon":"-9.246609","lines":["1103","1105","1107","1109","1110","1507","1520","1522","1527","1528","1605","1606","1726","1728","1730","1731"],"schedule":{"travel_time":0,"stop_id":"120317"}},{"index":42,"name":"Av Tomás Ribeiro 47 (Cemitério)","id":"120049","lat":"38.723962","lon":"-9.243478","lines":["1101","1105","1109","1110","1504","1528","1722","1726","1730"],"schedule":{"travel_time":1,"stop_id":"120049"}},{"index":43,"name":"Carnaxide (Escola Secundária)","id":"120123","lat":"38.722622","lon":"-9.244832","lines":["1101","1105","1109","1110","1726","1730"],"schedule":{"travel_time":1,"stop_id":"120123"}},{"index":44,"name":"Av Tomás Ribeiro (Qta Acácias)","id":"120095","lat":"38.722550","lon":"-9.243007","lines":["1101","1105","1109","1110","1504","1528","1722","1726","1730"],"schedule":{"travel_time":0,"stop_id":"120095"}},{"index":45,"name":"Av Tomás Ribeiro 47 (Cemitério)","id":"120050","lat":"38.724040","lon":"-9.243265","lines":["1101","1105","1109","1110","1504","1528","1722","1726","1730"],"schedule":{"travel_time":1,"stop_id":"120050"}},{"index":46,"name":"Estr da Outurela (CTT / PSP)","id":"120433","lat":"38.724478","lon":"-9.242881","lines":["1109","1110","1520","1731"],"schedule":{"travel_time":0,"stop_id":"120433"}},{"index":47,"name":"Estr da Outurela 135 / Escadaria","id":"120435","lat":"38.725331","lon":"-9.239137","lines":["1110","1520","1731"],"schedule":{"travel_time":1,"stop_id":"120435"}},{"index":48,"name":"Estr Outurela (Mercado Municipal)","id":"120437","lat":"38.725224","lon":"-9.236951","lines":["1110","1520","1731"],"schedule":{"travel_time":1,"stop_id":"120437"}},{"index":49,"name":"Av Prof Rein Santos (Edif S Paulo)","id":"120035","lat":"38.725609","lon":"-9.234424","lines":["1101","1103","1105","1107","1109","1110","1502","1503","1504","1522","1605","1606","1722","1723","1726","1728","1730"],"schedule":{"travel_time":0,"stop_id":"120035"}},{"index":50,"name":"Av Prof Reinaldo Santos (Hosp Sta Cruz)","id":"120037","lat":"38.727377","lon":"-9.234218","lines":["1101","1103","1105","1107","1109","1110","1502","1503","1504","1522","1605","1606","1722","1723","1726","1728","1730"],"schedule":{"travel_time":1,"stop_id":"120037"}},{"index":51,"name":"R Manuel Teixeira Gomes (Bombeiros)","id":"120039","lat":"38.728748","lon":"-9.236794","lines":["1101","1103","1105","1107","1109","1110","1502","1503","1504","1522","1605","1606","1722","1723","1726","1728","1730"],"schedule":{"travel_time":0,"stop_id":"120039"}},{"index":52,"name":"R Manuel Teixeira Gomes 23A","id":"120473","lat":"38.728194","lon":"-9.238484","lines":["1101","1103","1105","1107","1109","1110","1502","1503","1504","1522","1605","1606","1722","1723","1726","1728","1730"],"schedule":{"travel_time":1,"stop_id":"120473"}},{"index":53,"name":"R Aquilino Ribeiro 7","id":"120041","lat":"38.727662","lon":"-9.240078","lines":["1101","1105","1110","1503","1504","1522","1605","1606","1722","1726","1728","1730"],"schedule":{"travel_time":0,"stop_id":"120041"}},{"index":54,"name":"R Aquilino Ribeiro 20","id":"120043","lat":"38.728511","lon":"-9.241654","lines":["1101","1105","1110","1503","1504","1522","1605","1606","1722","1726","1728","1730"],"schedule":{"travel_time":1,"stop_id":"120043"}},{"index":55,"name":"R Aquilino Ribeiro (Esc Preparatória)","id":"120045","lat":"38.728850","lon":"-9.244842","lines":["1101","1105","1110","1503","1504","1522","1605","1606","1722","1726","1728","1730"],"schedule":{"travel_time":0,"stop_id":"120045"}},{"index":56,"name":"R 25 de Abril","id":"120475","lat":"38.727677","lon":"-9.243195","lines":["1110"],"schedule":{"travel_time":1,"stop_id":"120475"}},{"index":57,"name":"R 25 de Abril","id":"120479","lat":"38.726684","lon":"-9.240695","lines":["1110"],"schedule":{"travel_time":1,"stop_id":"120479"}},{"index":58,"name":"Carnaxide (Centro Cívico)","id":"120415","lat":"38.725827","lon":"-9.241155","lines":["1109","1110"],"schedule":{"travel_time":0,"stop_id":"120415"}}]}