{"color":"#C61D23","headsign":"Massamá - Barcarena (Estação Sul)","id":"1111_0_2","long_name":"Massamá-Barcarena (Estação Sul) - Barcarena (Fábrica Pólvora)","line_id":"1111","shape_id":"224_4X7ZR","path":[{"index":1,"name":"Barcarena (Fábrica Pólvora Acesso Sul)","id":"120583","lat":"38.739566","lon":"-9.284780","lines":["1111"],"schedule":{"travel_time":0,"stop_id":"120583"}},{"index":2,"name":"Oeiras Golf Residence (Rotunda)","id":"120582","lat":"38.740198","lon":"-9.289029","lines":["1111","1529"],"schedule":{"travel_time":2,"stop_id":"120582"}},{"index":3,"name":"R Coop Pessoal Fábrica Pólvora","id":"120580","lat":"38.743171","lon":"-9.292146","lines":["1111","1529"],"schedule":{"travel_time":2,"stop_id":"120580"}},{"index":4,"name":"Estr Caminho da Serra (Simas)","id":"120578","lat":"38.734616","lon":"-9.289009","lines":["1111"],"schedule":{"travel_time":3,"stop_id":"120578"}},{"index":5,"name":"Estr Leceia (Fte X) Caminho Serra","id":"120576","lat":"38.730577","lon":"-9.288452","lines":["1111","1530","1531","1601","1617"],"schedule":{"travel_time":2,"stop_id":"120576"}},{"index":6,"name":"Leceia (Rotunda Idade Cobre)","id":"120567","lat":"38.728437","lon":"-9.285651","lines":["1111","1119","1520","1531","1617","1731"],"schedule":{"travel_time":1,"stop_id":"120567"}},{"index":7,"name":"R Moinho","id":"120574","lat":"38.726788","lon":"-9.285054","lines":["1111","1119"],"schedule":{"travel_time":0,"stop_id":"120574"}},{"index":8,"name":"Igreja Nossa Senhora da Piedade","id":"120572","lat":"38.727844","lon":"-9.284424","lines":["1111"],"schedule":{"travel_time":1,"stop_id":"120572"}},{"index":9,"name":"Leceia (Sociedade)","id":"120570","lat":"38.727735","lon":"-9.285329","lines":["1111","1119"],"schedule":{"travel_time":0,"stop_id":"120570"}},{"index":10,"name":"Leceia (Mercado)","id":"120568","lat":"38.728201","lon":"-9.285766","lines":["1111","1119","1520","1531","1617","1731"],"schedule":{"travel_time":0,"stop_id":"120568"}},{"index":11,"name":"R Tomás Leal da Câmara 8","id":"120566","lat":"38.729990","lon":"-9.285146","lines":["1111"],"schedule":{"travel_time":1,"stop_id":"120566"}},{"index":12,"name":"R Dom Manuel I 38","id":"120564","lat":"38.732018","lon":"-9.284628","lines":["1111"],"schedule":{"travel_time":1,"stop_id":"120564"}},{"index":13,"name":"R Dom Manuel I 41","id":"120562","lat":"38.732557","lon":"-9.282989","lines":["1111"],"schedule":{"travel_time":0,"stop_id":"120562"}},{"index":14,"name":"Barcarena (Ponte)","id":"120560","lat":"38.732311","lon":"-9.281058","lines":["1111","1520","1525","1530","1601","1731"],"schedule":{"travel_time":1,"stop_id":"120560"}},{"index":15,"name":"R Fernel Duarte 25","id":"120558","lat":"38.732540","lon":"-9.280117","lines":["1111"],"schedule":{"travel_time":1,"stop_id":"120558"}},{"index":16,"name":"Barcarena (Bombeiros)","id":"120556","lat":"38.731735","lon":"-9.278317","lines":["1111","1520","1525","1528","1731"],"schedule":{"travel_time":0,"stop_id":"120556"}},{"index":17,"name":"Barcarena (Cemitério)","id":"120554","lat":"38.729989","lon":"-9.276490","lines":["1111","1520","1528","1731"],"schedule":{"travel_time":1,"stop_id":"120554"}},{"index":18,"name":"R Ilha S Jorge Fte 8 (C Lameiro)","id":"120412","lat":"38.722191","lon":"-9.267775","lines":["1111","1520","1729","1730","1731"],"schedule":{"travel_time":4,"stop_id":"120412"}},{"index":19,"name":"R Angra Heroísmo (Escadinhas)","id":"120305","lat":"38.721763","lon":"-9.266498","lines":["1103","1106","1107","1110","1111","1507","1520","1527","1528","1726","1728","1729","1730","1731","1733"],"schedule":{"travel_time":0,"stop_id":"120305"}},{"index":20,"name":"R Qta Bonfim (X) R Marquez Sá Bandeira","id":"120307","lat":"38.720458","lon":"-9.265822","lines":["1103","1106","1107","1110","1111","1507","1520","1527","1528","1726","1728","1729","1730","1731","1733"],"schedule":{"travel_time":1,"stop_id":"120307"}},{"index":21,"name":"Queijas (PSP)","id":"120309","lat":"38.720514","lon":"-9.263724","lines":["1103","1106","1107","1110","1111","1507","1520","1527","1528","1726","1728","1729","1730","1731","1733"],"schedule":{"travel_time":0,"stop_id":"120309"}},{"index":22,"name":"R João XXI (Igreja)","id":"120313","lat":"38.718816","lon":"-9.263157","lines":["1103","1106","1107","1110","1111","1507","1520","1527","1528","1726","1728","1729","1730","1731","1733"],"schedule":{"travel_time":1,"stop_id":"120313"}},{"index":23,"name":"R João XXI 1","id":"120296","lat":"38.717532","lon":"-9.263398","lines":["1103","1106","1107","1110","1111","1507","1520","1527","1528","1726","1728","1729","1730","1731","1733"],"schedule":{"travel_time":0,"stop_id":"120296"}},{"index":24,"name":"R Camilo C Branco 31","id":"121296","lat":"38.715800","lon":"-9.261651","lines":["1111"],"schedule":{"travel_time":2,"stop_id":"121296"}},{"index":25,"name":"R Camilo C Branco (X) R Fel Castilho","id":"120548","lat":"38.716143","lon":"-9.258976","lines":["1111"],"schedule":{"travel_time":0,"stop_id":"120548"}},{"index":26,"name":"R J Iteperano Duarte 11","id":"120546","lat":"38.720122","lon":"-9.260461","lines":["1110","1111"],"schedule":{"travel_time":2,"stop_id":"120546"}},{"index":27,"name":"R António Maria Costa Macedo 27","id":"120501","lat":"38.720637","lon":"-9.261232","lines":["1110","1111"],"schedule":{"travel_time":0,"stop_id":"120501"}},{"index":28,"name":"Alameda de Queijas 1","id":"120503","lat":"38.722154","lon":"-9.260326","lines":["1110","1111"],"schedule":{"travel_time":1,"stop_id":"120503"}},{"index":29,"name":"R São Romão","id":"120505","lat":"38.724324","lon":"-9.262336","lines":["1110","1111"],"schedule":{"travel_time":0,"stop_id":"120505"}},{"index":30,"name":"R Açores 32","id":"120303","lat":"38.723270","lon":"-9.266329","lines":["1103","1106","1107","1110","1111","1507","1527","1726","1728","1729","1730","1733"],"schedule":{"travel_time":2,"stop_id":"120303"}},{"index":31,"name":"Estr Militar (Viv GNR)","id":"120408","lat":"38.731203","lon":"-9.272105","lines":["1107","1111","1729","1730"],"schedule":{"travel_time":3,"stop_id":"120408"}},{"index":32,"name":"Estr Militar (Fte Estudios)","id":"120406","lat":"38.733294","lon":"-9.270125","lines":["1107","1111","1729","1730"],"schedule":{"travel_time":1,"stop_id":"120406"}},{"index":33,"name":"Estr Militar 75","id":"120413","lat":"38.735323","lon":"-9.267924","lines":["1107","1111","1729","1730"],"schedule":{"travel_time":1,"stop_id":"120413"}},{"index":34,"name":"R Trabalho (Fábricas)","id":"120377","lat":"38.738220","lon":"-9.269267","lines":["1105","1107","1111","1522","1527","1528","1717","1729","1730"],"schedule":{"travel_time":1,"stop_id":"120377"}},{"index":35,"name":"R Mário Castelhano 40","id":"120379","lat":"38.740304","lon":"-9.268346","lines":["1105","1107","1111","1522","1527","1528","1717","1729","1730"],"schedule":{"travel_time":1,"stop_id":"120379"}},{"index":36,"name":"R Mario Castelhano (Consiglieri Park)","id":"120381","lat":"38.741741","lon":"-9.269270","lines":["1105","1107","1111","1522","1527","1528","1717","1729","1730"],"schedule":{"travel_time":0,"stop_id":"120381"}},{"index":37,"name":"Estr Consiglieri Pedroso 69","id":"120383","lat":"38.742764","lon":"-9.267929","lines":["1105","1107","1111","1522","1527","1528","1530","1601","1717","1729","1730"],"schedule":{"travel_time":1,"stop_id":"120383"}},{"index":38,"name":"Rua António Aleixo (X) Rua Tony de Matos","id":"126214","lat":"38.744301","lon":"-9.267817","lines":["1111"],"schedule":{"travel_time":0,"stop_id":"126214"}},{"index":39,"name":"Rua António Aleixo (X) Rua Bartolomeu Dias","id":"128308","lat":"38.746123","lon":"-9.266136","lines":["1111"],"schedule":{"travel_time":1,"stop_id":"128308"}},{"index":40,"name":"Estr Consigl Pedroso 52","id":"120387","lat":"38.744306","lon":"-9.266936","lines":["1105","1106","1107","1111","1522","1527","1528","1530","1601","1717","1729","1730"],"schedule":{"travel_time":1,"stop_id":"120387"}},{"index":41,"name":"Estr Consiglieri Pedroso 69","id":"120384","lat":"38.742921","lon":"-9.268002","lines":["1111"],"schedule":{"travel_time":0,"stop_id":"120384"}},{"index":42,"name":"Estr Consiglieri P (X) R M Castelhano","id":"120389","lat":"38.741884","lon":"-9.269407","lines":["1105","1106","1107","1111","1522","1527","1528","1530","1601","1717","1729","1730"],"schedule":{"travel_time":1,"stop_id":"120389"}},{"index":43,"name":"Estr Palmeiras (X) Estr Consig Pedroso","id":"120585","lat":"38.740948","lon":"-9.271523","lines":["1111","1528","1530","1601","1717"],"schedule":{"travel_time":0,"stop_id":"120585"}},{"index":44,"name":"Estr Consigl Pedroso 123","id":"120534","lat":"38.740227","lon":"-9.273357","lines":["1111","1528","1530","1601","1717"],"schedule":{"travel_time":1,"stop_id":"120534"}},{"index":45,"name":"Estr Cruz Cavalinhos 30","id":"120532","lat":"38.742334","lon":"-9.277415","lines":["1111","1528","1717"],"schedule":{"travel_time":1,"stop_id":"120532"}},{"index":46,"name":"Jardim Odette de Saint-Maurice","id":"121169","lat":"38.743721","lon":"-9.279334","lines":["1111","1528","1717"],"schedule":{"travel_time":1,"stop_id":"121169"}},{"index":47,"name":"R António Quadros Fte 8","id":"120530","lat":"38.744982","lon":"-9.279979","lines":["1111","1528"],"schedule":{"travel_time":0,"stop_id":"120530"}},{"index":48,"name":"R Juventude (X) R António Quadros","id":"121168","lat":"38.746097","lon":"-9.280556","lines":["1111","1528"],"schedule":{"travel_time":1,"stop_id":"121168"}},{"index":49,"name":"R Juventude (X) R Constituição","id":"120528","lat":"38.745943","lon":"-9.281275","lines":["1111","1717"],"schedule":{"travel_time":0,"stop_id":"120528"}},{"index":50,"name":"Av Sto António de Tercena","id":"120526","lat":"38.747418","lon":"-9.281772","lines":["1111"],"schedule":{"travel_time":1,"stop_id":"120526"}},{"index":51,"name":"Av Infante dom Henrique 42","id":"120524","lat":"38.748494","lon":"-9.282541","lines":["1111"],"schedule":{"travel_time":0,"stop_id":"120524"}},{"index":52,"name":"Av Infante D Henrique 135","id":"120522","lat":"38.750147","lon":"-9.281185","lines":["1111","1525"],"schedule":{"travel_time":1,"stop_id":"120522"}},{"index":53,"name":"Massamá - Barcarena (Estação Sul)","id":"120520","lat":"38.751366","lon":"-9.283970","lines":["1111","1525"],"schedule":{"travel_time":1,"stop_id":"120520"}}]}