{"color":"#C61D23","headsign":"Barcarena (Fábrica Pólvora Acesso Sul)","id":"1111_0_1","long_name":"Massamá-Barcarena (Estação Sul) - Barcarena (Fábrica Pólvora)","line_id":"1111","shape_id":"223_4X7ZR","path":[{"index":1,"name":"Massamá - Barcarena (Estação Sul)","id":"120520","lat":"38.751366","lon":"-9.283970","lines":["1111","1525"],"schedule":{"travel_time":0,"stop_id":"120520"}},{"index":2,"name":"Av Infante D Henrique 135","id":"120521","lat":"38.750029","lon":"-9.281469","lines":["1111","1525"],"schedule":{"travel_time":1,"stop_id":"120521"}},{"index":3,"name":"Av Infante dom Henrique 42","id":"120523","lat":"38.748371","lon":"-9.282374","lines":["1111"],"schedule":{"travel_time":1,"stop_id":"120523"}},{"index":4,"name":"Av Sto António de Tercena","id":"120525","lat":"38.747427","lon":"-9.281937","lines":["1111"],"schedule":{"travel_time":0,"stop_id":"120525"}},{"index":5,"name":"R Juventude (X) R António Quadros","id":"121167","lat":"38.745986","lon":"-9.280617","lines":["1111","1528"],"schedule":{"travel_time":2,"stop_id":"121167"}},{"index":6,"name":"R António Quadros Fte 8","id":"120529","lat":"38.744546","lon":"-9.280015","lines":["1111","1528"],"schedule":{"travel_time":0,"stop_id":"120529"}},{"index":7,"name":"Estr Cruz Cavalinhos 28","id":"120531","lat":"38.742124","lon":"-9.277300","lines":["1111","1528","1717"],"schedule":{"travel_time":1,"stop_id":"120531"}},{"index":8,"name":"Estr Consigl Pedroso 123","id":"120533","lat":"38.740268","lon":"-9.272985","lines":["1111","1528","1530","1601","1717"],"schedule":{"travel_time":1,"stop_id":"120533"}},{"index":9,"name":"Estr Consiglieri Pedroso 81","id":"120535","lat":"38.741636","lon":"-9.269710","lines":["1111","1530","1601"],"schedule":{"travel_time":1,"stop_id":"120535"}},{"index":10,"name":"Estr Consiglieri Pedroso 69","id":"120383","lat":"38.742764","lon":"-9.267929","lines":["1105","1107","1111","1522","1527","1528","1530","1601","1717","1729","1730"],"schedule":{"travel_time":1,"stop_id":"120383"}},{"index":11,"name":"Rua António Aleixo (X) Rua Tony de Matos","id":"126214","lat":"38.744301","lon":"-9.267817","lines":["1111"],"schedule":{"travel_time":0,"stop_id":"126214"}},{"index":12,"name":"Rua António Aleixo (X) Rua Bartolomeu Dias","id":"128308","lat":"38.746123","lon":"-9.266136","lines":["1111"],"schedule":{"travel_time":1,"stop_id":"128308"}},{"index":13,"name":"Estr Consigl Pedroso 52","id":"120387","lat":"38.744306","lon":"-9.266936","lines":["1105","1106","1107","1111","1522","1527","1528","1530","1601","1717","1729","1730"],"schedule":{"travel_time":1,"stop_id":"120387"}},{"index":14,"name":"Estr Consiglieri Pedroso 69","id":"120384","lat":"38.742921","lon":"-9.268002","lines":["1111"],"schedule":{"travel_time":0,"stop_id":"120384"}},{"index":15,"name":"Estr Consiglieri P (X) R M Castelhano","id":"120389","lat":"38.741884","lon":"-9.269407","lines":["1105","1106","1107","1111","1522","1527","1528","1530","1601","1717","1729","1730"],"schedule":{"travel_time":1,"stop_id":"120389"}},{"index":16,"name":"Estr Palmeiras (X) Estr Consig Pedroso","id":"120391","lat":"38.740537","lon":"-9.271399","lines":["1105","1106","1107","1111","1522","1527","1528","1717","1729","1730"],"schedule":{"travel_time":0,"stop_id":"120391"}},{"index":17,"name":"Estr Palmeiras 36","id":"120393","lat":"38.737897","lon":"-9.269560","lines":["1105","1106","1107","1111","1522","1527","1729","1730"],"schedule":{"travel_time":1,"stop_id":"120393"}},{"index":18,"name":"Estr Palmeiras (Fábricas)","id":"120414","lat":"38.737322","lon":"-9.269045","lines":["1111"],"schedule":{"travel_time":0,"stop_id":"120414"}},{"index":19,"name":"Estr Militar 73","id":"120405","lat":"38.735591","lon":"-9.267984","lines":["1106","1107","1111","1729","1730"],"schedule":{"travel_time":1,"stop_id":"120405"}},{"index":20,"name":"Estr Militar (Estudios)","id":"121275","lat":"38.733279","lon":"-9.270406","lines":["1106","1107","1111","1729","1730"],"schedule":{"travel_time":1,"stop_id":"121275"}},{"index":21,"name":"Estr Militar (Viv GNR)","id":"120407","lat":"38.731203","lon":"-9.272248","lines":["1106","1107","1111","1729","1730"],"schedule":{"travel_time":1,"stop_id":"120407"}},{"index":22,"name":"R Angra Heroísmo (Escadinhas)","id":"120305","lat":"38.721763","lon":"-9.266498","lines":["1103","1106","1107","1110","1111","1507","1520","1527","1528","1726","1728","1729","1730","1731","1733"],"schedule":{"travel_time":3,"stop_id":"120305"}},{"index":23,"name":"R Roberto Ivens","id":"120541","lat":"38.722063","lon":"-9.264568","lines":["1111"],"schedule":{"travel_time":1,"stop_id":"120541"}},{"index":24,"name":"R Mouzinho Silveira (X) Açores","id":"120543","lat":"38.723493","lon":"-9.263602","lines":["1103","1106","1107","1111","1507","1527","1726","1728","1729","1730","1733"],"schedule":{"travel_time":0,"stop_id":"120543"}},{"index":25,"name":"R São Romão","id":"120506","lat":"38.724125","lon":"-9.262280","lines":["1111"],"schedule":{"travel_time":1,"stop_id":"120506"}},{"index":26,"name":"Alameda de Queijas 1","id":"120504","lat":"38.722155","lon":"-9.260484","lines":["1111"],"schedule":{"travel_time":1,"stop_id":"120504"}},{"index":27,"name":"R António Maria Costa Macedo 27","id":"120502","lat":"38.720811","lon":"-9.261480","lines":["1111"],"schedule":{"travel_time":0,"stop_id":"120502"}},{"index":28,"name":"R J Iteperano Duarte 16","id":"120545","lat":"38.720050","lon":"-9.260361","lines":["1111"],"schedule":{"travel_time":1,"stop_id":"120545"}},{"index":29,"name":"R Camilo C Branco (X) R Fel Castilho","id":"120547","lat":"38.716217","lon":"-9.259026","lines":["1111"],"schedule":{"travel_time":1,"stop_id":"120547"}},{"index":30,"name":"R Camilo C Branco (X) Rua Alves Crespo","id":"120549","lat":"38.715912","lon":"-9.261934","lines":["1111"],"schedule":{"travel_time":1,"stop_id":"120549"}},{"index":31,"name":"Av Tomás Ribeiro (Rot Queijas)","id":"120293","lat":"38.715626","lon":"-9.262791","lines":["1103","1107","1111","1507","1520","1527","1528","1726","1728","1730","1731"],"schedule":{"travel_time":0,"stop_id":"120293"}},{"index":32,"name":"R João XXI 10","id":"120295","lat":"38.717597","lon":"-9.263256","lines":["1103","1106","1107","1111","1507","1520","1527","1528","1726","1728","1729","1730","1731","1733"],"schedule":{"travel_time":1,"stop_id":"120295"}},{"index":33,"name":"R João XXI (Igreja)","id":"120297","lat":"38.719079","lon":"-9.263025","lines":["1103","1106","1107","1111","1507","1520","1527","1528","1726","1728","1729","1730","1731","1733"],"schedule":{"travel_time":0,"stop_id":"120297"}},{"index":34,"name":"R Marques Sá Bandeira (Fte PSP)","id":"120310","lat":"38.720572","lon":"-9.264379","lines":["1111","1520","1528","1731"],"schedule":{"travel_time":1,"stop_id":"120310"}},{"index":35,"name":"R Qta Bonfim (X) Marquez Sá Bandeira","id":"120308","lat":"38.720677","lon":"-9.265873","lines":["1111","1520","1528","1731"],"schedule":{"travel_time":0,"stop_id":"120308"}},{"index":36,"name":"R Angra Heroísmo (Fte Escadinhas)","id":"120306","lat":"38.721833","lon":"-9.266452","lines":["1111","1520","1528","1731"],"schedule":{"travel_time":1,"stop_id":"120306"}},{"index":37,"name":"R Ilha S Jorge 4 (C Lameiro)","id":"120411","lat":"38.722255","lon":"-9.267172","lines":["1107","1111","1520","1729","1730","1731"],"schedule":{"travel_time":0,"stop_id":"120411"}},{"index":38,"name":"Barcarena (Cemitério)","id":"120553","lat":"38.730201","lon":"-9.276500","lines":["1111","1520","1528","1731"],"schedule":{"travel_time":4,"stop_id":"120553"}},{"index":39,"name":"Barcarena (Bombeiros)","id":"120555","lat":"38.731767","lon":"-9.278150","lines":["1111","1520","1525","1528","1731"],"schedule":{"travel_time":1,"stop_id":"120555"}},{"index":40,"name":"Barcarena (Rotunda)","id":"120557","lat":"38.732664","lon":"-9.280044","lines":["1111","1525","1528"],"schedule":{"travel_time":0,"stop_id":"120557"}},{"index":41,"name":"Barcarena (Ponte)","id":"120559","lat":"38.732900","lon":"-9.280705","lines":["1111","1520","1525","1530","1601","1731"],"schedule":{"travel_time":0,"stop_id":"120559"}},{"index":42,"name":"R Dom Manuel I 41","id":"120561","lat":"38.732596","lon":"-9.282921","lines":["1111"],"schedule":{"travel_time":1,"stop_id":"120561"}},{"index":43,"name":"R Dom Manuel I 38","id":"120563","lat":"38.732060","lon":"-9.284689","lines":["1111"],"schedule":{"travel_time":1,"stop_id":"120563"}},{"index":44,"name":"R Tomás Leal da Câmara 8","id":"120565","lat":"38.729824","lon":"-9.285242","lines":["1111"],"schedule":{"travel_time":1,"stop_id":"120565"}},{"index":45,"name":"Leceia (Rotunda Idade Cobre)","id":"120567","lat":"38.728437","lon":"-9.285651","lines":["1111","1119","1520","1531","1617","1731"],"schedule":{"travel_time":0,"stop_id":"120567"}},{"index":46,"name":"Leceia (Sociedade)","id":"120569","lat":"38.727675","lon":"-9.285258","lines":["1111"],"schedule":{"travel_time":1,"stop_id":"120569"}},{"index":47,"name":"Igreja Nossa Senhora da Piedade","id":"120571","lat":"38.727832","lon":"-9.284544","lines":["1111"],"schedule":{"travel_time":0,"stop_id":"120571"}},{"index":48,"name":"R Moinho","id":"120573","lat":"38.726872","lon":"-9.284935","lines":["1111"],"schedule":{"travel_time":0,"stop_id":"120573"}},{"index":49,"name":"Leceia (Mercado)","id":"120568","lat":"38.728201","lon":"-9.285766","lines":["1111","1119","1520","1531","1617","1731"],"schedule":{"travel_time":1,"stop_id":"120568"}},{"index":50,"name":"Estr Leceia (Fte X) Caminho Serra","id":"120575","lat":"38.730678","lon":"-9.288440","lines":["1111","1530","1531","1601","1617"],"schedule":{"travel_time":1,"stop_id":"120575"}},{"index":51,"name":"Estr Caminho da Serra (Simas)","id":"120577","lat":"38.734583","lon":"-9.288880","lines":["1111"],"schedule":{"travel_time":2,"stop_id":"120577"}},{"index":52,"name":"R Coop Pessoal Fábrica Pólvora","id":"120579","lat":"38.743048","lon":"-9.291939","lines":["1111","1529"],"schedule":{"travel_time":3,"stop_id":"120579"}},{"index":53,"name":"R Azenhas 23E","id":"120581","lat":"38.740155","lon":"-9.289151","lines":["1111"],"schedule":{"travel_time":1,"stop_id":"120581"}},{"index":54,"name":"Barcarena (Fábrica Pólvora Acesso Sul)","id":"120583","lat":"38.739566","lon":"-9.284780","lines":["1111"],"schedule":{"travel_time":3,"stop_id":"120583"}}]}