{"color":"#C61D23","headsign":"Lage (Centro)","id":"1115_1_1","long_name":"Caxias (Ped Italiana) - Lage (Centro) via Escolas","line_id":"1115","shape_id":"228_4X7ZR","path":[{"index":1,"name":"Caxias (Ped Italiana)","id":"120675","lat":"38.712941","lon":"-9.276020","lines":["1115","1117","1122","1525"],"schedule":{"travel_time":0,"stop_id":"120675"}},{"index":2,"name":"R Pedreira Italiana (Rotunda)","id":"120677","lat":"38.711671","lon":"-9.274857","lines":["1115","1117","1122","1525"],"schedule":{"travel_time":0,"stop_id":"120677"}},{"index":3,"name":"R Viscondessa Stº Amaro 20","id":"120679","lat":"38.709564","lon":"-9.274631","lines":["1115","1117","1122","1525"],"schedule":{"travel_time":1,"stop_id":"120679"}},{"index":4,"name":"Laveiras (Coreto)","id":"120595","lat":"38.707784","lon":"-9.273801","lines":["1115","1117","1122","1507","1525","1606","1725"],"schedule":{"travel_time":1,"stop_id":"120595"}},{"index":5,"name":"Av João Freitas Branco 24","id":"120597","lat":"38.709573","lon":"-9.272455","lines":["1115","1117","1122","1507","1525","1606","1725"],"schedule":{"travel_time":1,"stop_id":"120597"}},{"index":6,"name":"Av J Freitas Branco (Lgo Qta Jardim)","id":"120599","lat":"38.711078","lon":"-9.271136","lines":["1115","1117","1122","1507","1525","1606","1725"],"schedule":{"travel_time":0,"stop_id":"120599"}},{"index":7,"name":"Estr Murganhal (Hosp Caxias)","id":"120681","lat":"38.708177","lon":"-9.270306","lines":["1115","1117"],"schedule":{"travel_time":1,"stop_id":"120681"}},{"index":8,"name":"R Jorge Rivotti (X) R a Vasconcelos","id":"120683","lat":"38.702568","lon":"-9.271740","lines":["1115","1117","1525"],"schedule":{"travel_time":2,"stop_id":"120683"}},{"index":9,"name":"Caxias (Estação)","id":"120662","lat":"38.699423","lon":"-9.274043","lines":["1115","1117"],"schedule":{"travel_time":1,"stop_id":"120662"}},{"index":10,"name":"Av A Florêncio Santos (Jta Freguesia)","id":"120589","lat":"38.701376","lon":"-9.275794","lines":["1115","1117","1122","1507","1525"],"schedule":{"travel_time":1,"stop_id":"120589"}},{"index":11,"name":"Av Cons Ferreira Lobo 2A (CTT)","id":"120591","lat":"38.703735","lon":"-9.274660","lines":["1115","1117","1507","1525","1725"],"schedule":{"travel_time":1,"stop_id":"120591"}},{"index":12,"name":"Av Cons Ferreira Lobo 40","id":"120593","lat":"38.706733","lon":"-9.274879","lines":["1115","1117","1507","1525","1725"],"schedule":{"travel_time":1,"stop_id":"120593"}},{"index":13,"name":"R Calvet Magalhães 58","id":"120663","lat":"38.708270","lon":"-9.277439","lines":["1115","1117","1122","1606"],"schedule":{"travel_time":1,"stop_id":"120663"}},{"index":14,"name":"R Fernando Vaz 6","id":"120665","lat":"38.708403","lon":"-9.281659","lines":["1115","1117"],"schedule":{"travel_time":1,"stop_id":"120665"}},{"index":15,"name":"R Cedros 74","id":"120667","lat":"38.705986","lon":"-9.282075","lines":["1115","1117","1122"],"schedule":{"travel_time":1,"stop_id":"120667"}},{"index":16,"name":"Alto Lagoal (B Chelag)","id":"120669","lat":"38.703406","lon":"-9.282602","lines":["1115","1117","1122"],"schedule":{"travel_time":1,"stop_id":"120669"}},{"index":17,"name":"R S Gabriel 18","id":"120648","lat":"38.702075","lon":"-9.281986","lines":["1115","1117","1122","1725"],"schedule":{"travel_time":1,"stop_id":"120648"}},{"index":18,"name":"R Aug Sousa Lobo (X) Al Cal Gulbenk","id":"120646","lat":"38.702866","lon":"-9.284697","lines":["1115","1117","1122","1725"],"schedule":{"travel_time":1,"stop_id":"120646"}},{"index":19,"name":"R Augusto Sousa Lobo (X) R Maluda","id":"120644","lat":"38.704572","lon":"-9.286483","lines":["1115","1117","1122","1725"],"schedule":{"travel_time":0,"stop_id":"120644"}},{"index":20,"name":"R Manuel Viegas Guerreiro 1","id":"120637","lat":"38.709031","lon":"-9.288768","lines":["1115","1117","1606"],"schedule":{"travel_time":2,"stop_id":"120637"}},{"index":21,"name":"Qta Torneiro","id":"120639","lat":"38.710136","lon":"-9.289444","lines":["1115","1117","1606"],"schedule":{"travel_time":1,"stop_id":"120639"}},{"index":22,"name":"R António Sena da Silva","id":"120641","lat":"38.709737","lon":"-9.285922","lines":["1115","1117"],"schedule":{"travel_time":1,"stop_id":"120641"}},{"index":23,"name":"Terrugem (Cab Pt)","id":"120636","lat":"38.704791","lon":"-9.288235","lines":["1115","1117","1122","1606","1725"],"schedule":{"travel_time":2,"stop_id":"120636"}},{"index":24,"name":"R Inst c Agrolongo 51","id":"120671","lat":"38.703761","lon":"-9.290541","lines":["1115","1117","1122","1606","1725"],"schedule":{"travel_time":0,"stop_id":"120671"}},{"index":25,"name":"R Inst C Agrolongo 35","id":"120632","lat":"38.702215","lon":"-9.290795","lines":["1115","1117","1606","1725"],"schedule":{"travel_time":1,"stop_id":"120632"}},{"index":26,"name":"R Angola 14","id":"120673","lat":"38.700253","lon":"-9.290814","lines":["1115","1117","1606","1725"],"schedule":{"travel_time":0,"stop_id":"120673"}},{"index":27,"name":"Paço De Arcos (Estação Norte)","id":"120605","lat":"38.698727","lon":"-9.291167","lines":["1115","1117","1123","1610","1611","1616"],"schedule":{"travel_time":1,"stop_id":"120605"}},{"index":28,"name":"Paço Arcos (X) Tap Mocho","id":"120891","lat":"38.699913","lon":"-9.295530","lines":["1115","1117","1122","1123","1616","1617","1725"],"schedule":{"travel_time":2,"stop_id":"120891"}},{"index":29,"name":"Paço Arcos (Esc Preparatória)","id":"120689","lat":"38.697603","lon":"-9.296357","lines":["1115","1117","1122","1123","1616","1617","1725"],"schedule":{"travel_time":1,"stop_id":"120689"}},{"index":30,"name":"Av Elvira Velez (Esc Preparatória)","id":"121243","lat":"38.698251","lon":"-9.296763","lines":["1115","1117","1123","1616","1617"],"schedule":{"travel_time":0,"stop_id":"121243"}},{"index":31,"name":"Paço Arcos (X) Tap Mocho","id":"120687","lat":"38.699894","lon":"-9.295375","lines":["1115","1117","1123","1616","1617","1725"],"schedule":{"travel_time":1,"stop_id":"120687"}},{"index":32,"name":"Estr Paço Arcos (CC)","id":"120607","lat":"38.700852","lon":"-9.293546","lines":["1115","1117","1119","1123","1531","1610","1611","1616","1617"],"schedule":{"travel_time":1,"stop_id":"120607"}},{"index":33,"name":"Estr Paço Arcos (Veolia)","id":"120609","lat":"38.704222","lon":"-9.295042","lines":["1115","1117","1119","1122","1123","1531","1610","1611","1616","1617"],"schedule":{"travel_time":1,"stop_id":"120609"}},{"index":34,"name":"Estr Paço Arcos (Supermercado)","id":"120611","lat":"38.705965","lon":"-9.295184","lines":["1115","1117","1119","1122","1123","1531","1610","1611","1616","1617"],"schedule":{"travel_time":0,"stop_id":"120611"}},{"index":35,"name":"Paço Arcos (Alto Mocho)","id":"120613","lat":"38.706957","lon":"-9.296141","lines":["1115","1117","1122"],"schedule":{"travel_time":1,"stop_id":"120613"}},{"index":36,"name":"Av Fundadores 26","id":"120615","lat":"38.705534","lon":"-9.297558","lines":["1115","1117","1122"],"schedule":{"travel_time":0,"stop_id":"120615"}},{"index":37,"name":"Av Fundadores (Ringue)","id":"120617","lat":"38.703649","lon":"-9.299065","lines":["1115","1117","1122"],"schedule":{"travel_time":1,"stop_id":"120617"}},{"index":38,"name":"Av A Bern Cabral Macedo (Oeiras Parque)","id":"120619","lat":"38.704195","lon":"-9.301642","lines":["1115","1117","1120","1604","1606"],"schedule":{"travel_time":1,"stop_id":"120619"}},{"index":39,"name":"Estr de Oeiras 10","id":"120621","lat":"38.705611","lon":"-9.307578","lines":["1115","1117","1523"],"schedule":{"travel_time":1,"stop_id":"120621"}},{"index":40,"name":"Estr Ribeira Lage","id":"121299","lat":"38.709221","lon":"-9.312956","lines":["1115","1117","1523","1608"],"schedule":{"travel_time":2,"stop_id":"121299"}},{"index":41,"name":"Lage (Centro)","id":"120961","lat":"38.710633","lon":"-9.314434","lines":["1115","1117","1125","1608"],"schedule":{"travel_time":1,"stop_id":"120961"}}]}