{"color":"#C61D23","headsign":"Paço De Arcos (Estação Norte)","id":"1115_3_1","long_name":"Caxias (Ped Italiana) - Paço de Arcos (Estação Norte)","line_id":"1115","shape_id":"231_4X7ZR","path":[{"index":1,"name":"Caxias (Ped Italiana)","id":"120675","lat":"38.712941","lon":"-9.276020","lines":["1115","1117","1122","1525"],"schedule":{"travel_time":0,"stop_id":"120675"}},{"index":2,"name":"R Pedreira Italiana (Rotunda)","id":"120677","lat":"38.711671","lon":"-9.274857","lines":["1115","1117","1122","1525"],"schedule":{"travel_time":0,"stop_id":"120677"}},{"index":3,"name":"R Viscondessa Stº Amaro 20","id":"120679","lat":"38.709564","lon":"-9.274631","lines":["1115","1117","1122","1525"],"schedule":{"travel_time":1,"stop_id":"120679"}},{"index":4,"name":"Laveiras (Coreto)","id":"120595","lat":"38.707784","lon":"-9.273801","lines":["1115","1117","1122","1507","1525","1606","1725"],"schedule":{"travel_time":1,"stop_id":"120595"}},{"index":5,"name":"Av João Freitas Branco 24","id":"120597","lat":"38.709573","lon":"-9.272455","lines":["1115","1117","1122","1507","1525","1606","1725"],"schedule":{"travel_time":1,"stop_id":"120597"}},{"index":6,"name":"Av J Freitas Branco (Lgo Qta Jardim)","id":"120599","lat":"38.711078","lon":"-9.271136","lines":["1115","1117","1122","1507","1525","1606","1725"],"schedule":{"travel_time":0,"stop_id":"120599"}},{"index":7,"name":"Estr Murganhal (Hosp Caxias)","id":"120681","lat":"38.708177","lon":"-9.270306","lines":["1115","1117"],"schedule":{"travel_time":1,"stop_id":"120681"}},{"index":8,"name":"R Jorge Rivotti (X) R a Vasconcelos","id":"120683","lat":"38.702568","lon":"-9.271740","lines":["1115","1117","1525"],"schedule":{"travel_time":2,"stop_id":"120683"}},{"index":9,"name":"Caxias (Estação)","id":"120662","lat":"38.699423","lon":"-9.274043","lines":["1115","1117"],"schedule":{"travel_time":1,"stop_id":"120662"}},{"index":10,"name":"Av A Florêncio Santos (Jta Freguesia)","id":"120589","lat":"38.701376","lon":"-9.275794","lines":["1115","1117","1122","1507","1525"],"schedule":{"travel_time":1,"stop_id":"120589"}},{"index":11,"name":"Av Cons Ferreira Lobo 2A (CTT)","id":"120591","lat":"38.703735","lon":"-9.274660","lines":["1115","1117","1507","1525","1725"],"schedule":{"travel_time":1,"stop_id":"120591"}},{"index":12,"name":"Av Cons Ferreira Lobo 40","id":"120593","lat":"38.706733","lon":"-9.274879","lines":["1115","1117","1507","1525","1725"],"schedule":{"travel_time":1,"stop_id":"120593"}},{"index":13,"name":"R Calvet Magalhães 58","id":"120663","lat":"38.708270","lon":"-9.277439","lines":["1115","1117","1122","1606"],"schedule":{"travel_time":1,"stop_id":"120663"}},{"index":14,"name":"R Fernando Vaz 6","id":"120665","lat":"38.708403","lon":"-9.281659","lines":["1115","1117"],"schedule":{"travel_time":1,"stop_id":"120665"}},{"index":15,"name":"R Cedros 74","id":"120667","lat":"38.705986","lon":"-9.282075","lines":["1115","1117","1122"],"schedule":{"travel_time":1,"stop_id":"120667"}},{"index":16,"name":"Alto Lagoal (B Chelag)","id":"120669","lat":"38.703406","lon":"-9.282602","lines":["1115","1117","1122"],"schedule":{"travel_time":1,"stop_id":"120669"}},{"index":17,"name":"R S Gabriel 18","id":"120648","lat":"38.702075","lon":"-9.281986","lines":["1115","1117","1122","1725"],"schedule":{"travel_time":1,"stop_id":"120648"}},{"index":18,"name":"R Aug Sousa Lobo (X) Al Cal Gulbenk","id":"120646","lat":"38.702866","lon":"-9.284697","lines":["1115","1117","1122","1725"],"schedule":{"travel_time":0,"stop_id":"120646"}},{"index":19,"name":"R Augusto Sousa Lobo (X) R Maluda","id":"120644","lat":"38.704572","lon":"-9.286483","lines":["1115","1117","1122","1725"],"schedule":{"travel_time":1,"stop_id":"120644"}},{"index":20,"name":"R Manuel Viegas Guerreiro 1","id":"120637","lat":"38.709031","lon":"-9.288768","lines":["1115","1117","1606"],"schedule":{"travel_time":2,"stop_id":"120637"}},{"index":21,"name":"Qta Torneiro","id":"120639","lat":"38.710136","lon":"-9.289444","lines":["1115","1117","1606"],"schedule":{"travel_time":0,"stop_id":"120639"}},{"index":22,"name":"R António Sena da Silva","id":"120641","lat":"38.709737","lon":"-9.285922","lines":["1115","1117"],"schedule":{"travel_time":2,"stop_id":"120641"}},{"index":23,"name":"Terrugem (Cab Pt)","id":"120636","lat":"38.704791","lon":"-9.288235","lines":["1115","1117","1122","1606","1725"],"schedule":{"travel_time":1,"stop_id":"120636"}},{"index":24,"name":"R Inst c Agrolongo 51","id":"120671","lat":"38.703761","lon":"-9.290541","lines":["1115","1117","1122","1606","1725"],"schedule":{"travel_time":1,"stop_id":"120671"}},{"index":25,"name":"R Inst C Agrolongo 35","id":"120632","lat":"38.702215","lon":"-9.290795","lines":["1115","1117","1606","1725"],"schedule":{"travel_time":0,"stop_id":"120632"}},{"index":26,"name":"R Angola 14","id":"120673","lat":"38.700253","lon":"-9.290814","lines":["1115","1117","1606","1725"],"schedule":{"travel_time":1,"stop_id":"120673"}},{"index":27,"name":"Paço De Arcos (Estação Norte)","id":"120605","lat":"38.698727","lon":"-9.291167","lines":["1115","1117","1123","1610","1611","1616"],"schedule":{"travel_time":1,"stop_id":"120605"}}]}