{"color":"#C61D23","headsign":"Caxias (Ped Italiana)","id":"1122_0_1","long_name":"Bº Joaquim Matias - Caxias (Ped Italiana)","line_id":"1122","shape_id":"255_4X7ZR","path":[{"index":1,"name":"Bº Joaquim Matias","id":"120881","lat":"38.690914","lon":"-9.301393","lines":["1122","1124"],"schedule":{"travel_time":0,"stop_id":"120881"}},{"index":2,"name":"Av Eng Bonneville Franco (Esc Náutica)","id":"120883","lat":"38.691953","lon":"-9.299140","lines":["1122","1124"],"schedule":{"travel_time":1,"stop_id":"120883"}},{"index":3,"name":"R Costa Pinto (Quartel)","id":"120885","lat":"38.694294","lon":"-9.295613","lines":["1122","1124"],"schedule":{"travel_time":1,"stop_id":"120885"}},{"index":4,"name":"R Costa Pinto (Mercado)","id":"120887","lat":"38.694739","lon":"-9.293634","lines":["1122","1124"],"schedule":{"travel_time":0,"stop_id":"120887"}},{"index":5,"name":"Paço De Arcos (Estação Sul)","id":"120889","lat":"38.697330","lon":"-9.292384","lines":["1122","1124"],"schedule":{"travel_time":1,"stop_id":"120889"}},{"index":6,"name":"Paço Arcos (X) Tap Mocho","id":"120891","lat":"38.699913","lon":"-9.295530","lines":["1115","1117","1122","1123","1616","1617","1725"],"schedule":{"travel_time":2,"stop_id":"120891"}},{"index":7,"name":"Paço Arcos (Esc Preparatória)","id":"120689","lat":"38.697603","lon":"-9.296357","lines":["1115","1117","1122","1123","1616","1617","1725"],"schedule":{"travel_time":1,"stop_id":"120689"}},{"index":8,"name":"R Lino de Assunção 4B","id":"121314","lat":"38.697113","lon":"-9.293276","lines":["1122"],"schedule":{"travel_time":1,"stop_id":"121314"}},{"index":9,"name":"Paço de Arcos (Estação Norte)","id":"120769","lat":"38.698278","lon":"-9.290930","lines":["1120","1122","1606"],"schedule":{"travel_time":1,"stop_id":"120769"}},{"index":10,"name":"Av A B Cab Macedo (X) R Joaquim Quirino","id":"120768","lat":"38.701003","lon":"-9.296424","lines":["1120","1122","1606"],"schedule":{"travel_time":1,"stop_id":"120768"}},{"index":11,"name":"Av Ant Bern Cabr Macedo (X) R Fund","id":"120766","lat":"38.702775","lon":"-9.299031","lines":["1120","1122","1606"],"schedule":{"travel_time":1,"stop_id":"120766"}},{"index":12,"name":"Oeiras (Aerlis)","id":"120865","lat":"38.703525","lon":"-9.301885","lines":["1121","1122"],"schedule":{"travel_time":1,"stop_id":"120865"}},{"index":13,"name":"R Coro de Santo Amaro de Oeiras 12A","id":"120867","lat":"38.701016","lon":"-9.305055","lines":["1121","1122"],"schedule":{"travel_time":1,"stop_id":"120867"}},{"index":14,"name":"Av Eng Álvaro Roquette (Hospital)","id":"120895","lat":"38.700988","lon":"-9.305751","lines":["1121","1122"],"schedule":{"travel_time":1,"stop_id":"120895"}},{"index":15,"name":"Oeiras Parque","id":"120897","lat":"38.703571","lon":"-9.303886","lines":["1121","1122","1125","1601","1612"],"schedule":{"travel_time":0,"stop_id":"120897"}},{"index":16,"name":"Av A Bern Cabral Macedo (Pq Poetas)","id":"120625","lat":"38.703840","lon":"-9.301223","lines":["1115","1117","1120","1121","1122","1125","1606"],"schedule":{"travel_time":1,"stop_id":"120625"}},{"index":17,"name":"Av Fundadores (Ringue)","id":"120618","lat":"38.703638","lon":"-9.298924","lines":["1115","1117","1122","1125"],"schedule":{"travel_time":1,"stop_id":"120618"}},{"index":18,"name":"Av Fundadores 26","id":"120616","lat":"38.705410","lon":"-9.297509","lines":["1115","1117","1122","1125"],"schedule":{"travel_time":0,"stop_id":"120616"}},{"index":19,"name":"Paço Arcos (Alto Mocho)","id":"120614","lat":"38.706870","lon":"-9.296006","lines":["1115","1117","1122","1125"],"schedule":{"travel_time":1,"stop_id":"120614"}},{"index":20,"name":"Estr Paço Arcos 52","id":"120720","lat":"38.707232","lon":"-9.295400","lines":["1122"],"schedule":{"travel_time":0,"stop_id":"120720"}},{"index":21,"name":"Estr Paço Arcos (Serviços CM Oeiras)","id":"120721","lat":"38.709850","lon":"-9.295453","lines":["1119","1122","1123","1125","1531","1610","1611","1616","1617"],"schedule":{"travel_time":1,"stop_id":"120721"}},{"index":22,"name":"Estr Paço Arcos (Serviços CM Oeiras)","id":"120717","lat":"38.708642","lon":"-9.296235","lines":["1119","1122","1123","1531","1610","1611","1616","1617"],"schedule":{"travel_time":1,"stop_id":"120717"}},{"index":23,"name":"Estr Paço Arcos 52","id":"120719","lat":"38.707393","lon":"-9.295500","lines":["1119","1122","1123","1531","1610","1611","1616","1617"],"schedule":{"travel_time":0,"stop_id":"120719"}},{"index":24,"name":"Estr Paço Arcos (Supermercado)","id":"120612","lat":"38.706145","lon":"-9.295404","lines":["1122"],"schedule":{"travel_time":0,"stop_id":"120612"}},{"index":25,"name":"Estr Paço Arcos 42","id":"120610","lat":"38.704300","lon":"-9.295180","lines":["1115","1117","1119","1122","1123","1531","1610","1611","1616","1617"],"schedule":{"travel_time":1,"stop_id":"120610"}},{"index":26,"name":"Estr Paço Arcos (Lj Solid Seg Social)","id":"120608","lat":"38.701725","lon":"-9.294095","lines":["1115","1117","1119","1122","1123","1531","1610","1611","1616","1617"],"schedule":{"travel_time":1,"stop_id":"120608"}},{"index":27,"name":"R Adriano José da Silva 1","id":"121310","lat":"38.700389","lon":"-9.292250","lines":["1122"],"schedule":{"travel_time":0,"stop_id":"121310"}},{"index":28,"name":"R Conde Rio Maior (Escola)","id":"121312","lat":"38.702340","lon":"-9.292290","lines":["1122"],"schedule":{"travel_time":1,"stop_id":"121312"}},{"index":29,"name":"R Conde Rio Maior 56","id":"120633","lat":"38.704146","lon":"-9.289894","lines":["1115","1117","1122","1606","1725"],"schedule":{"travel_time":1,"stop_id":"120633"}},{"index":30,"name":"Av Conde S Januário 54","id":"120635","lat":"38.704894","lon":"-9.288059","lines":["1115","1117","1122","1606","1725"],"schedule":{"travel_time":1,"stop_id":"120635"}},{"index":31,"name":"R Augusto Sousa Lobo (X) R Maluda","id":"120643","lat":"38.704444","lon":"-9.286590","lines":["1115","1117","1122","1725"],"schedule":{"travel_time":0,"stop_id":"120643"}},{"index":32,"name":"R Aug Sousa Lobo (X) Al Cal Gulbenk","id":"120645","lat":"38.702836","lon":"-9.284820","lines":["1115","1117","1122","1725"],"schedule":{"travel_time":1,"stop_id":"120645"}},{"index":33,"name":"R S Gabriel 11A","id":"120647","lat":"38.702034","lon":"-9.281861","lines":["1115","1117","1122","1725"],"schedule":{"travel_time":1,"stop_id":"120647"}},{"index":34,"name":"Alto Lagoal (B Chelag)","id":"120649","lat":"38.704212","lon":"-9.281705","lines":["1115","1117","1122"],"schedule":{"travel_time":0,"stop_id":"120649"}},{"index":35,"name":"R Pero Alenquer 79","id":"120651","lat":"38.705916","lon":"-9.280962","lines":["1115","1117","1122"],"schedule":{"travel_time":1,"stop_id":"120651"}},{"index":36,"name":"R Cedros 74","id":"120667","lat":"38.705986","lon":"-9.282075","lines":["1115","1117","1122"],"schedule":{"travel_time":1,"stop_id":"120667"}},{"index":37,"name":"Alto Lagoal (B Chelag)","id":"120669","lat":"38.703406","lon":"-9.282602","lines":["1115","1117","1122"],"schedule":{"travel_time":0,"stop_id":"120669"}},{"index":38,"name":"R Vasco Gama 23a","id":"120899","lat":"38.703944","lon":"-9.280235","lines":["1122","1725"],"schedule":{"travel_time":2,"stop_id":"120899"}},{"index":39,"name":"R Vasco Gama 3","id":"120901","lat":"38.702466","lon":"-9.277574","lines":["1122","1725"],"schedule":{"travel_time":1,"stop_id":"120901"}},{"index":40,"name":"R Bernardim Ribeiro 3","id":"120903","lat":"38.701904","lon":"-9.276591","lines":["1122","1725"],"schedule":{"travel_time":0,"stop_id":"120903"}},{"index":41,"name":"Caxias (Estação)","id":"120587","lat":"38.698899","lon":"-9.274041","lines":["1122","1507","1525"],"schedule":{"travel_time":2,"stop_id":"120587"}},{"index":42,"name":"Av A Florêncio Santos (Jta Freguesia)","id":"120589","lat":"38.701376","lon":"-9.275794","lines":["1115","1117","1122","1507","1525"],"schedule":{"travel_time":1,"stop_id":"120589"}},{"index":43,"name":"Laveiras (Coreto)","id":"120595","lat":"38.707784","lon":"-9.273801","lines":["1115","1117","1122","1507","1525","1606","1725"],"schedule":{"travel_time":2,"stop_id":"120595"}},{"index":44,"name":"Av João Freitas Branco 24","id":"120597","lat":"38.709573","lon":"-9.272455","lines":["1115","1117","1122","1507","1525","1606","1725"],"schedule":{"travel_time":1,"stop_id":"120597"}},{"index":45,"name":"Av J Freitas Branco (Lgo Qta Jardim)","id":"120599","lat":"38.711078","lon":"-9.271136","lines":["1115","1117","1122","1507","1525","1606","1725"],"schedule":{"travel_time":1,"stop_id":"120599"}},{"index":46,"name":"Estr Murganhal (Escola)","id":"120905","lat":"38.712770","lon":"-9.271367","lines":["1122","1525"],"schedule":{"travel_time":0,"stop_id":"120905"}},{"index":47,"name":"Murganhal (Chafariz)","id":"120907","lat":"38.714857","lon":"-9.272573","lines":["1122","1525"],"schedule":{"travel_time":1,"stop_id":"120907"}},{"index":48,"name":"Estr Cacém (Fte X) R Qta Moura","id":"120909","lat":"38.717843","lon":"-9.275682","lines":["1122","1525"],"schedule":{"travel_time":1,"stop_id":"120909"}},{"index":49,"name":"R do Castelo 4","id":"120693","lat":"38.717646","lon":"-9.280652","lines":["1117","1122"],"schedule":{"travel_time":2,"stop_id":"120693"}},{"index":50,"name":"R Alto da Peça 20A","id":"120695","lat":"38.715775","lon":"-9.280835","lines":["1117","1122"],"schedule":{"travel_time":1,"stop_id":"120695"}},{"index":51,"name":"R Penedo (X) R Calvet Magalhães","id":"120697","lat":"38.710665","lon":"-9.285457","lines":["1117","1122"],"schedule":{"travel_time":2,"stop_id":"120697"}},{"index":52,"name":"R Calvet Magalhães - Estaleiro","id":"120699","lat":"38.709452","lon":"-9.282244","lines":["1117","1122","1606"],"schedule":{"travel_time":1,"stop_id":"120699"}},{"index":53,"name":"Escola S Bruno","id":"120685","lat":"38.709192","lon":"-9.275228","lines":["1115","1117","1122","1525"],"schedule":{"travel_time":2,"stop_id":"120685"}},{"index":54,"name":"R da Pedreira Italiana","id":"120911","lat":"38.714321","lon":"-9.274002","lines":["1122"],"schedule":{"travel_time":2,"stop_id":"120911"}},{"index":55,"name":"Caxias (Ped Italiana)","id":"120675","lat":"38.712941","lon":"-9.276020","lines":["1115","1117","1122","1525"],"schedule":{"travel_time":1,"stop_id":"120675"}}]}