{"color":"#C61D23","headsign":"Paço De Arcos (Estação Norte)","id":"1123_1_2","long_name":"Porto Salvo (Lagoas Park) - Paço De Arcos (Estação Norte)","line_id":"1123","shape_id":"258_4X7ZR","path":[{"index":1,"name":"Porto Salvo (Lagoas park)","id":"121273","lat":"38.714014","lon":"-9.311347","lines":["1123","1523","1529","1612"],"schedule":{"travel_time":0,"stop_id":"121273"}},{"index":2,"name":"Porto Salvo (M Rolas)","id":"120936","lat":"38.714630","lon":"-9.311475","lines":["1123","1529"],"schedule":{"travel_time":0,"stop_id":"120936"}},{"index":3,"name":"R Oliveira Martins 1","id":"120934","lat":"38.716585","lon":"-9.311008","lines":["1123","1529"],"schedule":{"travel_time":1,"stop_id":"120934"}},{"index":4,"name":"R Casal Deserto 55","id":"120932","lat":"38.717186","lon":"-9.307525","lines":["1123","1529"],"schedule":{"travel_time":2,"stop_id":"120932"}},{"index":5,"name":"R Portelas (Eira Velha)","id":"120930","lat":"38.717621","lon":"-9.305066","lines":["1123","1529"],"schedule":{"travel_time":1,"stop_id":"120930"}},{"index":6,"name":"R Portelas 41","id":"120928","lat":"38.720560","lon":"-9.306813","lines":["1123","1529"],"schedule":{"travel_time":1,"stop_id":"120928"}},{"index":7,"name":"R 7 Junho (Esc Primária)","id":"120939","lat":"38.721803","lon":"-9.307582","lines":["1123","1529"],"schedule":{"travel_time":1,"stop_id":"120939"}},{"index":8,"name":"R 7 Junho (X) Comércio","id":"120941","lat":"38.722555","lon":"-9.305803","lines":["1123","1529"],"schedule":{"travel_time":1,"stop_id":"120941"}},{"index":9,"name":"Porto Salvo (B Auto Construção)","id":"120943","lat":"38.722406","lon":"-9.307773","lines":["1123","1125","1529","1610","1611","1616"],"schedule":{"travel_time":1,"stop_id":"120943"}},{"index":10,"name":"R 7 Junho (X) Comércio","id":"120941","lat":"38.722555","lon":"-9.305803","lines":["1123","1529"],"schedule":{"travel_time":1,"stop_id":"120941"}},{"index":11,"name":"Av Eng Arantes Oliveira 21","id":"120924","lat":"38.722651","lon":"-9.304264","lines":["1123","1125","1610","1611","1616"],"schedule":{"travel_time":0,"stop_id":"120924"}},{"index":12,"name":"R Conde Rio Maior (X) R C Carneiro","id":"120945","lat":"38.721761","lon":"-9.302801","lines":["1123","1125","1520","1521","1523","1530","1601","1610","1611","1616","1731","1733"],"schedule":{"travel_time":1,"stop_id":"120945"}},{"index":13,"name":"R Conde Rio Maior (Igreja)","id":"120922","lat":"38.718966","lon":"-9.302389","lines":["1123","1125","1520","1521","1523","1530","1601","1610","1611","1616","1731","1733"],"schedule":{"travel_time":1,"stop_id":"120922"}},{"index":14,"name":"Porto Salvo (Centro)","id":"120947","lat":"38.717429","lon":"-9.302327","lines":["1123","1125","1520","1521","1523","1530","1601","1610","1611","1616","1731","1733"],"schedule":{"travel_time":1,"stop_id":"120947"}},{"index":15,"name":"Estr Paço Arcos 80","id":"120715","lat":"38.712512","lon":"-9.296715","lines":["1119","1123","1531","1610","1611","1616","1617"],"schedule":{"travel_time":4,"stop_id":"120715"}},{"index":16,"name":"Estr Paço Arcos (Serviços CM Oeiras)","id":"120717","lat":"38.708642","lon":"-9.296235","lines":["1119","1122","1123","1531","1610","1611","1616","1617"],"schedule":{"travel_time":2,"stop_id":"120717"}},{"index":17,"name":"R Calvet Magalhães (Ed S Franc Sales)","id":"120917","lat":"38.708915","lon":"-9.293079","lines":["1123","1611"],"schedule":{"travel_time":1,"stop_id":"120917"}},{"index":18,"name":"Estr Paço Arcos (Serviços CM Oeiras)","id":"120721","lat":"38.709850","lon":"-9.295453","lines":["1119","1122","1123","1125","1531","1610","1611","1616","1617"],"schedule":{"travel_time":2,"stop_id":"120721"}},{"index":19,"name":"Estr Paço Arcos (Serviços CM Oeiras)","id":"120717","lat":"38.708642","lon":"-9.296235","lines":["1119","1122","1123","1531","1610","1611","1616","1617"],"schedule":{"travel_time":2,"stop_id":"120717"}},{"index":20,"name":"Estr Paço Arcos 52","id":"120719","lat":"38.707393","lon":"-9.295500","lines":["1119","1122","1123","1531","1610","1611","1616","1617"],"schedule":{"travel_time":1,"stop_id":"120719"}},{"index":21,"name":"Estr Paço Arcos 42","id":"120610","lat":"38.704300","lon":"-9.295180","lines":["1115","1117","1119","1122","1123","1531","1610","1611","1616","1617"],"schedule":{"travel_time":1,"stop_id":"120610"}},{"index":22,"name":"Estr Paço Arcos (Lj Solid Seg Social)","id":"120608","lat":"38.701725","lon":"-9.294095","lines":["1115","1117","1119","1122","1123","1531","1610","1611","1616","1617"],"schedule":{"travel_time":2,"stop_id":"120608"}},{"index":23,"name":"Paço Arcos (X) Tap Mocho","id":"120891","lat":"38.699913","lon":"-9.295530","lines":["1115","1117","1122","1123","1616","1617","1725"],"schedule":{"travel_time":1,"stop_id":"120891"}},{"index":24,"name":"Paço Arcos (Esc Preparatória)","id":"120689","lat":"38.697603","lon":"-9.296357","lines":["1115","1117","1122","1123","1616","1617","1725"],"schedule":{"travel_time":2,"stop_id":"120689"}},{"index":25,"name":"Av Elvira Velez (Esc Preparatória)","id":"121243","lat":"38.698251","lon":"-9.296763","lines":["1115","1117","1123","1616","1617"],"schedule":{"travel_time":0,"stop_id":"121243"}},{"index":26,"name":"Paço Arcos (X) Tap Mocho","id":"120687","lat":"38.699894","lon":"-9.295375","lines":["1115","1117","1123","1616","1617","1725"],"schedule":{"travel_time":1,"stop_id":"120687"}},{"index":27,"name":"Paço De Arcos (Estação Norte)","id":"120605","lat":"38.698727","lon":"-9.291167","lines":["1115","1117","1123","1610","1611","1616"],"schedule":{"travel_time":3,"stop_id":"120605"}}]}