{"color":"#C61D23","headsign":"Porto Salvo (Sociedade Musical)","id":"1125_0_3","long_name":"Porto Salvo via Leião e Lage | Circular","line_id":"1125","shape_id":"261_4X7ZR","path":[{"index":1,"name":"Porto Salvo (Sociedade Musical)","id":"120949","lat":"38.717542","lon":"-9.301718","lines":["1125"],"schedule":{"travel_time":0,"stop_id":"120949"}},{"index":2,"name":"Porto Salvo (Centro)","id":"120951","lat":"38.717175","lon":"-9.301868","lines":["1125","1611"],"schedule":{"travel_time":0,"stop_id":"120951"}},{"index":3,"name":"R C Rio Maior (Igreja)","id":"120921","lat":"38.719011","lon":"-9.302212","lines":["1123","1125","1520","1521","1523","1530","1601","1610","1611","1616","1731","1733"],"schedule":{"travel_time":1,"stop_id":"120921"}},{"index":4,"name":"Estr Leião (X) Av Eng Arantes Oliveira","id":"121087","lat":"38.723125","lon":"-9.302481","lines":["1125","1520","1521","1523","1530","1601","1731","1733"],"schedule":{"travel_time":1,"stop_id":"121087"}},{"index":5,"name":"Leião (X) Talaíde","id":"121019","lat":"38.729376","lon":"-9.301270","lines":["1125","1523","1530","1531","1601","1616","1617","1733"],"schedule":{"travel_time":2,"stop_id":"121019"}},{"index":6,"name":"Leião","id":"121021","lat":"38.730903","lon":"-9.299329","lines":["1125"],"schedule":{"travel_time":1,"stop_id":"121021"}},{"index":7,"name":"R Pedreiras","id":"121022","lat":"38.730312","lon":"-9.300144","lines":["1125"],"schedule":{"travel_time":1,"stop_id":"121022"}},{"index":8,"name":"Leião (X) Talaíde (Posto Combust)","id":"121020","lat":"38.729751","lon":"-9.301272","lines":["1125","1523","1530","1531","1601","1616","1617","1733"],"schedule":{"travel_time":0,"stop_id":"121020"}},{"index":9,"name":"Estr Talaíde (Igreja)","id":"121018","lat":"38.729860","lon":"-9.301904","lines":["1125","1520","1521","1531","1616","1617","1731"],"schedule":{"travel_time":0,"stop_id":"121018"}},{"index":10,"name":"Estr Talaide 68","id":"121014","lat":"38.733055","lon":"-9.304660","lines":["1125","1520","1521","1531","1616","1617","1731"],"schedule":{"travel_time":2,"stop_id":"121014"}},{"index":11,"name":"R Fern Sabido (X) Av Doming Vandelli","id":"121023","lat":"38.734387","lon":"-9.306384","lines":["1125","1520","1521","1529","1531","1608","1616","1617","1731"],"schedule":{"travel_time":0,"stop_id":"121023"}},{"index":12,"name":"R Dr Prof José Pinto Peixoto 8","id":"121010","lat":"38.736534","lon":"-9.307386","lines":["1125","1520","1521","1524","1531","1608","1617","1731"],"schedule":{"travel_time":1,"stop_id":"121010"}},{"index":13,"name":"R Pf J Pinto Peix (X) R Pf Romú Car","id":"121008","lat":"38.738576","lon":"-9.308231","lines":["1125","1520","1521","1524","1531","1608","1617","1731"],"schedule":{"travel_time":1,"stop_id":"121008"}},{"index":14,"name":"Av Eng Valente Oliveira (Jardim)","id":"121006","lat":"38.737818","lon":"-9.308891","lines":["1125","1520","1521","1531","1608","1617","1731"],"schedule":{"travel_time":0,"stop_id":"121006"}},{"index":15,"name":"Av Eng Valente de Oliveira","id":"121004","lat":"38.736068","lon":"-9.309260","lines":["1125"],"schedule":{"travel_time":1,"stop_id":"121004"}},{"index":16,"name":"Estr Talaíde (X) R Lopo S Albergaria","id":"121002","lat":"38.734232","lon":"-9.306937","lines":["1125","1608","1610","1611","1616"],"schedule":{"travel_time":1,"stop_id":"121002"}},{"index":17,"name":"Av Diogo Lopes Sequeira 64","id":"121000","lat":"38.730455","lon":"-9.313484","lines":["1125","1529","1616"],"schedule":{"travel_time":2,"stop_id":"121000"}},{"index":18,"name":"Av Diogo Lopes Sequeira 86","id":"120998","lat":"38.730673","lon":"-9.315186","lines":["1125","1529","1616"],"schedule":{"travel_time":1,"stop_id":"120998"}},{"index":19,"name":"Talaíde (B Naveg)","id":"120995","lat":"38.730728","lon":"-9.317240","lines":["1125","1529","1616"],"schedule":{"travel_time":1,"stop_id":"120995"}},{"index":20,"name":"R Augusta (X) R S José","id":"120994","lat":"38.727783","lon":"-9.310509","lines":["1125","1529","1610","1611","1616"],"schedule":{"travel_time":2,"stop_id":"120994"}},{"index":21,"name":"R S Jose Fte 119","id":"120992","lat":"38.725463","lon":"-9.310786","lines":["1125","1529","1610","1611","1616"],"schedule":{"travel_time":1,"stop_id":"120992"}},{"index":22,"name":"R Quinta das Estrangeiras 20","id":"120990","lat":"38.723843","lon":"-9.313365","lines":["1125"],"schedule":{"travel_time":1,"stop_id":"120990"}},{"index":23,"name":"R Quinta das Estrangeiras","id":"120988","lat":"38.725552","lon":"-9.314212","lines":["1125"],"schedule":{"travel_time":1,"stop_id":"120988"}},{"index":24,"name":"Associação Flores da Beira","id":"120986","lat":"38.725741","lon":"-9.313451","lines":["1125"],"schedule":{"travel_time":0,"stop_id":"120986"}},{"index":25,"name":"R Cidade de Coimbra","id":"120984","lat":"38.724463","lon":"-9.313142","lines":["1125"],"schedule":{"travel_time":1,"stop_id":"120984"}},{"index":26,"name":"R S Jose 119","id":"120991","lat":"38.724953","lon":"-9.310804","lines":["1125"],"schedule":{"travel_time":1,"stop_id":"120991"}},{"index":27,"name":"R Augusta (X) Pct José Afonso","id":"120982","lat":"38.725023","lon":"-9.309984","lines":["1125","1529","1610","1611","1616"],"schedule":{"travel_time":0,"stop_id":"120982"}},{"index":28,"name":"R D Pedro V (X) Av Eng a Oliveira","id":"120980","lat":"38.722809","lon":"-9.309905","lines":["1125","1529","1610","1611","1616"],"schedule":{"travel_time":1,"stop_id":"120980"}},{"index":29,"name":"Porto Salvo (B Auto Construção)","id":"120943","lat":"38.722406","lon":"-9.307773","lines":["1123","1125","1529","1610","1611","1616"],"schedule":{"travel_time":1,"stop_id":"120943"}},{"index":30,"name":"R do Comércio (X) R 7 de Junho","id":"120978","lat":"38.722376","lon":"-9.306404","lines":["1125"],"schedule":{"travel_time":0,"stop_id":"120978"}},{"index":31,"name":"Av Eng Arantes Oliveira 21","id":"120924","lat":"38.722651","lon":"-9.304264","lines":["1123","1125","1610","1611","1616"],"schedule":{"travel_time":1,"stop_id":"120924"}},{"index":32,"name":"R Luis de Pina","id":"120975","lat":"38.725504","lon":"-9.303604","lines":["1125"],"schedule":{"travel_time":1,"stop_id":"120975"}},{"index":33,"name":"R Conde Rio Maior (X) R C Carneiro","id":"120945","lat":"38.721761","lon":"-9.302801","lines":["1123","1125","1520","1521","1523","1530","1601","1610","1611","1616","1731","1733"],"schedule":{"travel_time":1,"stop_id":"120945"}},{"index":34,"name":"R Conde Rio Maior (Igreja)","id":"120922","lat":"38.718966","lon":"-9.302389","lines":["1123","1125","1520","1521","1523","1530","1601","1610","1611","1616","1731","1733"],"schedule":{"travel_time":1,"stop_id":"120922"}},{"index":35,"name":"Porto Salvo (Centro)","id":"120947","lat":"38.717429","lon":"-9.302327","lines":["1123","1125","1520","1521","1523","1530","1601","1610","1611","1616","1731","1733"],"schedule":{"travel_time":1,"stop_id":"120947"}},{"index":36,"name":"R Casal do Deserto","id":"121033","lat":"38.716988","lon":"-9.303580","lines":["1125"],"schedule":{"travel_time":0,"stop_id":"121033"}},{"index":37,"name":"R Casal Deserto 47","id":"120931","lat":"38.717275","lon":"-9.307624","lines":["1123","1125","1529"],"schedule":{"travel_time":1,"stop_id":"120931"}},{"index":38,"name":"R Oliveira Martins 2","id":"120933","lat":"38.717036","lon":"-9.310659","lines":["1123","1125","1529"],"schedule":{"travel_time":1,"stop_id":"120933"}},{"index":39,"name":"Porto Salvo (M Rolas)","id":"120935","lat":"38.714754","lon":"-9.311664","lines":["1123","1125","1529"],"schedule":{"travel_time":1,"stop_id":"120935"}},{"index":40,"name":"R Encosta Lagoas (X) Estr Ribeira Lajes","id":"120972","lat":"38.710044","lon":"-9.312455","lines":["1125","1523"],"schedule":{"travel_time":1,"stop_id":"120972"}},{"index":41,"name":"Lage (Centro)","id":"120961","lat":"38.710633","lon":"-9.314434","lines":["1115","1117","1125","1608"],"schedule":{"travel_time":1,"stop_id":"120961"}},{"index":42,"name":"Igreja da Sra da Laje","id":"120965","lat":"38.709862","lon":"-9.314744","lines":["1125"],"schedule":{"travel_time":1,"stop_id":"120965"}},{"index":43,"name":"R Joaquim Matias","id":"120969","lat":"38.708860","lon":"-9.316580","lines":["1125"],"schedule":{"travel_time":0,"stop_id":"120969"}},{"index":44,"name":"Estr Ribeira Lage (Ribeira)","id":"121300","lat":"38.709143","lon":"-9.313145","lines":["1115","1117","1125","1523","1608"],"schedule":{"travel_time":2,"stop_id":"121300"}},{"index":45,"name":"Estr Ribeira da Lage 35","id":"120960","lat":"38.705656","lon":"-9.309722","lines":["1125"],"schedule":{"travel_time":1,"stop_id":"120960"}},{"index":46,"name":"Estr de Oeiras 10","id":"120622","lat":"38.705232","lon":"-9.306801","lines":["1115","1117","1125","1523"],"schedule":{"travel_time":1,"stop_id":"120622"}},{"index":47,"name":"Estr Oeiras (Posto Combust)","id":"120863","lat":"38.702675","lon":"-9.307592","lines":["1115","1117","1125","1523","1529","1530","1601","1605","1606"],"schedule":{"travel_time":1,"stop_id":"120863"}},{"index":48,"name":"R Dr José da Cunha 23","id":"121035","lat":"38.702026","lon":"-9.307645","lines":["1125","1601"],"schedule":{"travel_time":0,"stop_id":"121035"}},{"index":49,"name":"R Dr José da Cunha 17B","id":"120856","lat":"38.701572","lon":"-9.307467","lines":["1125","1601"],"schedule":{"travel_time":0,"stop_id":"120856"}},{"index":50,"name":"Rua Doutor José da Cunha (X) Avenida Engenheiro Álvaro Roquette","id":"129634","lat":"38.701656","lon":"-9.306141","lines":["1125"],"schedule":{"travel_time":1,"stop_id":"129634"}},{"index":51,"name":"Oeiras Parque","id":"120897","lat":"38.703571","lon":"-9.303886","lines":["1121","1122","1125","1601","1612"],"schedule":{"travel_time":1,"stop_id":"120897"}},{"index":52,"name":"Av A Bern Cabral Macedo (Pq Poetas)","id":"120625","lat":"38.703840","lon":"-9.301223","lines":["1115","1117","1120","1121","1122","1125","1606"],"schedule":{"travel_time":0,"stop_id":"120625"}},{"index":53,"name":"Av Fundadores (Ringue)","id":"120618","lat":"38.703638","lon":"-9.298924","lines":["1115","1117","1122","1125"],"schedule":{"travel_time":1,"stop_id":"120618"}},{"index":54,"name":"Av Fundadores 26","id":"120616","lat":"38.705410","lon":"-9.297509","lines":["1115","1117","1122","1125"],"schedule":{"travel_time":1,"stop_id":"120616"}},{"index":55,"name":"Paço Arcos (Alto Mocho)","id":"120614","lat":"38.706870","lon":"-9.296006","lines":["1115","1117","1122","1125"],"schedule":{"travel_time":0,"stop_id":"120614"}},{"index":56,"name":"Estr Paço Arcos (Serviços CM Oeiras)","id":"120721","lat":"38.709850","lon":"-9.295453","lines":["1119","1122","1123","1125","1531","1610","1611","1616","1617"],"schedule":{"travel_time":2,"stop_id":"120721"}},{"index":57,"name":"Quinta da Fonte","id":"120958","lat":"38.712592","lon":"-9.298308","lines":["1125"],"schedule":{"travel_time":3,"stop_id":"120958"}},{"index":58,"name":"R Actor Pinheiro 27","id":"120714","lat":"38.713958","lon":"-9.295690","lines":["1119","1125","1520","1531","1611","1617","1731"],"schedule":{"travel_time":1,"stop_id":"120714"}},{"index":59,"name":"R 25 Abril 6","id":"120712","lat":"38.715989","lon":"-9.293787","lines":["1119","1125","1520","1531","1611","1617","1731"],"schedule":{"travel_time":1,"stop_id":"120712"}},{"index":60,"name":"R 25 Abril (X) R Carlos Paião","id":"120710","lat":"38.717516","lon":"-9.292534","lines":["1119","1125","1520","1531","1611","1617","1731"],"schedule":{"travel_time":1,"stop_id":"120710"}},{"index":61,"name":"R 25 Abril 58","id":"120725","lat":"38.718823","lon":"-9.290995","lines":["1119","1125","1520","1531","1617","1731"],"schedule":{"travel_time":0,"stop_id":"120725"}},{"index":62,"name":"Vila Fria 85 (Largo)","id":"120727","lat":"38.720447","lon":"-9.290956","lines":["1119","1125","1520","1531","1617","1731"],"schedule":{"travel_time":1,"stop_id":"120727"}},{"index":63,"name":"Vila Fria (Largo)","id":"120705","lat":"38.720821","lon":"-9.292668","lines":["1119","1125","1520","1531","1617","1731"],"schedule":{"travel_time":0,"stop_id":"120705"}},{"index":64,"name":"R José Filipe Rodrigues 31","id":"120956","lat":"38.718944","lon":"-9.297852","lines":["1125","1611"],"schedule":{"travel_time":2,"stop_id":"120956"}},{"index":65,"name":"R José Filipe Rodrigues 9","id":"120954","lat":"38.718054","lon":"-9.299078","lines":["1125","1611"],"schedule":{"travel_time":0,"stop_id":"120954"}},{"index":66,"name":"Porto Salvo (Sociedade Musical)","id":"120949","lat":"38.717542","lon":"-9.301718","lines":["1125"],"schedule":{"travel_time":0,"stop_id":"120949"}}]}