{"color":"#3D85C6","headsign":"Terrugem (Escola Secundária)","id":"1201_0_3","long_name":"Terrugem (Escola) | Circular","line_id":"1201","shape_id":"409_4X7ZR","path":[{"index":1,"name":"Terrugem (Escola Secundária)","id":"170027","lat":"38.852814","lon":"-9.383601","lines":["1201","1242","1245","1249","2625"],"schedule":{"travel_time":0,"stop_id":"170027"}},{"index":2,"name":"Av 5 Outubro (X)","id":"170046","lat":"38.853186","lon":"-9.385484","lines":["1201","1242","1249"],"schedule":{"travel_time":0,"stop_id":"170046"}},{"index":3,"name":"Av 5 Outubro Tasco","id":"170044","lat":"38.852145","lon":"-9.389842","lines":["1201","1242","1249"],"schedule":{"travel_time":1,"stop_id":"170044"}},{"index":4,"name":"Av 5 Outubro 60 A","id":"170042","lat":"38.852490","lon":"-9.395110","lines":["1201","1242","1249"],"schedule":{"travel_time":1,"stop_id":"170042"}},{"index":5,"name":"R Guilherme Jacinto (Lgo Central)","id":"170040","lat":"38.850972","lon":"-9.401180","lines":["1201","1242","1249"],"schedule":{"travel_time":1,"stop_id":"170040"}},{"index":6,"name":"Estr da Pernigem 1","id":"171749","lat":"38.849807","lon":"-9.405196","lines":["1201","1249"],"schedule":{"travel_time":1,"stop_id":"171749"}},{"index":7,"name":"Estr da Pernigem 30","id":"171751","lat":"38.848286","lon":"-9.408914","lines":["1201","1249"],"schedule":{"travel_time":1,"stop_id":"171751"}},{"index":8,"name":"Estr da Pernigem 64","id":"171753","lat":"38.849514","lon":"-9.412051","lines":["1201","1249"],"schedule":{"travel_time":0,"stop_id":"171753"}},{"index":9,"name":"Estr da Pernigem (X) R da Junqueira","id":"171755","lat":"38.853490","lon":"-9.410450","lines":["1201","1249"],"schedule":{"travel_time":1,"stop_id":"171755"}},{"index":10,"name":"Av Dr Brandão Vasconcelos 1","id":"170038","lat":"38.862308","lon":"-9.403774","lines":["1201"],"schedule":{"travel_time":3,"stop_id":"170038"}},{"index":11,"name":"Av Central 8","id":"171668","lat":"38.871091","lon":"-9.398793","lines":["1201","1245","2625"],"schedule":{"travel_time":2,"stop_id":"171668"}},{"index":12,"name":"Av Central 9","id":"171666","lat":"38.872819","lon":"-9.398670","lines":["1201","1245","2625"],"schedule":{"travel_time":0,"stop_id":"171666"}},{"index":13,"name":"Av Central 83","id":"171664","lat":"38.874083","lon":"-9.398601","lines":["1201","1245","2625"],"schedule":{"travel_time":0,"stop_id":"171664"}},{"index":14,"name":"R Fontanário (Centro de Saúde)","id":"172660","lat":"38.874092","lon":"-9.399750","lines":["1201"],"schedule":{"travel_time":1,"stop_id":"172660"}},{"index":15,"name":"Av Central frente 9","id":"171665","lat":"38.872734","lon":"-9.398830","lines":["1201","1245","2625"],"schedule":{"travel_time":0,"stop_id":"171665"}},{"index":16,"name":"Av Central 5","id":"171667","lat":"38.870530","lon":"-9.398961","lines":["1201","1245","2625"],"schedule":{"travel_time":1,"stop_id":"171667"}},{"index":17,"name":"R Principal 20","id":"170036","lat":"38.867023","lon":"-9.397141","lines":["1201","1245","2625"],"schedule":{"travel_time":0,"stop_id":"170036"}},{"index":18,"name":"R Principal 73","id":"170034","lat":"38.862804","lon":"-9.393467","lines":["1201","1245","2625"],"schedule":{"travel_time":1,"stop_id":"170034"}},{"index":19,"name":"Estr da Ribeira 87","id":"172659","lat":"38.859713","lon":"-9.391932","lines":["1201"],"schedule":{"travel_time":1,"stop_id":"172659"}},{"index":20,"name":"Estrada da Ribeira 51","id":"172656","lat":"38.860088","lon":"-9.396729","lines":["1201"],"schedule":{"travel_time":1,"stop_id":"172656"}},{"index":21,"name":"Estr da Ribeira (Lgo do Parque Infantil)","id":"172655","lat":"38.856828","lon":"-9.397298","lines":["1201"],"schedule":{"travel_time":1,"stop_id":"172655"}},{"index":22,"name":"Av 5 Outubro 57A","id":"170041","lat":"38.852318","lon":"-9.394848","lines":["1201","1242","1249"],"schedule":{"travel_time":1,"stop_id":"170041"}},{"index":23,"name":"Av 5 Outubro Tasco","id":"170043","lat":"38.852051","lon":"-9.389743","lines":["1201","1242","1249"],"schedule":{"travel_time":1,"stop_id":"170043"}},{"index":24,"name":"Av 5 Outubro (X)","id":"170045","lat":"38.853129","lon":"-9.385336","lines":["1201","1242","1249"],"schedule":{"travel_time":1,"stop_id":"170045"}},{"index":25,"name":"R Alto dos Moinhos (Escola)","id":"170028","lat":"38.852655","lon":"-9.383652","lines":["1201","1242","1245","1249","2625"],"schedule":{"travel_time":0,"stop_id":"170028"}},{"index":26,"name":"Av 29 Agosto (Cemitério)","id":"170026","lat":"38.850905","lon":"-9.380576","lines":["1201","1245","1249","1632","1633"],"schedule":{"travel_time":1,"stop_id":"170026"}},{"index":27,"name":"Terrugem (Centro de Saúde)","id":"172658","lat":"38.849812","lon":"-9.377582","lines":["1201"],"schedule":{"travel_time":0,"stop_id":"172658"}},{"index":28,"name":"Terrugem (Igreja)","id":"170024","lat":"38.847029","lon":"-9.378195","lines":["1201","1245","1249","1632","1633"],"schedule":{"travel_time":1,"stop_id":"170024"}},{"index":29,"name":"Estr do À-do-Pipo 14","id":"170013","lat":"38.844246","lon":"-9.377112","lines":["1201"],"schedule":{"travel_time":1,"stop_id":"170013"}},{"index":30,"name":"Estr de À-do-Pipo 31","id":"170015","lat":"38.843665","lon":"-9.379469","lines":["1201"],"schedule":{"travel_time":0,"stop_id":"170015"}},{"index":31,"name":"Estr Alpolentim (X) R Concheiras","id":"170017","lat":"38.842224","lon":"-9.385003","lines":["1201"],"schedule":{"travel_time":1,"stop_id":"170017"}},{"index":32,"name":"Estr de Alpolentim 73","id":"170019","lat":"38.839608","lon":"-9.385627","lines":["1201"],"schedule":{"travel_time":1,"stop_id":"170019"}},{"index":33,"name":"Largo do Fontanário 2","id":"170021","lat":"38.838136","lon":"-9.386021","lines":["1201"],"schedule":{"travel_time":0,"stop_id":"170021"}},{"index":34,"name":"Estr de Alpolentim 73","id":"170020","lat":"38.839621","lon":"-9.385537","lines":["1201"],"schedule":{"travel_time":1,"stop_id":"170020"}},{"index":35,"name":"Estr de Alpolentim (X) R Concheiras 6a","id":"170018","lat":"38.842127","lon":"-9.384915","lines":["1201"],"schedule":{"travel_time":0,"stop_id":"170018"}},{"index":36,"name":"Estr do À-do-Pipo 31","id":"170016","lat":"38.843668","lon":"-9.379383","lines":["1201"],"schedule":{"travel_time":2,"stop_id":"170016"}},{"index":37,"name":"Estr do À-do-Pipo 15","id":"170014","lat":"38.844203","lon":"-9.377316","lines":["1201"],"schedule":{"travel_time":0,"stop_id":"170014"}},{"index":38,"name":"Av 29 Agosto 90","id":"171547","lat":"38.844748","lon":"-9.376801","lines":["1201","1245","1249","1632","1633"],"schedule":{"travel_time":0,"stop_id":"171547"}},{"index":39,"name":"Estr de Alcolombal 44","id":"170012","lat":"38.845858","lon":"-9.374693","lines":["1201"],"schedule":{"travel_time":1,"stop_id":"170012"}},{"index":40,"name":"Estr de Alcolombal (X) R dos Selões","id":"170010","lat":"38.846422","lon":"-9.370167","lines":["1201"],"schedule":{"travel_time":1,"stop_id":"170010"}},{"index":41,"name":"Estr de Alcolombal (X) Estr de Linhares","id":"170008","lat":"38.849173","lon":"-9.364819","lines":["1201"],"schedule":{"travel_time":1,"stop_id":"170008"}},{"index":42,"name":"Estr de Alcolombal (X) Largo","id":"170006","lat":"38.849299","lon":"-9.359177","lines":["1201"],"schedule":{"travel_time":1,"stop_id":"170006"}},{"index":43,"name":"Estr de Alcolombal","id":"170003","lat":"38.845927","lon":"-9.361658","lines":["1201"],"schedule":{"travel_time":1,"stop_id":"170003"}},{"index":44,"name":"Estr de Alcolombal (X) Largo","id":"170005","lat":"38.849421","lon":"-9.359077","lines":["1201"],"schedule":{"travel_time":1,"stop_id":"170005"}},{"index":45,"name":"Estr de Alcolombal Estr Linhares","id":"170007","lat":"38.849238","lon":"-9.364919","lines":["1201"],"schedule":{"travel_time":1,"stop_id":"170007"}},{"index":46,"name":"Estr de Alcolombal (X) R dos Selões","id":"170009","lat":"38.846531","lon":"-9.370070","lines":["1201"],"schedule":{"travel_time":1,"stop_id":"170009"}},{"index":47,"name":"Estr de Alcolombal 53","id":"170011","lat":"38.845906","lon":"-9.374632","lines":["1201"],"schedule":{"travel_time":1,"stop_id":"170011"}},{"index":48,"name":"Terrugem (Igreja)","id":"170023","lat":"38.847231","lon":"-9.378084","lines":["1201","1245","1249","1632","1633"],"schedule":{"travel_time":1,"stop_id":"170023"}},{"index":49,"name":"R Cruzeiro (Escola)","id":"172657","lat":"38.849604","lon":"-9.377476","lines":["1201"],"schedule":{"travel_time":1,"stop_id":"172657"}},{"index":50,"name":"Av 29 Agosto 271 (Cemitério)","id":"170025","lat":"38.850434","lon":"-9.380071","lines":["1201","1245","1249","1632","1633"],"schedule":{"travel_time":0,"stop_id":"170025"}},{"index":51,"name":"Terrugem (Escola Secundária)","id":"170027","lat":"38.852814","lon":"-9.383601","lines":["1201","1242","1245","1249","2625"],"schedule":{"travel_time":0,"stop_id":"170027"}}]}