{"color":"#C61D23","headsign":"Portela Sintra (Estação Norte)","id":"1208_0_1","long_name":"Almargem Bispo (Cemitério) - Portela de Sintra (Estação Norte) via Hospital","line_id":"1208","shape_id":"416_4X7ZR","path":[{"index":1,"name":"Almargem Bispo (Cemitério)","id":"170322","lat":"38.849467","lon":"-9.273311","lines":["1208","1235"],"schedule":{"travel_time":0,"stop_id":"170322"}},{"index":2,"name":"Almargem Bispo (Cemitério)","id":"170321","lat":"38.849326","lon":"-9.273066","lines":["1208","1235","1508"],"schedule":{"travel_time":0,"stop_id":"170321"}},{"index":3,"name":"R do Cemitério 17","id":"170323","lat":"38.848761","lon":"-9.270023","lines":["1208","1235","1508"],"schedule":{"travel_time":1,"stop_id":"170323"}},{"index":4,"name":"R Amélia Antunes Silva","id":"170325","lat":"38.847695","lon":"-9.269593","lines":["1208","1235","1508"],"schedule":{"travel_time":0,"stop_id":"170325"}},{"index":5,"name":"R da Serra 43A","id":"170327","lat":"38.846654","lon":"-9.271195","lines":["1208","1235","1508","1634","1635"],"schedule":{"travel_time":0,"stop_id":"170327"}},{"index":6,"name":"Largo Gen Barnabé António Ferreira","id":"170329","lat":"38.844054","lon":"-9.273590","lines":["1208","1235","1508","1634","1635"],"schedule":{"travel_time":1,"stop_id":"170329"}},{"index":7,"name":"Av D Afonso Henriques 29","id":"170331","lat":"38.842343","lon":"-9.273554","lines":["1208","1235","1508","1634"],"schedule":{"travel_time":1,"stop_id":"170331"}},{"index":8,"name":"Av José Maria Pais 96 (Casal Vacaria)","id":"170333","lat":"38.839885","lon":"-9.272737","lines":["1208","1235","1508","1634"],"schedule":{"travel_time":0,"stop_id":"170333"}},{"index":9,"name":"Av José Maria Pais (X) Tv J Pais","id":"170335","lat":"38.838014","lon":"-9.270973","lines":["1208","1235","1508","1634"],"schedule":{"travel_time":1,"stop_id":"170335"}},{"index":10,"name":"Av José Maria Pais (X) Tv Jose M Pais","id":"170337","lat":"38.835306","lon":"-9.268728","lines":["1208","1235","1508","1634"],"schedule":{"travel_time":1,"stop_id":"170337"}},{"index":11,"name":"Estr Principal 2","id":"170339","lat":"38.831670","lon":"-9.271591","lines":["1208","1235","1508","1634","1637"],"schedule":{"travel_time":1,"stop_id":"170339"}},{"index":12,"name":"Estr Principal (X) R J Deus (Mancebas)","id":"170341","lat":"38.829903","lon":"-9.274968","lines":["1208","1235","1508","1634","1637"],"schedule":{"travel_time":1,"stop_id":"170341"}},{"index":13,"name":"R Fonte da Aranha 4","id":"170343","lat":"38.827844","lon":"-9.277838","lines":["1208","1235","1637"],"schedule":{"travel_time":1,"stop_id":"170343"}},{"index":14,"name":"R Fonte da Aranha 23","id":"170345","lat":"38.826900","lon":"-9.278185","lines":["1208","1235"],"schedule":{"travel_time":0,"stop_id":"170345"}},{"index":15,"name":"R Nª Srª da Piedade (Igreja)","id":"170347","lat":"38.824990","lon":"-9.283171","lines":["1208","1235"],"schedule":{"travel_time":1,"stop_id":"170347"}},{"index":16,"name":"R Nª Srª da Piedade - Forno","id":"170349","lat":"38.824379","lon":"-9.289027","lines":["1208","1235"],"schedule":{"travel_time":1,"stop_id":"170349"}},{"index":17,"name":"R Nª Srª da Piedade 7","id":"170351","lat":"38.822788","lon":"-9.292190","lines":["1208","1235"],"schedule":{"travel_time":1,"stop_id":"170351"}},{"index":18,"name":"R Prof Rosa Génio Alves - Escola","id":"170353","lat":"38.820883","lon":"-9.289956","lines":["1208","1235","1512"],"schedule":{"travel_time":1,"stop_id":"170353"}},{"index":19,"name":"R Francisco Gomes 21","id":"170355","lat":"38.819111","lon":"-9.287623","lines":["1208","1235","1512"],"schedule":{"travel_time":0,"stop_id":"170355"}},{"index":20,"name":"Vale Lobos (Largo)","id":"170357","lat":"38.818221","lon":"-9.285364","lines":["1208","1235","1244","1512","1637"],"schedule":{"travel_time":1,"stop_id":"170357"}},{"index":21,"name":"R Gen Barnabé António Ferreira 20","id":"170359","lat":"38.817327","lon":"-9.288007","lines":["1208","1235","1244","1512"],"schedule":{"travel_time":1,"stop_id":"170359"}},{"index":22,"name":"R General Barnabé Ferreira (X) EN117","id":"170361","lat":"38.815470","lon":"-9.291893","lines":["1208","1235","1244","1512"],"schedule":{"travel_time":1,"stop_id":"170361"}},{"index":23,"name":"EN 544 (Casal da Granja)","id":"170363","lat":"38.812552","lon":"-9.298902","lines":["1208","1231","1235","1244","1512"],"schedule":{"travel_time":1,"stop_id":"170363"}},{"index":24,"name":"Estr Telhal (Apeadeiro)","id":"170365","lat":"38.809365","lon":"-9.303518","lines":["1208","1231","1235","1244","1512"],"schedule":{"travel_time":1,"stop_id":"170365"}},{"index":25,"name":"Estr do Telhal (Casa de Saúde)","id":"170367","lat":"38.807678","lon":"-9.306476","lines":["1208","1231","1235","1244","1512"],"schedule":{"travel_time":1,"stop_id":"170367"}},{"index":26,"name":"Estr do Telhal 37","id":"170369","lat":"38.804920","lon":"-9.308846","lines":["1208","1231","1235","1244","1512"],"schedule":{"travel_time":1,"stop_id":"170369"}},{"index":27,"name":"Estr do Telhal 14","id":"170371","lat":"38.800616","lon":"-9.313017","lines":["1208","1231","1235","1244","1512"],"schedule":{"travel_time":1,"stop_id":"170371"}},{"index":28,"name":"EN 250 - 1 (Quiosque)","id":"170373","lat":"38.800697","lon":"-9.313736","lines":["1208","1231","1234","1244"],"schedule":{"travel_time":1,"stop_id":"170373"}},{"index":29,"name":"Estr Pexiligais 73","id":"170375","lat":"38.806221","lon":"-9.316710","lines":["1208"],"schedule":{"travel_time":1,"stop_id":"170375"}},{"index":30,"name":"R da Fonte Fte 13","id":"170377","lat":"38.807395","lon":"-9.318796","lines":["1208"],"schedule":{"travel_time":1,"stop_id":"170377"}},{"index":31,"name":"R das Flores 40","id":"170379","lat":"38.803924","lon":"-9.317734","lines":["1208"],"schedule":{"travel_time":1,"stop_id":"170379"}},{"index":32,"name":"EN 250 - 1 (X) R Ribeiro das Enguias","id":"170381","lat":"38.802459","lon":"-9.319745","lines":["1208","1231","1234","1244"],"schedule":{"travel_time":1,"stop_id":"170381"}},{"index":33,"name":"EN 250 - 1 - Condom Fonte do Pinhal","id":"170383","lat":"38.803490","lon":"-9.325301","lines":["1208","1231","1234","1244"],"schedule":{"travel_time":1,"stop_id":"170383"}},{"index":34,"name":"EN 250-1 135","id":"170385","lat":"38.804177","lon":"-9.328015","lines":["1208","1231","1234","1244"],"schedule":{"travel_time":0,"stop_id":"170385"}},{"index":35,"name":"Estr Gran Marquês 26","id":"170248","lat":"38.806191","lon":"-9.329587","lines":["1205","1208","1210","1234","1244"],"schedule":{"travel_time":1,"stop_id":"170248"}},{"index":36,"name":"Estr Granja do Marquês 63","id":"170238","lat":"38.808473","lon":"-9.331466","lines":["1205","1208","1234","1244"],"schedule":{"travel_time":1,"stop_id":"170238"}},{"index":37,"name":"Largo Joaquim Rodrigues 163","id":"170236","lat":"38.807651","lon":"-9.333740","lines":["1205","1208","1234","1244"],"schedule":{"travel_time":0,"stop_id":"170236"}},{"index":38,"name":"Estr Algueirão 151","id":"170234","lat":"38.807040","lon":"-9.334891","lines":["1205","1208","1234","1244"],"schedule":{"travel_time":1,"stop_id":"170234"}},{"index":39,"name":"R Leal da Câmara 7","id":"170387","lat":"38.804927","lon":"-9.339692","lines":["1208","1231","1234"],"schedule":{"travel_time":1,"stop_id":"170387"}},{"index":40,"name":"Estr do Algueirão 84N","id":"170286","lat":"38.803430","lon":"-9.340873","lines":["1208","1234"],"schedule":{"travel_time":0,"stop_id":"170286"}},{"index":41,"name":"R de São Pedro","id":"170389","lat":"38.800399","lon":"-9.345960","lines":["1208"],"schedule":{"travel_time":1,"stop_id":"170389"}},{"index":42,"name":"Av D Af Henriques Lt E Moradia A","id":"170201","lat":"38.800744","lon":"-9.349635","lines":["1205","1206","1208"],"schedule":{"travel_time":1,"stop_id":"170201"}},{"index":43,"name":"R D Coutinho Pais 19 (Escola)","id":"170203","lat":"38.801045","lon":"-9.350918","lines":["1205","1206","1208","1231"],"schedule":{"travel_time":1,"stop_id":"170203"}},{"index":44,"name":"R D Coutinho Pais 32","id":"170205","lat":"38.802615","lon":"-9.352268","lines":["1205","1206","1208","1231"],"schedule":{"travel_time":0,"stop_id":"170205"}},{"index":45,"name":"R D Coutinho Pais 81","id":"170291","lat":"38.804469","lon":"-9.350713","lines":["1206","1208","1231"],"schedule":{"travel_time":1,"stop_id":"170291"}},{"index":46,"name":"R D Coutinho Pais 76","id":"170293","lat":"38.805896","lon":"-9.348872","lines":["1206","1208","1231"],"schedule":{"travel_time":0,"stop_id":"170293"}},{"index":47,"name":"R Cidade de Leiria","id":"170216","lat":"38.806415","lon":"-9.348272","lines":["1205","1206","1208","1244"],"schedule":{"travel_time":1,"stop_id":"170216"}},{"index":48,"name":"R Cidade de Viseu 25","id":"170295","lat":"38.806992","lon":"-9.348365","lines":["1205","1206","1208","1244"],"schedule":{"travel_time":0,"stop_id":"170295"}},{"index":49,"name":"R Cidade de Coimbra 19","id":"170297","lat":"38.808000","lon":"-9.348488","lines":["1205","1206","1208","1244"],"schedule":{"travel_time":0,"stop_id":"170297"}},{"index":50,"name":"Rua Cidade de Évora (Parque Urbano da Cavaleira)","id":"175364","lat":"38.807980","lon":"-9.350802","lines":["1205","1206","1208","1241","1244"],"schedule":{"travel_time":1,"stop_id":"175364"}},{"index":51,"name":"Rua Cidade de Loulé (Parque Urbano da Cavaleira)","id":"177496","lat":"38.807608","lon":"-9.352435","lines":["1205","1206","1208","1241","1244"],"schedule":{"travel_time":0,"stop_id":"177496"}},{"index":52,"name":"R Cidade de Lagos 19","id":"170301","lat":"38.807294","lon":"-9.353258","lines":["1205","1206","1208","1241","1244"],"schedule":{"travel_time":0,"stop_id":"170301"}},{"index":53,"name":"R Cidade de Lagos 12","id":"170303","lat":"38.806139","lon":"-9.354476","lines":["1206","1208","1241","1244"],"schedule":{"travel_time":1,"stop_id":"170303"}},{"index":54,"name":"R Cidade de Lagos (Supermercado)","id":"170305","lat":"38.804210","lon":"-9.357003","lines":["1206","1208","1241","1244"],"schedule":{"travel_time":0,"stop_id":"170305"}},{"index":55,"name":"Portela de Sintra (Estação) P4 Entrada Norte","id":"172485","lat":"38.802416","lon":"-9.376641","lines":["1206","1208","1244"],"schedule":{"travel_time":5,"stop_id":"172485"}}]}