{"color":"#C61D23","headsign":"Mira Sintra (Mercado)","id":"1209_0_1","long_name":"Bairro da Felosa - Mira Sintra (Mercado) via Cemitério","line_id":"1209","shape_id":"148_4X7ZR","path":[{"index":1,"name":"Casal Flosa","id":"170399","lat":"38.748408","lon":"-9.354140","lines":["1209"],"schedule":{"travel_time":0,"stop_id":"170399"}},{"index":2,"name":"R Carlos Lopes (Albiz Parques)","id":"170401","lat":"38.751654","lon":"-9.352136","lines":["1209","1613","1622"],"schedule":{"travel_time":2,"stop_id":"170401"}},{"index":3,"name":"Bairro Tabaqueira (Eb 2 + 3 albarraque)","id":"172235","lat":"38.750863","lon":"-9.351385","lines":["1209","1613","1615","1622"],"schedule":{"travel_time":0,"stop_id":"172235"}},{"index":4,"name":"Bairro Tabaqueira (Mercado)","id":"170403","lat":"38.750847","lon":"-9.349853","lines":["1209","1613","1615","1622"],"schedule":{"travel_time":1,"stop_id":"170403"}},{"index":5,"name":"Bairro Tabaqueira (Usf)","id":"172265","lat":"38.751677","lon":"-9.347868","lines":["1209","1613","1615","1622"],"schedule":{"travel_time":0,"stop_id":"172265"}},{"index":6,"name":"Av Alfredo Silva (Estátua)","id":"170405","lat":"38.752140","lon":"-9.346405","lines":["1209","1613","1615","1622"],"schedule":{"travel_time":1,"stop_id":"170405"}},{"index":7,"name":"Av Alfredo da Silva (X) Tabaqueira","id":"172237","lat":"38.753490","lon":"-9.344200","lines":["1209","1613","1614","1615","1622"],"schedule":{"travel_time":1,"stop_id":"172237"}},{"index":8,"name":"R Anastácio Pinto Soares 73A","id":"170409","lat":"38.754528","lon":"-9.340063","lines":["1209"],"schedule":{"travel_time":1,"stop_id":"170409"}},{"index":9,"name":"R Anastácio Pinto Soares (X) Serra","id":"170411","lat":"38.756983","lon":"-9.335928","lines":["1209","1615"],"schedule":{"travel_time":2,"stop_id":"170411"}},{"index":10,"name":"R Anastácio Pinto Soares (X) Covões","id":"170413","lat":"38.758004","lon":"-9.332286","lines":["1209","1615"],"schedule":{"travel_time":1,"stop_id":"170413"}},{"index":11,"name":"Á-dos-Francos","id":"170415","lat":"38.759655","lon":"-9.329589","lines":["1209","1615"],"schedule":{"travel_time":1,"stop_id":"170415"}},{"index":12,"name":"R dos Castelinhos 31","id":"170417","lat":"38.762394","lon":"-9.328933","lines":["1209","1615"],"schedule":{"travel_time":1,"stop_id":"170417"}},{"index":13,"name":"R Castelinhos (X) Cova Coelho","id":"170419","lat":"38.763995","lon":"-9.326992","lines":["1209","1615"],"schedule":{"travel_time":1,"stop_id":"170419"}},{"index":14,"name":"Paiões (Cast)","id":"170421","lat":"38.765460","lon":"-9.324399","lines":["1209","1615"],"schedule":{"travel_time":1,"stop_id":"170421"}},{"index":15,"name":"Paiões (R M Silva)","id":"170423","lat":"38.765929","lon":"-9.322242","lines":["1209","1615"],"schedule":{"travel_time":1,"stop_id":"170423"}},{"index":16,"name":"R Natalia Correia Fte 16","id":"170425","lat":"38.765609","lon":"-9.319991","lines":["1209","1615"],"schedule":{"travel_time":0,"stop_id":"170425"}},{"index":17,"name":"R Manuel Fonseca (X) Pcta M Judite Carv","id":"170427","lat":"38.765112","lon":"-9.318342","lines":["1209","1615"],"schedule":{"travel_time":1,"stop_id":"170427"}},{"index":18,"name":"R Manuel Fonseca (Fte X) R Ant Boto","id":"170429","lat":"38.763835","lon":"-9.318948","lines":["1209","1615"],"schedule":{"travel_time":1,"stop_id":"170429"}},{"index":19,"name":"Cacém (Cemitério)","id":"170431","lat":"38.764521","lon":"-9.311718","lines":["1209"],"schedule":{"travel_time":2,"stop_id":"170431"}},{"index":20,"name":"R José Gomes Ferreira Fte 3","id":"170433","lat":"38.763788","lon":"-9.316122","lines":["1209","1615"],"schedule":{"travel_time":2,"stop_id":"170433"}},{"index":21,"name":"R José Gomes Ferreira Fte 19","id":"170435","lat":"38.765222","lon":"-9.316677","lines":["1209","1615"],"schedule":{"travel_time":1,"stop_id":"170435"}},{"index":22,"name":"R José Gomes Ferreira Fte 33","id":"170437","lat":"38.766595","lon":"-9.317283","lines":["1209","1615"],"schedule":{"travel_time":0,"stop_id":"170437"}},{"index":23,"name":"R da Esperança (Supermercado)","id":"170439","lat":"38.768725","lon":"-9.313349","lines":["1209","1223","1236"],"schedule":{"travel_time":2,"stop_id":"170439"}},{"index":24,"name":"R Ilha Sta Maria 3","id":"170441","lat":"38.769482","lon":"-9.312254","lines":["1209","1213","1222"],"schedule":{"travel_time":1,"stop_id":"170441"}},{"index":25,"name":"R da Esperança (Escola Gama Barros)","id":"170443","lat":"38.770940","lon":"-9.313407","lines":["1209","1213","1222","1223"],"schedule":{"travel_time":0,"stop_id":"170443"}},{"index":26,"name":"R Esperança 36","id":"170445","lat":"38.772574","lon":"-9.312058","lines":["1209","1213","1222","1223"],"schedule":{"travel_time":1,"stop_id":"170445"}},{"index":27,"name":"R Marquês Pombal 61","id":"170447","lat":"38.772016","lon":"-9.310111","lines":["1209","1222"],"schedule":{"travel_time":1,"stop_id":"170447"}},{"index":28,"name":"Bº Joaquim Fontes (Centro Comercial)","id":"170449","lat":"38.770101","lon":"-9.310462","lines":["1209","1213","1222"],"schedule":{"travel_time":1,"stop_id":"170449"}},{"index":29,"name":"R Olival 21","id":"172522","lat":"38.769197","lon":"-9.309136","lines":["1209","1222"],"schedule":{"travel_time":0,"stop_id":"172522"}},{"index":30,"name":"Av Elias Garcia 149","id":"170451","lat":"38.769107","lon":"-9.307160","lines":["1209","1222","1223","1236","1613","1622"],"schedule":{"travel_time":1,"stop_id":"170451"}},{"index":31,"name":"R de Angola 41","id":"170453","lat":"38.768738","lon":"-9.304440","lines":["1209","1215","1220","1222","1223","1225","1233","1236","1520","1521","1523","1613","1622","1731"],"schedule":{"travel_time":1,"stop_id":"170453"}},{"index":32,"name":"R Angola (Rotunda)","id":"170455","lat":"38.767599","lon":"-9.301623","lines":["1209","1215","1220","1222","1223","1225","1233","1236","1520","1521","1523","1613","1622","1731"],"schedule":{"travel_time":1,"stop_id":"170455"}},{"index":33,"name":"Agualva-Cacém (Estação) P9","id":"172489","lat":"38.765982","lon":"-9.298151","lines":["1209","1218","1219","1715"],"schedule":{"travel_time":2,"stop_id":"172489"}},{"index":34,"name":"Av Bons Amigos (Largo)","id":"170459","lat":"38.769495","lon":"-9.295174","lines":["1209","1218","1219","1221","1715","2605"],"schedule":{"travel_time":2,"stop_id":"170459"}},{"index":35,"name":"Av Bons Amigos 87 (Escola)","id":"170461","lat":"38.771839","lon":"-9.292100","lines":["1209","1218","1219","1221","1715","2605"],"schedule":{"travel_time":1,"stop_id":"170461"}},{"index":36,"name":"R Joaq Guilherme Costa Caldas Fte 1","id":"170463","lat":"38.772728","lon":"-9.295996","lines":["1209","1218"],"schedule":{"travel_time":2,"stop_id":"170463"}},{"index":37,"name":"Av Bomb Voluntários 5","id":"170465","lat":"38.773637","lon":"-9.297067","lines":["1209","1218"],"schedule":{"travel_time":0,"stop_id":"170465"}},{"index":38,"name":"Av Bomb Voluntários 36","id":"170467","lat":"38.776246","lon":"-9.297705","lines":["1209","1218","1715"],"schedule":{"travel_time":1,"stop_id":"170467"}},{"index":39,"name":"Av Bomb Voluntários (Escola)","id":"170469","lat":"38.777761","lon":"-9.297594","lines":["1209","1218","1219","1715"],"schedule":{"travel_time":1,"stop_id":"170469"}},{"index":40,"name":"Av Bomb Volunt (X) R Gen Humb Delgado","id":"170471","lat":"38.780356","lon":"-9.298645","lines":["1209","1218","1219","1715"],"schedule":{"travel_time":1,"stop_id":"170471"}},{"index":41,"name":"M Sintra (Pq Inf)","id":"170473","lat":"38.780677","lon":"-9.301247","lines":["1209","1218","1219","1715"],"schedule":{"travel_time":1,"stop_id":"170473"}},{"index":42,"name":"Av 25 Abril (Supermercado)","id":"170475","lat":"38.782480","lon":"-9.302160","lines":["1209","1218","1219","1234","1715"],"schedule":{"travel_time":1,"stop_id":"170475"}},{"index":43,"name":"Av 25 Abril 120","id":"170477","lat":"38.783393","lon":"-9.304884","lines":["1209","1218","1219","1234","1715"],"schedule":{"travel_time":1,"stop_id":"170477"}},{"index":44,"name":"Av 25 Abril (Ringue)","id":"170479","lat":"38.784746","lon":"-9.303894","lines":["1209","1218","1219","1234","1715"],"schedule":{"travel_time":1,"stop_id":"170479"}},{"index":45,"name":"Mira Sintra (Centro)","id":"170481","lat":"38.785817","lon":"-9.304237","lines":["1209","1218","1219","1234","1715"],"schedule":{"travel_time":0,"stop_id":"170481"}},{"index":46,"name":"Av 25 Abril 198","id":"170483","lat":"38.786908","lon":"-9.306212","lines":["1209","1218","1219","1234","1512","1715"],"schedule":{"travel_time":1,"stop_id":"170483"}},{"index":47,"name":"Av 25 Abril (Campo Futebol)","id":"170485","lat":"38.788854","lon":"-9.306761","lines":["1209","1218","1219","1234","1512","1715"],"schedule":{"travel_time":1,"stop_id":"170485"}},{"index":48,"name":"Mira Sintra (Mercado)","id":"170487","lat":"38.788003","lon":"-9.304419","lines":["1209","1218","1219","1234","1512","1715"],"schedule":{"travel_time":1,"stop_id":"170487"}}]}