{"color":"#3D85C6","headsign":"Bairro Fitares","id":"1210_0_2","long_name":"Bairro Fitares - Mem Martins (Esc Secundária)","line_id":"1210","shape_id":"419_4X7ZR","path":[{"index":1,"name":"Mem Martins (Escola Secundária)","id":"170155","lat":"38.783693","lon":"-9.337116","lines":["1205","1210","1232","1251","1625"],"schedule":{"travel_time":0,"stop_id":"170155"}},{"index":2,"name":"Azinhaga Caneiras (X) R Dr Osório Vaz","id":"170157","lat":"38.788272","lon":"-9.336026","lines":["1205","1210","1232","1251","1625"],"schedule":{"travel_time":1,"stop_id":"170157"}},{"index":3,"name":"R D Carlos Gomes","id":"170159","lat":"38.788065","lon":"-9.334856","lines":["1205","1210","1232","1251","1625"],"schedule":{"travel_time":1,"stop_id":"170159"}},{"index":4,"name":"Av João de Deus (Escola Primária)","id":"170086","lat":"38.786948","lon":"-9.332934","lines":["1205","1210","1232","1251","1625","1627","1628","1631"],"schedule":{"travel_time":0,"stop_id":"170086"}},{"index":5,"name":"Av João de Deus 58","id":"170084","lat":"38.785057","lon":"-9.333005","lines":["1205","1210","1232","1251","1625","1627","1628","1631"],"schedule":{"travel_time":1,"stop_id":"170084"}},{"index":6,"name":"Av João de Deus 78","id":"170082","lat":"38.783683","lon":"-9.332555","lines":["1205","1210","1232","1251","1625","1627","1628","1631"],"schedule":{"travel_time":0,"stop_id":"170082"}},{"index":7,"name":"Av João de Deus 104 (Lg Alves Redol)","id":"170080","lat":"38.782111","lon":"-9.331263","lines":["1205","1210","1232","1251","1615","1625","1627","1628","1631"],"schedule":{"travel_time":0,"stop_id":"170080"}},{"index":8,"name":"Av Maria Lamas 5 (Farmácia)","id":"170061","lat":"38.783771","lon":"-9.330154","lines":["1205","1210","1223","1232","1251","1625","1627","1628","1631"],"schedule":{"travel_time":1,"stop_id":"170061"}},{"index":9,"name":"Av Maria Lamas 48","id":"170063","lat":"38.786038","lon":"-9.329946","lines":["1205","1210","1223","1232","1251","1615","1625","1627","1628","1631"],"schedule":{"travel_time":1,"stop_id":"170063"}},{"index":10,"name":"Mercês (Estação Norte)","id":"170271","lat":"38.793111","lon":"-9.330043","lines":["1205","1210","1231"],"schedule":{"travel_time":3,"stop_id":"170271"}},{"index":11,"name":"Av Miguel Torga 46","id":"170273","lat":"38.795086","lon":"-9.331196","lines":["1205","1210","1231"],"schedule":{"travel_time":0,"stop_id":"170273"}},{"index":12,"name":"Av Miguel Torga 74","id":"170265","lat":"38.797423","lon":"-9.333239","lines":["1205","1210","1231"],"schedule":{"travel_time":1,"stop_id":"170265"}},{"index":13,"name":"R Capitão Salgueiro Maia 132","id":"170526","lat":"38.799643","lon":"-9.333823","lines":["1210"],"schedule":{"travel_time":1,"stop_id":"170526"}},{"index":14,"name":"R Capitão Salgueiro Maia 31","id":"170524","lat":"38.798431","lon":"-9.332164","lines":["1210"],"schedule":{"travel_time":0,"stop_id":"170524"}},{"index":15,"name":"R Escola (Escola Visconde Juromanha)","id":"170258","lat":"38.798269","lon":"-9.326830","lines":["1205","1210","1231"],"schedule":{"travel_time":2,"stop_id":"170258"}},{"index":16,"name":"Av Emb Aristídes S Mendes Supermercado","id":"170256","lat":"38.799161","lon":"-9.327172","lines":["1205","1210","1231"],"schedule":{"travel_time":0,"stop_id":"170256"}},{"index":17,"name":"Estr Mercês (Mcdonald's)","id":"170254","lat":"38.800914","lon":"-9.326415","lines":["1205","1210","1231"],"schedule":{"travel_time":1,"stop_id":"170254"}},{"index":18,"name":"Estr Mercês 68","id":"170252","lat":"38.802201","lon":"-9.327417","lines":["1205","1210","1231"],"schedule":{"travel_time":0,"stop_id":"170252"}},{"index":19,"name":"Estr Mercês 92","id":"170250","lat":"38.804514","lon":"-9.329150","lines":["1205","1210","1231"],"schedule":{"travel_time":1,"stop_id":"170250"}},{"index":20,"name":"Estr Gran Marquês 26","id":"170248","lat":"38.806191","lon":"-9.329587","lines":["1205","1208","1210","1234","1244"],"schedule":{"travel_time":0,"stop_id":"170248"}},{"index":21,"name":"R Arquitecto Cottinelli Telmo 24","id":"170246","lat":"38.806728","lon":"-9.327764","lines":["1205","1210","1234"],"schedule":{"travel_time":1,"stop_id":"170246"}},{"index":22,"name":"R Cast Mouros 1 (Bº Nova Imagem)","id":"170519","lat":"38.807905","lon":"-9.325631","lines":["1210"],"schedule":{"travel_time":1,"stop_id":"170519"}},{"index":23,"name":"R Arquitecto Cottinelli Telmo 25","id":"170245","lat":"38.806682","lon":"-9.327931","lines":["1205","1210","1234"],"schedule":{"travel_time":1,"stop_id":"170245"}},{"index":24,"name":"Estr Granja Marquês 35","id":"170247","lat":"38.806089","lon":"-9.329694","lines":["1205","1208","1210","1234","1244"],"schedule":{"travel_time":0,"stop_id":"170247"}},{"index":25,"name":"Estr Mercês 92","id":"170249","lat":"38.804420","lon":"-9.329242","lines":["1205","1210","1231"],"schedule":{"travel_time":1,"stop_id":"170249"}},{"index":26,"name":"Estr Mercês 68","id":"170251","lat":"38.802223","lon":"-9.327581","lines":["1205","1210","1231"],"schedule":{"travel_time":0,"stop_id":"170251"}},{"index":27,"name":"Estr Mercês (X) Av Emb Arist S Mendes","id":"170253","lat":"38.800965","lon":"-9.326627","lines":["1205","1210","1231"],"schedule":{"travel_time":1,"stop_id":"170253"}},{"index":28,"name":"Estr das Mercês (Posto Abast)","id":"170518","lat":"38.799211","lon":"-9.325242","lines":["1210"],"schedule":{"travel_time":0,"stop_id":"170518"}},{"index":29,"name":"Estr das Mercês 32","id":"170516","lat":"38.797279","lon":"-9.324105","lines":["1210"],"schedule":{"travel_time":1,"stop_id":"170516"}},{"index":30,"name":"Calçada da Rinchoa 118","id":"170514","lat":"38.793802","lon":"-9.322993","lines":["1210"],"schedule":{"travel_time":1,"stop_id":"170514"}},{"index":31,"name":"Calçada da Rinchoa (X) Av Olaias","id":"170512","lat":"38.791828","lon":"-9.322828","lines":["1210"],"schedule":{"travel_time":0,"stop_id":"170512"}},{"index":32,"name":"Calçada Rinchoa 58","id":"170510","lat":"38.788534","lon":"-9.322288","lines":["1210"],"schedule":{"travel_time":1,"stop_id":"170510"}},{"index":33,"name":"Rio de Mouro (Estação Norte)","id":"170169","lat":"38.785038","lon":"-9.322368","lines":["1204","1210"],"schedule":{"travel_time":1,"stop_id":"170169"}},{"index":34,"name":"Estr Marquês Pombal 2","id":"170168","lat":"38.784227","lon":"-9.319832","lines":["1204","1210"],"schedule":{"travel_time":0,"stop_id":"170168"}},{"index":35,"name":"Av Marquês Pombal (Traseiras Escola)","id":"170171","lat":"38.783555","lon":"-9.317662","lines":["1204","1210"],"schedule":{"travel_time":1,"stop_id":"170171"}},{"index":36,"name":"Av Marquês de Pombal (Chafariz)","id":"170173","lat":"38.782820","lon":"-9.315371","lines":["1204","1210"],"schedule":{"travel_time":0,"stop_id":"170173"}},{"index":37,"name":"Av Marquês de Pombal 58","id":"170175","lat":"38.783361","lon":"-9.312701","lines":["1204","1210"],"schedule":{"travel_time":1,"stop_id":"170175"}},{"index":38,"name":"Alam do Relógio (Polidesp Fitares)","id":"170196","lat":"38.784859","lon":"-9.313921","lines":["1210"],"schedule":{"travel_time":1,"stop_id":"170196"}},{"index":39,"name":"Av Fitares 27 (Edifício Acácia)","id":"170508","lat":"38.786244","lon":"-9.314624","lines":["1210"],"schedule":{"travel_time":0,"stop_id":"170508"}},{"index":40,"name":"Bairro Fitares","id":"170506","lat":"38.786643","lon":"-9.317293","lines":["1210"],"schedule":{"travel_time":1,"stop_id":"170506"}}]}