{"color":"#C61D23","headsign":"Agualva - Cacém (Estação)","id":"1213_0_1","long_name":"Bº Joaquim Fontes (Centro Comercial) - Agualva-Cacém (Estação)","line_id":"1213","shape_id":"116_4X7ZR","path":[{"index":1,"name":"Bº Joaquim Fontes (Centro Comercial)","id":"170449","lat":"38.770101","lon":"-9.310462","lines":["1209","1213","1222"],"schedule":{"travel_time":0,"stop_id":"170449"}},{"index":2,"name":"R Ilha Sta Maria 3","id":"170441","lat":"38.769482","lon":"-9.312254","lines":["1209","1213","1222"],"schedule":{"travel_time":1,"stop_id":"170441"}},{"index":3,"name":"R da Esperança (Escola Gama Barros)","id":"170443","lat":"38.770940","lon":"-9.313407","lines":["1209","1213","1222","1223"],"schedule":{"travel_time":1,"stop_id":"170443"}},{"index":4,"name":"R Esperança 36","id":"170445","lat":"38.772574","lon":"-9.312058","lines":["1209","1213","1222","1223"],"schedule":{"travel_time":1,"stop_id":"170445"}},{"index":5,"name":"R S Paulo (X) Santo Eloi","id":"170605","lat":"38.773916","lon":"-9.311806","lines":["1213"],"schedule":{"travel_time":1,"stop_id":"170605"}},{"index":6,"name":"R S Paulo 41A","id":"170607","lat":"38.776106","lon":"-9.310463","lines":["1213"],"schedule":{"travel_time":1,"stop_id":"170607"}},{"index":7,"name":"R Melquiades Marques 41","id":"170609","lat":"38.775759","lon":"-9.307739","lines":["1213"],"schedule":{"travel_time":1,"stop_id":"170609"}},{"index":8,"name":"R Escola António Sérgio (Escola)","id":"170611","lat":"38.775517","lon":"-9.306018","lines":["1213"],"schedule":{"travel_time":1,"stop_id":"170611"}},{"index":9,"name":"Av Missionários (Esc António Sérgio)","id":"170613","lat":"38.774828","lon":"-9.304797","lines":["1213"],"schedule":{"travel_time":0,"stop_id":"170613"}},{"index":10,"name":"Viaduto (X) Av Missionários","id":"170615","lat":"38.773675","lon":"-9.303704","lines":["1213"],"schedule":{"travel_time":1,"stop_id":"170615"}},{"index":11,"name":"Alam Cidade Bona 3A (Entrada)","id":"170617","lat":"38.774908","lon":"-9.302217","lines":["1213"],"schedule":{"travel_time":1,"stop_id":"170617"}},{"index":12,"name":"Alam Cidade Bona 33","id":"170619","lat":"38.775588","lon":"-9.302956","lines":["1213"],"schedule":{"travel_time":1,"stop_id":"170619"}},{"index":13,"name":"Alam Cidade Bona (Saída)","id":"170621","lat":"38.774941","lon":"-9.302880","lines":["1213"],"schedule":{"travel_time":0,"stop_id":"170621"}},{"index":14,"name":"Av Cidade Londres 48","id":"170623","lat":"38.773487","lon":"-9.302542","lines":["1213"],"schedule":{"travel_time":0,"stop_id":"170623"}},{"index":15,"name":"R Cidade Roma 3","id":"170625","lat":"38.773720","lon":"-9.300349","lines":["1213"],"schedule":{"travel_time":1,"stop_id":"170625"}},{"index":16,"name":"R Cidade Madrid 4","id":"170627","lat":"38.774738","lon":"-9.297920","lines":["1213"],"schedule":{"travel_time":1,"stop_id":"170627"}},{"index":17,"name":"R Paula Lopes (X) Pcta Serpa Pinto","id":"170629","lat":"38.775919","lon":"-9.297419","lines":["1213","1715"],"schedule":{"travel_time":1,"stop_id":"170629"}},{"index":18,"name":"R Carlos Charbel Fte 31","id":"170631","lat":"38.776264","lon":"-9.296110","lines":["1213","1715"],"schedule":{"travel_time":1,"stop_id":"170631"}},{"index":19,"name":"Av Sta Maria 46 (Escola)","id":"170635","lat":"38.777148","lon":"-9.295035","lines":["1213","1219","1221","1715"],"schedule":{"travel_time":0,"stop_id":"170635"}},{"index":20,"name":"Av Sta Maria 14B","id":"170637","lat":"38.773798","lon":"-9.294309","lines":["1213","1219","1221","1715"],"schedule":{"travel_time":2,"stop_id":"170637"}},{"index":21,"name":"Av Sta Maria 1","id":"170639","lat":"38.772751","lon":"-9.294407","lines":["1213","1219","1221","1715"],"schedule":{"travel_time":0,"stop_id":"170639"}},{"index":22,"name":"R Prof Egas Moniz 37","id":"170641","lat":"38.771982","lon":"-9.294191","lines":["1213"],"schedule":{"travel_time":1,"stop_id":"170641"}},{"index":23,"name":"R Alves Redol 1","id":"170643","lat":"38.770940","lon":"-9.294839","lines":["1213"],"schedule":{"travel_time":0,"stop_id":"170643"}},{"index":24,"name":"Av Bons Amigos 46","id":"170645","lat":"38.769950","lon":"-9.294595","lines":["1213","2605"],"schedule":{"travel_time":1,"stop_id":"170645"}},{"index":25,"name":"Agualva-Cacém (Estação) P8","id":"172487","lat":"38.766106","lon":"-9.298204","lines":["1213","1221"],"schedule":{"travel_time":2,"stop_id":"172487"}}]}