{"color":"#3D85C6","headsign":"Estação Tercena","id":"1216_0_3","long_name":"Tercena (Estação) via São Marcos Taguspark (Novo Banco) e Casal do Cotão | Circular","line_id":"1216","shape_id":"119_4X7ZR","path":[{"index":1,"name":"Estação Tercena","id":"170709","lat":"38.751088","lon":"-9.287181","lines":["1216","1524"],"schedule":{"travel_time":0,"stop_id":"170709"}},{"index":2,"name":"R Cidade S Paulo 54","id":"170711","lat":"38.749608","lon":"-9.289627","lines":["1216","1524"],"schedule":{"travel_time":1,"stop_id":"170711"}},{"index":3,"name":"R Cidade S Paulo 17","id":"170713","lat":"38.748157","lon":"-9.288771","lines":["1216","1524"],"schedule":{"travel_time":0,"stop_id":"170713"}},{"index":4,"name":"R Cidade S Paulo 11","id":"170715","lat":"38.747448","lon":"-9.290347","lines":["1216","1524"],"schedule":{"travel_time":1,"stop_id":"170715"}},{"index":5,"name":"Av Brasil 84","id":"170717","lat":"38.748190","lon":"-9.291079","lines":["1215","1216","1220","1225","1233","1524"],"schedule":{"travel_time":0,"stop_id":"170717"}},{"index":6,"name":"Av Brasil (X) Cidade S Paulo","id":"170719","lat":"38.749969","lon":"-9.290430","lines":["1215","1216","1220","1225","1233","1524"],"schedule":{"travel_time":1,"stop_id":"170719"}},{"index":7,"name":"Av Brasil (Fte Campo Tenis)","id":"172566","lat":"38.750483","lon":"-9.292825","lines":["1215","1216","1220","1225","1233","1524"],"schedule":{"travel_time":0,"stop_id":"172566"}},{"index":8,"name":"Av Brasil (X) Cidade Brasilia","id":"170721","lat":"38.749387","lon":"-9.294644","lines":["1215","1216","1220","1225","1233","1524"],"schedule":{"travel_time":1,"stop_id":"170721"}},{"index":9,"name":"Av Brasil (X) Cidade Rio Janeiro","id":"170723","lat":"38.748812","lon":"-9.297059","lines":["1215","1216","1220","1225","1233","1524"],"schedule":{"travel_time":0,"stop_id":"170723"}},{"index":10,"name":"Av Brasil - Pcta","id":"170725","lat":"38.749362","lon":"-9.298513","lines":["1215","1216","1220","1225","1233","1524","1733"],"schedule":{"travel_time":0,"stop_id":"170725"}},{"index":11,"name":"Av Brasil - atrás Esc Preparatória","id":"170727","lat":"38.750206","lon":"-9.299931","lines":["1215","1216","1220","1225","1233","1524","1733"],"schedule":{"travel_time":1,"stop_id":"170727"}},{"index":12,"name":"São Marcos (Rotunda)","id":"170776","lat":"38.751257","lon":"-9.302776","lines":["1215","1216","1220","1225","1233","1523","1529","1531","1616","1617","1733"],"schedule":{"travel_time":0,"stop_id":"170776"}},{"index":13,"name":"Taguspark (Novo Banco)","id":"121039","lat":"38.750726","lon":"-9.308186","lines":["1216","1225","1233","1529","1612","1616","1617","1733"],"schedule":{"travel_time":2,"stop_id":"121039"}},{"index":14,"name":"São Marcos (Rotunda)","id":"170775","lat":"38.750991","lon":"-9.302750","lines":["1215","1216","1220","1225","1233","1523","1529","1531","1616","1617","1733"],"schedule":{"travel_time":1,"stop_id":"170775"}},{"index":15,"name":"Av Brasil (Fte Esc Primária)","id":"170729","lat":"38.748013","lon":"-9.302130","lines":["1215","1216","1220","1225","1233","1523","1524","1529","1531","1616","1617","1733"],"schedule":{"travel_time":0,"stop_id":"170729"}},{"index":16,"name":"Av Brasil (Esc Básica)","id":"170731","lat":"38.747144","lon":"-9.301395","lines":["1216","1524","1733"],"schedule":{"travel_time":1,"stop_id":"170731"}},{"index":17,"name":"Av Brasil (X) Cidade Belo Horizonte","id":"170733","lat":"38.747014","lon":"-9.298842","lines":["1215","1216","1220","1225","1233","1524","1733"],"schedule":{"travel_time":0,"stop_id":"170733"}},{"index":18,"name":"São Marcos (Av Brasil)","id":"170735","lat":"38.746899","lon":"-9.296662","lines":["1215","1216","1220","1225","1233","1524","1733"],"schedule":{"travel_time":1,"stop_id":"170735"}},{"index":19,"name":"Av Brasil (X) Cidade Brasilia","id":"170737","lat":"38.746732","lon":"-9.293859","lines":["1215","1216","1220","1225","1233","1524"],"schedule":{"travel_time":0,"stop_id":"170737"}},{"index":20,"name":"Av Brasil 84","id":"170717","lat":"38.748190","lon":"-9.291079","lines":["1215","1216","1220","1225","1233","1524"],"schedule":{"travel_time":0,"stop_id":"170717"}},{"index":21,"name":"Av Brasil (X) Cidade S Paulo","id":"170719","lat":"38.749969","lon":"-9.290430","lines":["1215","1216","1220","1225","1233","1524"],"schedule":{"travel_time":1,"stop_id":"170719"}},{"index":22,"name":"R Cidade S Paulo (X) R Cidade Recife","id":"170739","lat":"38.750076","lon":"-9.289836","lines":["1216","1524"],"schedule":{"travel_time":0,"stop_id":"170739"}},{"index":23,"name":"Estação Tercena","id":"172531","lat":"38.751003","lon":"-9.287076","lines":["1216","1524"],"schedule":{"travel_time":2,"stop_id":"172531"}},{"index":24,"name":"Caminho Ponte 36","id":"170708","lat":"38.752331","lon":"-9.292479","lines":["1216","1524"],"schedule":{"travel_time":1,"stop_id":"170708"}},{"index":25,"name":"R Cid Évora (X) R Fr Marc Curto","id":"170706","lat":"38.753016","lon":"-9.294472","lines":["1216","1220","1233","1524"],"schedule":{"travel_time":0,"stop_id":"170706"}},{"index":26,"name":"Encosta S Marcos","id":"170698","lat":"38.757103","lon":"-9.295061","lines":["1216","1220","1233","1524"],"schedule":{"travel_time":1,"stop_id":"170698"}},{"index":27,"name":"R Cidade Castelo Branco 10","id":"170696","lat":"38.758496","lon":"-9.295427","lines":["1216","1220","1233","1524"],"schedule":{"travel_time":0,"stop_id":"170696"}},{"index":28,"name":"Av Cidade Lisboa (X) Cidade Covilhã","id":"170741","lat":"38.761356","lon":"-9.298288","lines":["1216","1220","1233","1524"],"schedule":{"travel_time":1,"stop_id":"170741"}},{"index":29,"name":"Av Cidade Lisboa 52","id":"170699","lat":"38.762563","lon":"-9.298461","lines":["1216","1220","1233","1524"],"schedule":{"travel_time":0,"stop_id":"170699"}},{"index":30,"name":"Prç Cidade Omura Fte 21","id":"170743","lat":"38.763356","lon":"-9.299884","lines":["1216","1524"],"schedule":{"travel_time":1,"stop_id":"170743"}},{"index":31,"name":"Casal Cotão (Escola Primária)","id":"170689","lat":"38.763394","lon":"-9.301115","lines":["1215","1216","1225","1524"],"schedule":{"travel_time":0,"stop_id":"170689"}},{"index":32,"name":"Av Cidade Lisboa 72","id":"170691","lat":"38.764120","lon":"-9.300183","lines":["1215","1216","1225","1524"],"schedule":{"travel_time":1,"stop_id":"170691"}},{"index":33,"name":"Av Cidade Lisboa 64","id":"170703","lat":"38.763703","lon":"-9.299467","lines":["1215","1216","1225","1524"],"schedule":{"travel_time":0,"stop_id":"170703"}},{"index":34,"name":"Av Cidade Lisboa 47","id":"170693","lat":"38.762085","lon":"-9.298586","lines":["1215","1216","1225","1524"],"schedule":{"travel_time":0,"stop_id":"170693"}},{"index":35,"name":"R Cidade Castelo Branco 7","id":"170695","lat":"38.758021","lon":"-9.295418","lines":["1215","1216","1225","1524"],"schedule":{"travel_time":1,"stop_id":"170695"}},{"index":36,"name":"R Cid Évora (X) R Fr Marc Curto","id":"170705","lat":"38.752910","lon":"-9.294566","lines":["1215","1216","1225","1524"],"schedule":{"travel_time":1,"stop_id":"170705"}},{"index":37,"name":"Caminho Ponte 36","id":"170707","lat":"38.752232","lon":"-9.292393","lines":["1216","1524"],"schedule":{"travel_time":1,"stop_id":"170707"}},{"index":38,"name":"Estação Tercena","id":"170709","lat":"38.751088","lon":"-9.287181","lines":["1216","1524"],"schedule":{"travel_time":0,"stop_id":"170709"}}]}