{"color":"#C61D23","headsign":"Agualva - Cacém (Estação)","id":"1219_0_2","long_name":"Agualva-Cacém (Estação) - Mira Sintra (Mercado) via Av Santa Maria","line_id":"1219","shape_id":"126_4X7ZR","path":[{"index":1,"name":"Mira Sintra (Mercado)","id":"170488","lat":"38.788177","lon":"-9.304464","lines":["1209","1218","1219","1234","1512","1715"],"schedule":{"travel_time":0,"stop_id":"170488"}},{"index":2,"name":"Av 25 Abril (Campo Futebol)","id":"170486","lat":"38.789010","lon":"-9.306460","lines":["1209","1218","1219","1234","1512","1715"],"schedule":{"travel_time":0,"stop_id":"170486"}},{"index":3,"name":"Av 25 Abril Fte 198","id":"170484","lat":"38.786847","lon":"-9.306031","lines":["1209","1218","1219","1234","1512","1715"],"schedule":{"travel_time":1,"stop_id":"170484"}},{"index":4,"name":"Mira Sintra (Centro)","id":"170482","lat":"38.785649","lon":"-9.304163","lines":["1209","1218","1219","1234","1715"],"schedule":{"travel_time":1,"stop_id":"170482"}},{"index":5,"name":"Av 25 Abril (Ringue)","id":"170480","lat":"38.784705","lon":"-9.304385","lines":["1209","1218","1219","1234","1715"],"schedule":{"travel_time":0,"stop_id":"170480"}},{"index":6,"name":"Av 25 Abril Fte 120","id":"170478","lat":"38.783272","lon":"-9.304927","lines":["1209","1218","1219","1234","1715"],"schedule":{"travel_time":1,"stop_id":"170478"}},{"index":7,"name":"Av 25 Abril (Lidl)","id":"170476","lat":"38.782135","lon":"-9.302148","lines":["1209","1218","1219","1234","1715"],"schedule":{"travel_time":1,"stop_id":"170476"}},{"index":8,"name":"M Sintra (Pq Inf)","id":"170474","lat":"38.780622","lon":"-9.301126","lines":["1209","1218","1219","1715"],"schedule":{"travel_time":0,"stop_id":"170474"}},{"index":9,"name":"Av Bomb Volunt (X) R Gen Humb Delgado","id":"170472","lat":"38.780141","lon":"-9.298503","lines":["1209","1218","1219","1715"],"schedule":{"travel_time":1,"stop_id":"170472"}},{"index":10,"name":"Av Bomb Voluntários (Escola)","id":"170470","lat":"38.778257","lon":"-9.297768","lines":["1209","1218","1219","1715"],"schedule":{"travel_time":0,"stop_id":"170470"}},{"index":11,"name":"R Silva Porto 25 (Escola)","id":"170633","lat":"38.777468","lon":"-9.296433","lines":["1219"],"schedule":{"travel_time":1,"stop_id":"170633"}},{"index":12,"name":"Av Sta Maria 46 (Escola)","id":"170635","lat":"38.777148","lon":"-9.295035","lines":["1213","1219","1221","1715"],"schedule":{"travel_time":0,"stop_id":"170635"}},{"index":13,"name":"Av Sta Maria 14B","id":"170637","lat":"38.773798","lon":"-9.294309","lines":["1213","1219","1221","1715"],"schedule":{"travel_time":1,"stop_id":"170637"}},{"index":14,"name":"Av Sta Maria 1","id":"170639","lat":"38.772751","lon":"-9.294407","lines":["1213","1219","1221","1715"],"schedule":{"travel_time":0,"stop_id":"170639"}},{"index":15,"name":"Av Bons Amigos 87 (Escola)","id":"170462","lat":"38.771467","lon":"-9.292191","lines":["1209","1218","1219","1221","1715","2605"],"schedule":{"travel_time":1,"stop_id":"170462"}},{"index":16,"name":"Av Bons Amigos (Largo)","id":"172621","lat":"38.769627","lon":"-9.295335","lines":["1209","1211","1218","1219","1236"],"schedule":{"travel_time":1,"stop_id":"172621"}},{"index":17,"name":"Agualva-Cacém (Estação) P9","id":"172489","lat":"38.765982","lon":"-9.298151","lines":["1209","1218","1219","1715"],"schedule":{"travel_time":1,"stop_id":"172489"}}]}