{"color":"#C61D23","headsign":"Agualva - Cacém (Estação)","id":"1223_1_2","long_name":"Agualva-Cacém (Estação) - Portela Sintra (Estação Sul) via Vale Flores","line_id":"1223","shape_id":"426_4X7ZR","path":[{"index":1,"name":"Portela de Sintra (Estação) P11 Entrada Sul","id":"170821","lat":"38.802129","lon":"-9.376987","lines":["1223","1251","1614"],"schedule":{"travel_time":0,"stop_id":"170821"}},{"index":2,"name":"Av Movimento das Forças Armadas 110","id":"170820","lat":"38.801664","lon":"-9.374385","lines":["1223","1251","1614"],"schedule":{"travel_time":1,"stop_id":"170820"}},{"index":3,"name":"Av Mov Forças Armadas (Zn Industrial)","id":"170818","lat":"38.801206","lon":"-9.371138","lines":["1223","1251","1614"],"schedule":{"travel_time":1,"stop_id":"170818"}},{"index":4,"name":"Av Mov F Armadas 219","id":"170816","lat":"38.800477","lon":"-9.367477","lines":["1223","1251","1614"],"schedule":{"travel_time":1,"stop_id":"170816"}},{"index":5,"name":"Av Alm Gago Coutinho (Polícia Munic)","id":"170814","lat":"38.800689","lon":"-9.360192","lines":["1223","1251","1614"],"schedule":{"travel_time":2,"stop_id":"170814"}},{"index":6,"name":"Av Alm Gago Coutinho (Qta Ouressa)","id":"170812","lat":"38.799752","lon":"-9.357157","lines":["1223","1251","1614"],"schedule":{"travel_time":1,"stop_id":"170812"}},{"index":7,"name":"R D Francisco de Sá Carneiro 29 (Farm)","id":"170810","lat":"38.798452","lon":"-9.355270","lines":["1223","1251","1614"],"schedule":{"travel_time":0,"stop_id":"170810"}},{"index":8,"name":"R D Francisco de Sá Carneiro 11","id":"170808","lat":"38.797890","lon":"-9.353336","lines":["1223","1251","1614"],"schedule":{"travel_time":1,"stop_id":"170808"}},{"index":9,"name":"Av Alm Gago Coutinho 63","id":"170806","lat":"38.797921","lon":"-9.351692","lines":["1223","1231","1251","1614"],"schedule":{"travel_time":0,"stop_id":"170806"}},{"index":10,"name":"R Prof Joaquim Fontes 88","id":"170804","lat":"38.797159","lon":"-9.351156","lines":["1223","1231","1251","1614"],"schedule":{"travel_time":1,"stop_id":"170804"}},{"index":11,"name":"R Prof Joaquim Fontes 45","id":"170802","lat":"38.796317","lon":"-9.349421","lines":["1223","1231","1251","1614"],"schedule":{"travel_time":0,"stop_id":"170802"}},{"index":12,"name":"R Prof Joaquim Fontes 22","id":"170800","lat":"38.793741","lon":"-9.347211","lines":["1223","1614"],"schedule":{"travel_time":1,"stop_id":"170800"}},{"index":13,"name":"R Artur Bual (X) Pcta do Outeiro","id":"170798","lat":"38.794002","lon":"-9.349543","lines":["1223"],"schedule":{"travel_time":1,"stop_id":"170798"}},{"index":14,"name":"R Abel Manta 14","id":"170796","lat":"38.791957","lon":"-9.350782","lines":["1223"],"schedule":{"travel_time":1,"stop_id":"170796"}},{"index":15,"name":"R Eiras 32 (Parque Infantil)","id":"170109","lat":"38.790426","lon":"-9.350103","lines":["1223","1251"],"schedule":{"travel_time":1,"stop_id":"170109"}},{"index":16,"name":"R das Eiras 59","id":"170111","lat":"38.790563","lon":"-9.352377","lines":["1223","1251"],"schedule":{"travel_time":0,"stop_id":"170111"}},{"index":17,"name":"Av Cândido Oliveira 5","id":"170113","lat":"38.790636","lon":"-9.353896","lines":["1223","1251"],"schedule":{"travel_time":1,"stop_id":"170113"}},{"index":18,"name":"Av Cândido de Oliveira 2","id":"170115","lat":"38.789341","lon":"-9.354891","lines":["1223","1251"],"schedule":{"travel_time":0,"stop_id":"170115"}},{"index":19,"name":"Av François Miterrand 34","id":"170117","lat":"38.786694","lon":"-9.355787","lines":["1223","1251"],"schedule":{"travel_time":1,"stop_id":"170117"}},{"index":20,"name":"R República da Coreia","id":"172538","lat":"38.785799","lon":"-9.356601","lines":["1223"],"schedule":{"travel_time":1,"stop_id":"172538"}},{"index":21,"name":"R Cerejeiras Fte 31","id":"172604","lat":"38.787288","lon":"-9.360789","lines":["1223"],"schedule":{"travel_time":2,"stop_id":"172604"}},{"index":22,"name":"R Cerejeiras (X) Trv Oliveiras","id":"172540","lat":"38.789619","lon":"-9.359238","lines":["1223"],"schedule":{"travel_time":1,"stop_id":"172540"}},{"index":23,"name":"Av François Miterrand 34","id":"170117","lat":"38.786694","lon":"-9.355787","lines":["1223","1251"],"schedule":{"travel_time":1,"stop_id":"170117"}},{"index":24,"name":"Av Paul Harris 2","id":"170119","lat":"38.786260","lon":"-9.353799","lines":["1223","1251"],"schedule":{"travel_time":1,"stop_id":"170119"}},{"index":25,"name":"R Vasco Santana 81","id":"170121","lat":"38.786611","lon":"-9.350106","lines":["1223","1251"],"schedule":{"travel_time":0,"stop_id":"170121"}},{"index":26,"name":"R D Sousa Martins 58","id":"170123","lat":"38.785676","lon":"-9.349188","lines":["1223","1251"],"schedule":{"travel_time":1,"stop_id":"170123"}},{"index":27,"name":"R Leopoldo de Almeida 13","id":"170125","lat":"38.784490","lon":"-9.347950","lines":["1223","1251"],"schedule":{"travel_time":1,"stop_id":"170125"}},{"index":28,"name":"Estr Mem Martins (Supermercado)","id":"170127","lat":"38.782749","lon":"-9.347439","lines":["1223","1232","1234","1251","1614","1625","1627","1628","1631"],"schedule":{"travel_time":0,"stop_id":"170127"}},{"index":29,"name":"Mem Martins (Farmácia)","id":"170129","lat":"38.780471","lon":"-9.349460","lines":["1223","1232","1234","1251","1614","1625","1627","1628","1631"],"schedule":{"travel_time":1,"stop_id":"170129"}},{"index":30,"name":"R Elias Garcia (Hipermercado)","id":"170794","lat":"38.779257","lon":"-9.347568","lines":["1223","1234"],"schedule":{"travel_time":1,"stop_id":"170794"}},{"index":31,"name":"R Elias Garcia 34","id":"170823","lat":"38.778773","lon":"-9.342534","lines":["1223","1234"],"schedule":{"travel_time":2,"stop_id":"170823"}},{"index":32,"name":"Cam Serradinho (Cimo Centro Comercial)","id":"170151","lat":"38.774224","lon":"-9.342538","lines":["1204","1223","1232","1234","1236","1251","1615"],"schedule":{"travel_time":1,"stop_id":"170151"}},{"index":33,"name":"Alto do Forte (Centro Comercial)","id":"170048","lat":"38.775740","lon":"-9.342026","lines":["1223","1232","1234","1251","1615"],"schedule":{"travel_time":1,"stop_id":"170048"}},{"index":34,"name":"Estr Terras Lagoa (Centro Comercial)","id":"170049","lat":"38.774883","lon":"-9.343144","lines":["1204","1223","1232","1234","1236","1251","1615"],"schedule":{"travel_time":1,"stop_id":"170049"}},{"index":35,"name":"Estr Terras da Lagoa (Rotunda)","id":"170051","lat":"38.778259","lon":"-9.342161","lines":["1204","1223","1232","1234","1236","1251","1615"],"schedule":{"travel_time":1,"stop_id":"170051"}},{"index":36,"name":"EN 249 Km13 5","id":"170053","lat":"38.778262","lon":"-9.339355","lines":["1204","1223","1236","1251","1615"],"schedule":{"travel_time":1,"stop_id":"170053"}},{"index":37,"name":"R Elias Garcia (Zona Comercial)","id":"170055","lat":"38.776975","lon":"-9.335048","lines":["1204","1223","1236","1251","1615"],"schedule":{"travel_time":1,"stop_id":"170055"}},{"index":38,"name":"Alto do Forte - Av Irene Lisboa","id":"170057","lat":"38.779982","lon":"-9.334555","lines":["1223","1251","1615"],"schedule":{"travel_time":2,"stop_id":"170057"}},{"index":39,"name":"Av Irene Lisboa (Armazém A)","id":"170059","lat":"38.780623","lon":"-9.331254","lines":["1223","1251","1615"],"schedule":{"travel_time":2,"stop_id":"170059"}},{"index":40,"name":"Av Maria Lamas 5 (Farmácia)","id":"170061","lat":"38.783771","lon":"-9.330154","lines":["1205","1210","1223","1232","1251","1625","1627","1628","1631"],"schedule":{"travel_time":1,"stop_id":"170061"}},{"index":41,"name":"Av Maria Lamas 48","id":"170063","lat":"38.786038","lon":"-9.329946","lines":["1205","1210","1223","1232","1251","1615","1625","1627","1628","1631"],"schedule":{"travel_time":1,"stop_id":"170063"}},{"index":42,"name":"R da Ponte","id":"170065","lat":"38.786801","lon":"-9.328678","lines":["1223","1232","1251","1615","1625","1627","1628","1631"],"schedule":{"travel_time":1,"stop_id":"170065"}},{"index":43,"name":"Av D João II 45","id":"170067","lat":"38.784410","lon":"-9.326308","lines":["1223","1232","1251","1615","1625","1627","1628","1631"],"schedule":{"travel_time":1,"stop_id":"170067"}},{"index":44,"name":"Av D João II 3","id":"170069","lat":"38.781571","lon":"-9.324488","lines":["1223","1232","1251","1615","1625","1627","1628","1631"],"schedule":{"travel_time":1,"stop_id":"170069"}},{"index":45,"name":"Av Gil Eanes Frente PSP","id":"170672","lat":"38.781308","lon":"-9.322209","lines":["1223"],"schedule":{"travel_time":1,"stop_id":"170672"}},{"index":46,"name":"Av Pedro Nunes 14","id":"170670","lat":"38.781814","lon":"-9.317713","lines":["1223"],"schedule":{"travel_time":1,"stop_id":"170670"}},{"index":47,"name":"R Francisco Costa 17","id":"170668","lat":"38.780891","lon":"-9.316089","lines":["1223"],"schedule":{"travel_time":1,"stop_id":"170668"}},{"index":48,"name":"R Francisco Costa 3","id":"170666","lat":"38.780900","lon":"-9.314224","lines":["1223"],"schedule":{"travel_time":1,"stop_id":"170666"}},{"index":49,"name":"R Pôr do Sol 6 (Atlético Cacém)","id":"170664","lat":"38.774724","lon":"-9.317436","lines":["1223"],"schedule":{"travel_time":2,"stop_id":"170664"}},{"index":50,"name":"R Marquês de Pombal (Supermercado)","id":"170662","lat":"38.774455","lon":"-9.314834","lines":["1223"],"schedule":{"travel_time":1,"stop_id":"170662"}},{"index":51,"name":"R Marquês de Pombal 87","id":"170660","lat":"38.773417","lon":"-9.312968","lines":["1223"],"schedule":{"travel_time":1,"stop_id":"170660"}},{"index":52,"name":"R Esperança 31","id":"170446","lat":"38.772602","lon":"-9.312518","lines":["1209","1213","1223"],"schedule":{"travel_time":0,"stop_id":"170446"}},{"index":53,"name":"R da Esperança (Escola Gama Barros)","id":"170444","lat":"38.771042","lon":"-9.313624","lines":["1209","1213","1223"],"schedule":{"travel_time":1,"stop_id":"170444"}},{"index":54,"name":"R Elias Garcia 199 (Supermercado)","id":"170675","lat":"38.768054","lon":"-9.312971","lines":["1223","1613","1622"],"schedule":{"travel_time":1,"stop_id":"170675"}},{"index":55,"name":"R Elias Garcia 173","id":"170677","lat":"38.768572","lon":"-9.309511","lines":["1223","1236","1613","1622"],"schedule":{"travel_time":1,"stop_id":"170677"}},{"index":56,"name":"Av Elias Garcia 149","id":"170451","lat":"38.769107","lon":"-9.307160","lines":["1209","1222","1223","1236","1613","1622"],"schedule":{"travel_time":1,"stop_id":"170451"}},{"index":57,"name":"R de Angola 41","id":"170453","lat":"38.768738","lon":"-9.304440","lines":["1209","1215","1220","1222","1223","1225","1233","1236","1520","1521","1523","1613","1622","1731"],"schedule":{"travel_time":1,"stop_id":"170453"}},{"index":58,"name":"R Angola (Rotunda)","id":"170455","lat":"38.767599","lon":"-9.301623","lines":["1209","1215","1220","1222","1223","1225","1233","1236","1520","1521","1523","1613","1622","1731"],"schedule":{"travel_time":1,"stop_id":"170455"}},{"index":59,"name":"Agualva-Cacém (Estação) P10","id":"170653","lat":"38.765858","lon":"-9.298099","lines":["1223","1236"],"schedule":{"travel_time":1,"stop_id":"170653"}}]}