{"color":"#C61D23","headsign":"Monte Abraão (Estação)","id":"1224_0_1","long_name":"Belas Clube Campo - Monte Abraão (Estação) via Carregueira (Estabelecimento Prisional)","line_id":"1224","shape_id":"346_4X7ZR","path":[{"index":1,"name":"Belas Clube Campo","id":"170839","lat":"38.810083","lon":"-9.274210","lines":["1224"],"schedule":{"travel_time":0,"stop_id":"170839"}},{"index":2,"name":"Alam Aqueduto (Villas Belas)","id":"170838","lat":"38.814819","lon":"-9.276795","lines":["1224"],"schedule":{"travel_time":1,"stop_id":"170838"}},{"index":3,"name":"Alam Aqueduto (Escadinhas)","id":"170836","lat":"38.812168","lon":"-9.281003","lines":["1224"],"schedule":{"travel_time":1,"stop_id":"170836"}},{"index":4,"name":"Alam Aqueduto (Escrit Planbelas)","id":"170834","lat":"38.806783","lon":"-9.283144","lines":["1224"],"schedule":{"travel_time":1,"stop_id":"170834"}},{"index":5,"name":"Alam Aqueduto","id":"170832","lat":"38.804076","lon":"-9.282483","lines":["1224"],"schedule":{"travel_time":0,"stop_id":"170832"}},{"index":6,"name":"Alam Aqueduto (Portaria Belas CC)","id":"170830","lat":"38.802093","lon":"-9.281775","lines":["1224"],"schedule":{"travel_time":1,"stop_id":"170830"}},{"index":7,"name":"Carregueira (Fte Estabelecimento Prisional)","id":"170052","lat":"38.805196","lon":"-9.287307","lines":["1224"],"schedule":{"travel_time":1,"stop_id":"170052"}},{"index":8,"name":"EN117 (Av General Barnabé António Ferreira)","id":"170056","lat":"38.810305","lon":"-9.290889","lines":["1224"],"schedule":{"travel_time":1,"stop_id":"170056"}},{"index":9,"name":"Av General Barnabé António Ferreira 341","id":"170072","lat":"38.813278","lon":"-9.292526","lines":["1224"],"schedule":{"travel_time":0,"stop_id":"170072"}},{"index":10,"name":"EN117 (X) Vale Lobos","id":"170074","lat":"38.815083","lon":"-9.292110","lines":["1224"],"schedule":{"travel_time":1,"stop_id":"170074"}},{"index":11,"name":"Carregueira (Estabelecimento Prisional)","id":"170827","lat":"38.804820","lon":"-9.287202","lines":["1224"],"schedule":{"travel_time":2,"stop_id":"170827"}},{"index":12,"name":"EN 117 (Entrada Lisbon Sports Club)","id":"170841","lat":"38.800032","lon":"-9.277125","lines":["1224"],"schedule":{"travel_time":1,"stop_id":"170841"}},{"index":13,"name":"EN 117","id":"170843","lat":"38.798473","lon":"-9.270605","lines":["1224"],"schedule":{"travel_time":1,"stop_id":"170843"}},{"index":14,"name":"EN 117 (X) R Carvalhos","id":"170845","lat":"38.796484","lon":"-9.268837","lines":["1224"],"schedule":{"travel_time":0,"stop_id":"170845"}},{"index":15,"name":"EN 117 (Qta Pedra)","id":"170847","lat":"38.787215","lon":"-9.265436","lines":["1224"],"schedule":{"travel_time":2,"stop_id":"170847"}},{"index":16,"name":"Belas (Cemitério)","id":"170849","lat":"38.783545","lon":"-9.264641","lines":["1224"],"schedule":{"travel_time":1,"stop_id":"170849"}},{"index":17,"name":"EN 250 2 (Largo)","id":"170575","lat":"38.775618","lon":"-9.263800","lines":["1211","1212","1224","1228","1230","1512","1716","1718","2605"],"schedule":{"travel_time":1,"stop_id":"170575"}},{"index":18,"name":"Av Marinha Portuguesa (Correios)","id":"170577","lat":"38.775302","lon":"-9.261438","lines":["1211","1212","1224","1228","1230","1512","1716","1718","2605"],"schedule":{"travel_time":0,"stop_id":"170577"}},{"index":19,"name":"R Alexandre Herculano 18","id":"170591","lat":"38.769923","lon":"-9.259952","lines":["1212","1224","1230","1512","1516","1716","1718"],"schedule":{"travel_time":1,"stop_id":"170591"}},{"index":20,"name":"Av Miguel Bombarda 221","id":"170593","lat":"38.766564","lon":"-9.257897","lines":["1212","1224","1230","1512","1516","1716","1718"],"schedule":{"travel_time":1,"stop_id":"170593"}},{"index":21,"name":"Av Mig Bombarda (Pcta M Av Humb Cruz)","id":"170595","lat":"38.763952","lon":"-9.256824","lines":["1212","1224","1226","1513","1515","1716","1718","1720"],"schedule":{"travel_time":0,"stop_id":"170595"}},{"index":22,"name":"Av Miguel Bombarda 91","id":"170597","lat":"38.761872","lon":"-9.256532","lines":["1212","1224","1226","1513","1515","1716","1718","1720"],"schedule":{"travel_time":0,"stop_id":"170597"}},{"index":23,"name":"Queluz - Belas (Estação)","id":"170599","lat":"38.759173","lon":"-9.257452","lines":["1224","1513","1515","1716","1718","1720"],"schedule":{"travel_time":1,"stop_id":"170599"}},{"index":24,"name":"R Timor 2","id":"170924","lat":"38.756650","lon":"-9.262052","lines":["1224","1230","1236","1511","1512","1518","1527","1528","1530","1601","1715","1717","1721"],"schedule":{"travel_time":1,"stop_id":"170924"}},{"index":25,"name":"Monte Abraão (Estação) P8","id":"172478","lat":"38.755731","lon":"-9.265666","lines":["1224","1511","1516","1715"],"schedule":{"travel_time":1,"stop_id":"172478"}}]}