{"color":"#C61D23","headsign":"São Pedro Sintra (Chão Meninos)","id":"1234_0_2","long_name":"São Pedro Sintra (Chão Meninos) - Mira Sintra (Junta Freguesia)","line_id":"1234","shape_id":"432_4X7ZR","path":[{"index":1,"name":"Mira Sintra (Junta Freguesia)","id":"171204","lat":"38.782491","lon":"-9.300884","lines":["1234"],"schedule":{"travel_time":0,"stop_id":"171204"}},{"index":2,"name":"Av 25 Abril (Supermercado)","id":"170475","lat":"38.782480","lon":"-9.302160","lines":["1209","1218","1219","1234","1715"],"schedule":{"travel_time":0,"stop_id":"170475"}},{"index":3,"name":"Av 25 Abril 120","id":"170477","lat":"38.783393","lon":"-9.304884","lines":["1209","1218","1219","1234","1715"],"schedule":{"travel_time":1,"stop_id":"170477"}},{"index":4,"name":"Av 25 Abril (Ringue)","id":"170479","lat":"38.784746","lon":"-9.303894","lines":["1209","1218","1219","1234","1715"],"schedule":{"travel_time":1,"stop_id":"170479"}},{"index":5,"name":"Mira Sintra (Centro)","id":"170481","lat":"38.785817","lon":"-9.304237","lines":["1209","1218","1219","1234","1715"],"schedule":{"travel_time":0,"stop_id":"170481"}},{"index":6,"name":"Av 25 Abril 198","id":"170483","lat":"38.786908","lon":"-9.306212","lines":["1209","1218","1219","1234","1512","1715"],"schedule":{"travel_time":1,"stop_id":"170483"}},{"index":7,"name":"Av 25 Abril (Campo Futebol)","id":"170485","lat":"38.788854","lon":"-9.306761","lines":["1209","1218","1219","1234","1512","1715"],"schedule":{"travel_time":1,"stop_id":"170485"}},{"index":8,"name":"Mira Sintra (Mercado)","id":"170487","lat":"38.788003","lon":"-9.304419","lines":["1209","1218","1219","1234","1512","1715"],"schedule":{"travel_time":0,"stop_id":"170487"}},{"index":9,"name":"Largo da Tala (X) R 25 Abril","id":"171200","lat":"38.794880","lon":"-9.309179","lines":["1234"],"schedule":{"travel_time":3,"stop_id":"171200"}},{"index":10,"name":"Estação Meleças","id":"171197","lat":"38.789703","lon":"-9.311767","lines":["1234","1512"],"schedule":{"travel_time":2,"stop_id":"171197"}},{"index":11,"name":"Estr Princ Tala (X) R Rocha Martins","id":"171196","lat":"38.794579","lon":"-9.312312","lines":["1234","1235","1512"],"schedule":{"travel_time":2,"stop_id":"171196"}},{"index":12,"name":"Av D António Nabais (X) R Boavista","id":"171194","lat":"38.795570","lon":"-9.312985","lines":["1234","1235","1512"],"schedule":{"travel_time":1,"stop_id":"171194"}},{"index":13,"name":"Rua Dr. António Nabais (N112)","id":"171192","lat":"38.797096","lon":"-9.313055","lines":["1234","1235","1512"],"schedule":{"travel_time":0,"stop_id":"171192"}},{"index":14,"name":"EN 250 - 1 (Quiosque)","id":"170373","lat":"38.800697","lon":"-9.313736","lines":["1208","1231","1234","1244"],"schedule":{"travel_time":1,"stop_id":"170373"}},{"index":15,"name":"EN 250 - 1 (X) R Ribeiro das Enguias","id":"170381","lat":"38.802459","lon":"-9.319745","lines":["1208","1231","1234","1244"],"schedule":{"travel_time":1,"stop_id":"170381"}},{"index":16,"name":"EN 250 - 1 - Condom Fonte do Pinhal","id":"170383","lat":"38.803490","lon":"-9.325301","lines":["1208","1231","1234","1244"],"schedule":{"travel_time":2,"stop_id":"170383"}},{"index":17,"name":"EN 250-1 135","id":"170385","lat":"38.804177","lon":"-9.328015","lines":["1208","1231","1234","1244"],"schedule":{"travel_time":0,"stop_id":"170385"}},{"index":18,"name":"Estr Gran Marquês 26","id":"170248","lat":"38.806191","lon":"-9.329587","lines":["1205","1208","1210","1234","1244"],"schedule":{"travel_time":1,"stop_id":"170248"}},{"index":19,"name":"R Arquitecto Cottinelli Telmo 24","id":"170246","lat":"38.806728","lon":"-9.327764","lines":["1205","1210","1234"],"schedule":{"travel_time":1,"stop_id":"170246"}},{"index":20,"name":"R Arquitecto Cottinelli Telmo 44","id":"170244","lat":"38.808378","lon":"-9.325778","lines":["1205","1234"],"schedule":{"travel_time":0,"stop_id":"170244"}},{"index":21,"name":"Estr Acad Força Aérea (Qta Sonhos)","id":"170277","lat":"38.810702","lon":"-9.325036","lines":["1205","1234"],"schedule":{"travel_time":1,"stop_id":"170277"}},{"index":22,"name":"Estr Academia da Força Aérea 8","id":"170240","lat":"38.807693","lon":"-9.329702","lines":["1205","1234"],"schedule":{"travel_time":1,"stop_id":"170240"}},{"index":23,"name":"Estr Granja do Marquês 63","id":"170238","lat":"38.808473","lon":"-9.331466","lines":["1205","1208","1234","1244"],"schedule":{"travel_time":1,"stop_id":"170238"}},{"index":24,"name":"Largo Joaquim Rodrigues 163","id":"170236","lat":"38.807651","lon":"-9.333740","lines":["1205","1208","1234","1244"],"schedule":{"travel_time":1,"stop_id":"170236"}},{"index":25,"name":"Estr Algueirão 151","id":"170234","lat":"38.807040","lon":"-9.334891","lines":["1205","1208","1234","1244"],"schedule":{"travel_time":0,"stop_id":"170234"}},{"index":26,"name":"Estr Sacotes 79","id":"170232","lat":"38.807359","lon":"-9.336945","lines":["1205","1234"],"schedule":{"travel_time":1,"stop_id":"170232"}},{"index":27,"name":"Estr de Sacotes Fte 32","id":"171190","lat":"38.808657","lon":"-9.339572","lines":["1205","1234"],"schedule":{"travel_time":0,"stop_id":"171190"}},{"index":28,"name":"Estr Azeiteira 8","id":"170224","lat":"38.809075","lon":"-9.340487","lines":["1205","1234"],"schedule":{"travel_time":1,"stop_id":"170224"}},{"index":29,"name":"Estr Azeiteira 46","id":"170222","lat":"38.807219","lon":"-9.339928","lines":["1205","1234"],"schedule":{"travel_time":0,"stop_id":"170222"}},{"index":30,"name":"R Leal da Câmara 7","id":"170387","lat":"38.804927","lon":"-9.339692","lines":["1208","1231","1234"],"schedule":{"travel_time":1,"stop_id":"170387"}},{"index":31,"name":"Estr do Algueirão 84N","id":"170286","lat":"38.803430","lon":"-9.340873","lines":["1208","1234"],"schedule":{"travel_time":0,"stop_id":"170286"}},{"index":32,"name":"Estr do Algueirão 81","id":"171188","lat":"38.801831","lon":"-9.341861","lines":["1234"],"schedule":{"travel_time":1,"stop_id":"171188"}},{"index":33,"name":"Estr de Algueirão 55-farmácia","id":"171186","lat":"38.799828","lon":"-9.341091","lines":["1234"],"schedule":{"travel_time":0,"stop_id":"171186"}},{"index":34,"name":"R da Tapada 2","id":"171184","lat":"38.800288","lon":"-9.339925","lines":["1234"],"schedule":{"travel_time":1,"stop_id":"171184"}},{"index":35,"name":"R da Tapada 32 -PSP","id":"171182","lat":"38.798727","lon":"-9.336354","lines":["1234"],"schedule":{"travel_time":1,"stop_id":"171182"}},{"index":36,"name":"Av Vitorino Nemésio 18 (CC)","id":"171180","lat":"38.795596","lon":"-9.337379","lines":["1234"],"schedule":{"travel_time":1,"stop_id":"171180"}},{"index":37,"name":"R Horta de Fanares 8","id":"170093","lat":"38.796007","lon":"-9.339180","lines":["1232","1234","1251","1625","1627","1628","1631"],"schedule":{"travel_time":0,"stop_id":"170093"}},{"index":38,"name":"Algueirão - Mem Martins (Estação) P1","id":"172628","lat":"38.797512","lon":"-9.341345","lines":["1232","1234","1251"],"schedule":{"travel_time":1,"stop_id":"172628"}},{"index":39,"name":"Estr Mem Martins (Centro Saúde)","id":"170099","lat":"38.795236","lon":"-9.343745","lines":["1232","1234","1251","1625","1627","1628","1631"],"schedule":{"travel_time":1,"stop_id":"170099"}},{"index":40,"name":"Estr Mem Martins (X) Pct Gen H Delgado","id":"170101","lat":"38.793533","lon":"-9.344145","lines":["1232","1234","1251","1625","1627","1628","1631"],"schedule":{"travel_time":0,"stop_id":"170101"}},{"index":41,"name":"Estr Mem Martins 201","id":"170103","lat":"38.792360","lon":"-9.344778","lines":["1232","1234","1251","1625","1627","1628","1631"],"schedule":{"travel_time":1,"stop_id":"170103"}},{"index":42,"name":"R do Coudel 6 (Cruzeiro)","id":"171127","lat":"38.790382","lon":"-9.346457","lines":["1232","1234","1614","1625","1627","1628","1631"],"schedule":{"travel_time":0,"stop_id":"171127"}},{"index":43,"name":"R do Coudel 24","id":"171129","lat":"38.788895","lon":"-9.346711","lines":["1232","1234","1614","1625","1627","1628","1631"],"schedule":{"travel_time":1,"stop_id":"171129"}},{"index":44,"name":"R do Coudel 42 (Posto Abast)","id":"171131","lat":"38.787550","lon":"-9.346024","lines":["1232","1234","1614","1625","1627","1628","1631"],"schedule":{"travel_time":0,"stop_id":"171131"}},{"index":45,"name":"R do Coudel 106","id":"171133","lat":"38.784464","lon":"-9.344698","lines":["1232","1234","1614","1625","1627","1628","1631"],"schedule":{"travel_time":1,"stop_id":"171133"}},{"index":46,"name":"Estr de Mem Martins 66","id":"171135","lat":"38.783319","lon":"-9.345842","lines":["1232","1234","1614","1625","1627","1628","1631"],"schedule":{"travel_time":1,"stop_id":"171135"}},{"index":47,"name":"Estr Mem Martins (Supermercado)","id":"170127","lat":"38.782749","lon":"-9.347439","lines":["1223","1232","1234","1251","1614","1625","1627","1628","1631"],"schedule":{"travel_time":0,"stop_id":"170127"}},{"index":48,"name":"Mem Martins (Farmácia)","id":"170129","lat":"38.780471","lon":"-9.349460","lines":["1223","1232","1234","1251","1614","1625","1627","1628","1631"],"schedule":{"travel_time":1,"stop_id":"170129"}},{"index":49,"name":"R Elias Garcia (Hipermercado)","id":"170794","lat":"38.779257","lon":"-9.347568","lines":["1223","1234"],"schedule":{"travel_time":1,"stop_id":"170794"}},{"index":50,"name":"R Elias Garcia 34","id":"170823","lat":"38.778773","lon":"-9.342534","lines":["1223","1234"],"schedule":{"travel_time":1,"stop_id":"170823"}},{"index":51,"name":"Cam Serradinho (Cimo Centro Comercial)","id":"170151","lat":"38.774224","lon":"-9.342538","lines":["1204","1223","1232","1234","1236","1251","1615"],"schedule":{"travel_time":1,"stop_id":"170151"}},{"index":52,"name":"Alto do Forte (Centro Comercial)","id":"170048","lat":"38.775740","lon":"-9.342026","lines":["1223","1232","1234","1251","1615"],"schedule":{"travel_time":1,"stop_id":"170048"}},{"index":53,"name":"Estr Terras da Lagoa (Business Park)","id":"170150","lat":"38.773581","lon":"-9.343905","lines":["1234","1251"],"schedule":{"travel_time":1,"stop_id":"170150"}},{"index":54,"name":"Estr Terras da Lagoa 14","id":"170148","lat":"38.772277","lon":"-9.344407","lines":["1234","1251"],"schedule":{"travel_time":0,"stop_id":"170148"}},{"index":55,"name":"Av Dr Luís Sá Frente Tracevia","id":"170146","lat":"38.771545","lon":"-9.346042","lines":["1234","1251"],"schedule":{"travel_time":0,"stop_id":"170146"}},{"index":56,"name":"Av Dr Luís de Sá 8","id":"170144","lat":"38.771819","lon":"-9.349180","lines":["1234","1251"],"schedule":{"travel_time":1,"stop_id":"170144"}},{"index":57,"name":"Av Dr Luís de Sá 14","id":"170142","lat":"38.771915","lon":"-9.351831","lines":["1234","1251"],"schedule":{"travel_time":1,"stop_id":"170142"}},{"index":58,"name":"Av Mov Forças Armadas 16","id":"171161","lat":"38.773137","lon":"-9.356856","lines":["1234"],"schedule":{"travel_time":1,"stop_id":"171161"}},{"index":59,"name":"R Ferreira de Castro 28","id":"171163","lat":"38.771634","lon":"-9.358193","lines":["1234"],"schedule":{"travel_time":1,"stop_id":"171163"}},{"index":60,"name":"Av Mov Forças Armadas (Esp Juventude)","id":"171165","lat":"38.769273","lon":"-9.359108","lines":["1234"],"schedule":{"travel_time":0,"stop_id":"171165"}},{"index":61,"name":"R Humberto Delgado 16","id":"171167","lat":"38.768345","lon":"-9.360023","lines":["1234"],"schedule":{"travel_time":1,"stop_id":"171167"}},{"index":62,"name":"R da Liberdade 29 A","id":"171169","lat":"38.766323","lon":"-9.358997","lines":["1234"],"schedule":{"travel_time":0,"stop_id":"171169"}},{"index":63,"name":"R do Centro Social 53","id":"171171","lat":"38.765311","lon":"-9.359427","lines":["1234"],"schedule":{"travel_time":1,"stop_id":"171171"}},{"index":64,"name":"R Humberto Delgado 26","id":"171173","lat":"38.768042","lon":"-9.360174","lines":["1234"],"schedule":{"travel_time":1,"stop_id":"171173"}},{"index":65,"name":"R do Forno 33","id":"171175","lat":"38.771148","lon":"-9.357402","lines":["1234"],"schedule":{"travel_time":1,"stop_id":"171175"}},{"index":66,"name":"Av Mov Forças Armadas 16","id":"171162","lat":"38.773146","lon":"-9.356723","lines":["1234"],"schedule":{"travel_time":0,"stop_id":"171162"}},{"index":67,"name":"Av Combatentes (X) Rotunda","id":"170136","lat":"38.775626","lon":"-9.355243","lines":["1234","1251","1614","1625","1627","1628","1631"],"schedule":{"travel_time":1,"stop_id":"170136"}},{"index":68,"name":"Av Combatentes (Hipermercado)","id":"170134","lat":"38.778728","lon":"-9.355350","lines":["1234","1251","1614","1625","1627","1628","1631"],"schedule":{"travel_time":1,"stop_id":"170134"}},{"index":69,"name":"Av Raúl Solnado 23","id":"170132","lat":"38.780533","lon":"-9.352684","lines":["1234","1251","1614","1625","1627","1628","1631"],"schedule":{"travel_time":1,"stop_id":"170132"}},{"index":70,"name":"Av R Solnado (X) Av Amália Rodrigues","id":"170311","lat":"38.780077","lon":"-9.350602","lines":["1234","1251","1614","1625","1627","1628","1631"],"schedule":{"travel_time":1,"stop_id":"170311"}},{"index":71,"name":"R Elias Garcia 42","id":"171160","lat":"38.783797","lon":"-9.368020","lines":["1234"],"schedule":{"travel_time":4,"stop_id":"171160"}},{"index":72,"name":"Estr Chão de Meninos (C Jardinagem)","id":"171205","lat":"38.787883","lon":"-9.373293","lines":["1234","1252","1623","1626","1629","1630"],"schedule":{"travel_time":2,"stop_id":"171205"}},{"index":73,"name":"São Pedro Sintra (Chão Meninos)","id":"171155","lat":"38.791575","lon":"-9.373947","lines":["1234","1252","1253","1623","1626","1629","1630"],"schedule":{"travel_time":1,"stop_id":"171155"}}]}