{"color":"#C61D23","headsign":"Covas Ferro","id":"1235_0_2","long_name":"Covas Ferro - Mercês (Estação Norte)","line_id":"1235","shape_id":"434_4X7ZR","path":[{"index":1,"name":"Mercês (Estação Norte) P2","id":"177322","lat":"38.792994","lon":"-9.329942","lines":["1235"],"schedule":{"travel_time":0,"stop_id":"177322"}},{"index":2,"name":"R Cravos 1","id":"172572","lat":"38.789006","lon":"-9.322938","lines":["1235"],"schedule":{"travel_time":2,"stop_id":"172572"}},{"index":3,"name":"Estr Marquês Pombal Fte 21","id":"172573","lat":"38.788365","lon":"-9.319982","lines":["1235"],"schedule":{"travel_time":0,"stop_id":"172573"}},{"index":4,"name":"Av Robínias 12","id":"172574","lat":"38.789299","lon":"-9.315613","lines":["1235"],"schedule":{"travel_time":1,"stop_id":"172574"}},{"index":5,"name":"Estr Princ Tala (X) R Rocha Martins","id":"171196","lat":"38.794579","lon":"-9.312312","lines":["1234","1235","1512"],"schedule":{"travel_time":2,"stop_id":"171196"}},{"index":6,"name":"Av D António Nabais (X) R Boavista","id":"171194","lat":"38.795570","lon":"-9.312985","lines":["1234","1235","1512"],"schedule":{"travel_time":1,"stop_id":"171194"}},{"index":7,"name":"Rua Dr. António Nabais (N112)","id":"171192","lat":"38.797096","lon":"-9.313055","lines":["1234","1235","1512"],"schedule":{"travel_time":0,"stop_id":"171192"}},{"index":8,"name":"Estr do Telhal 16","id":"170372","lat":"38.800579","lon":"-9.312947","lines":["1208","1231","1235","1244","1512"],"schedule":{"travel_time":1,"stop_id":"170372"}},{"index":9,"name":"Estr do Telhal 37","id":"170370","lat":"38.805180","lon":"-9.308593","lines":["1208","1231","1235","1244","1512"],"schedule":{"travel_time":1,"stop_id":"170370"}},{"index":10,"name":"Estr do Telhal (Casa de Saúde)","id":"170368","lat":"38.807468","lon":"-9.306568","lines":["1208","1231","1235","1244","1512"],"schedule":{"travel_time":1,"stop_id":"170368"}},{"index":11,"name":"Estr do Telhal (Apeadeiro do Telhal)","id":"170366","lat":"38.809343","lon":"-9.303343","lines":["1208","1231","1235","1244","1512"],"schedule":{"travel_time":1,"stop_id":"170366"}},{"index":12,"name":"EN 544 (Casal da Granja)","id":"170364","lat":"38.812485","lon":"-9.298832","lines":["1208","1231","1235","1244","1512"],"schedule":{"travel_time":1,"stop_id":"170364"}},{"index":13,"name":"R General Barnabé Ferreira (X) EN117","id":"170362","lat":"38.815486","lon":"-9.291665","lines":["1208","1235","1244","1512"],"schedule":{"travel_time":1,"stop_id":"170362"}},{"index":14,"name":"R Gen Barnabé António Ferreira 19","id":"170360","lat":"38.817410","lon":"-9.287771","lines":["1208","1235","1244","1512"],"schedule":{"travel_time":1,"stop_id":"170360"}},{"index":15,"name":"Vale Lobos (Largo)","id":"170357","lat":"38.818221","lon":"-9.285364","lines":["1208","1235","1244","1512","1637"],"schedule":{"travel_time":1,"stop_id":"170357"}},{"index":16,"name":"R Hotel Vale Lobos (X) R Vale Tojo","id":"170393","lat":"38.818979","lon":"-9.287397","lines":["1208","1235","1512"],"schedule":{"travel_time":0,"stop_id":"170393"}},{"index":17,"name":"R de Santo António (X) R S João","id":"170395","lat":"38.819494","lon":"-9.286738","lines":["1208","1235","1512"],"schedule":{"travel_time":1,"stop_id":"170395"}},{"index":18,"name":"R Prof Rosa Génio Alves Fte 9","id":"170354","lat":"38.820928","lon":"-9.289718","lines":["1208","1235","1512"],"schedule":{"travel_time":0,"stop_id":"170354"}},{"index":19,"name":"Estr da Serra 14","id":"170352","lat":"38.822660","lon":"-9.292127","lines":["1208","1235"],"schedule":{"travel_time":1,"stop_id":"170352"}},{"index":20,"name":"Estr da Serra (X) Entrada Forno","id":"170350","lat":"38.824399","lon":"-9.288871","lines":["1208","1235"],"schedule":{"travel_time":1,"stop_id":"170350"}},{"index":21,"name":"R Nª Srª da Piedade (Igreja)","id":"170348","lat":"38.824735","lon":"-9.283638","lines":["1208","1235"],"schedule":{"travel_time":1,"stop_id":"170348"}},{"index":22,"name":"Fonte da Aranha","id":"172494","lat":"38.827169","lon":"-9.277724","lines":["1208","1235","1508","1634"],"schedule":{"travel_time":1,"stop_id":"172494"}},{"index":23,"name":"R Fonte da Aranha 4","id":"170344","lat":"38.827920","lon":"-9.277534","lines":["1208","1235","1637"],"schedule":{"travel_time":0,"stop_id":"170344"}},{"index":24,"name":"Estr Principal (X) R J Deus (Mancebas)","id":"170342","lat":"38.829830","lon":"-9.274824","lines":["1208","1235","1508","1634","1637"],"schedule":{"travel_time":1,"stop_id":"170342"}},{"index":25,"name":"Estr Principal 2","id":"170340","lat":"38.831414","lon":"-9.271566","lines":["1208","1235","1508","1634","1637"],"schedule":{"travel_time":1,"stop_id":"170340"}},{"index":26,"name":"Av José Mª Pais (X) Tv José Mª Pais","id":"170338","lat":"38.835180","lon":"-9.268718","lines":["1208","1235","1508","1634"],"schedule":{"travel_time":1,"stop_id":"170338"}},{"index":27,"name":"Av José Maria Pais (Acesso Aviário)","id":"170336","lat":"38.837912","lon":"-9.270806","lines":["1208","1235","1508","1634"],"schedule":{"travel_time":1,"stop_id":"170336"}},{"index":28,"name":"Av José Maria Pais 96 (Casal Vacaria)","id":"170334","lat":"38.839954","lon":"-9.272678","lines":["1208","1235","1508","1634"],"schedule":{"travel_time":0,"stop_id":"170334"}},{"index":29,"name":"Av D Afonso Henriques 31","id":"170332","lat":"38.842016","lon":"-9.273341","lines":["1208","1235","1508","1634"],"schedule":{"travel_time":1,"stop_id":"170332"}},{"index":30,"name":"R da Serra (X) R Amália Rodrigues","id":"170397","lat":"38.844116","lon":"-9.272710","lines":["1208","1235","1508","1634","1635"],"schedule":{"travel_time":0,"stop_id":"170397"}},{"index":31,"name":"R Serra 56","id":"170328","lat":"38.846589","lon":"-9.271159","lines":["1208","1235","1508","1634","1635"],"schedule":{"travel_time":1,"stop_id":"170328"}},{"index":32,"name":"R da Serra (Campo Futebol)","id":"170326","lat":"38.847753","lon":"-9.269100","lines":["1208","1235","1508","1634","1635"],"schedule":{"travel_time":0,"stop_id":"170326"}},{"index":33,"name":"R do Cemitério (Garagem)","id":"170324","lat":"38.848985","lon":"-9.270352","lines":["1208","1235"],"schedule":{"travel_time":1,"stop_id":"170324"}},{"index":34,"name":"Almargem Bispo (Cemitério)","id":"170322","lat":"38.849467","lon":"-9.273311","lines":["1208","1235"],"schedule":{"travel_time":0,"stop_id":"170322"}},{"index":35,"name":"Almargem Bispo (Centro saúde)","id":"171222","lat":"38.851318","lon":"-9.264497","lines":["1235","1508","1634","1635"],"schedule":{"travel_time":3,"stop_id":"171222"}},{"index":36,"name":"Av Gen Humb Delgado (X) Av Joaq Silva","id":"171220","lat":"38.848562","lon":"-9.262329","lines":["1235","1634","1635"],"schedule":{"travel_time":1,"stop_id":"171220"}},{"index":37,"name":"Av Joaquim Silva (X) Rapoula","id":"171218","lat":"38.849038","lon":"-9.260838","lines":["1235","1634","1635"],"schedule":{"travel_time":0,"stop_id":"171218"}},{"index":38,"name":"Av Joaquim Silva (Fonte Pedra)","id":"171216","lat":"38.850284","lon":"-9.258722","lines":["1235","1634","1635"],"schedule":{"travel_time":1,"stop_id":"171216"}},{"index":39,"name":"Albogas (X) Loures","id":"171214","lat":"38.853268","lon":"-9.257732","lines":["1235","1634","1635"],"schedule":{"travel_time":0,"stop_id":"171214"}},{"index":40,"name":"R Asp Rodrigo Feliciano Antunes 63","id":"171212","lat":"38.858180","lon":"-9.258514","lines":["1235","1634","1635","2620","2621","2785"],"schedule":{"travel_time":2,"stop_id":"171212"}},{"index":41,"name":"R a Rodr Felic Antun (X)R Visc Dasseca","id":"171210","lat":"38.861785","lon":"-9.251006","lines":["1235","1634","1635"],"schedule":{"travel_time":1,"stop_id":"171210"}},{"index":42,"name":"Covas de Ferro","id":"172459","lat":"38.862624","lon":"-9.249422","lines":["1235","1635","2620","2621","2785"],"schedule":{"travel_time":1,"stop_id":"172459"}},{"index":43,"name":"R Liga Dos Amigos Das Covas De Ferro 1A","id":"171208","lat":"38.865690","lon":"-9.248780","lines":["1235","1635","2620","2621","2785"],"schedule":{"travel_time":1,"stop_id":"171208"}},{"index":44,"name":"R Liga Dos Amigos Das Covas De Ferro 1A","id":"171207","lat":"38.865179","lon":"-9.250788","lines":["1235","1635","2620","2621","2785"],"schedule":{"travel_time":0,"stop_id":"171207"}}]}