{"color":"#C61D23","headsign":"Negrais (Soc Recreativa)","id":"1240_0_2","long_name":"Negrais (Soc Recreativa) - Portela Sintra (Estação Norte)","line_id":"1240","shape_id":"512_4X7ZR","path":[{"index":1,"name":"Portela de Sintra (Estação) P7 Entrada Norte","id":"170391","lat":"38.802432","lon":"-9.376056","lines":["1240","1255","1633","2626"],"schedule":{"travel_time":0,"stop_id":"170391"}},{"index":2,"name":"Av Desidério Cambournac 15","id":"171314","lat":"38.802443","lon":"-9.380480","lines":["1240","1245","1249","1255","1633","2626"],"schedule":{"travel_time":3,"stop_id":"171314"}},{"index":3,"name":"Av Aviação Portuguesa 21","id":"171315","lat":"38.806406","lon":"-9.379379","lines":["1240","1245","1248","1249","1250","1255","1632","1633","2626"],"schedule":{"travel_time":1,"stop_id":"171315"}},{"index":4,"name":"Av Aviação Portuguesa (Bombeiros)","id":"171310","lat":"38.807867","lon":"-9.377805","lines":["1240","1245","1248","1249","1250","1255","1632","1633","2626"],"schedule":{"travel_time":1,"stop_id":"171310"}},{"index":5,"name":"Av Aviação Portuguesa (Quinta Boyalvo)","id":"171544","lat":"38.809604","lon":"-9.374955","lines":["1240","1245","1248","1249","1250","1255","1632","1633"],"schedule":{"travel_time":0,"stop_id":"171544"}},{"index":6,"name":"Av Aviação Portuguesa 82","id":"171317","lat":"38.811136","lon":"-9.371464","lines":["1240","1245","1249","1255","1632","1633","2626"],"schedule":{"travel_time":1,"stop_id":"171317"}},{"index":7,"name":"Estr Mafra 3","id":"171304","lat":"38.811225","lon":"-9.369037","lines":["1240","1255","2626"],"schedule":{"travel_time":1,"stop_id":"171304"}},{"index":8,"name":"Estr de Mafra 40","id":"171536","lat":"38.812674","lon":"-9.365097","lines":["1240","1255","1632"],"schedule":{"travel_time":1,"stop_id":"171536"}},{"index":9,"name":"Estr de Mafra (Supermercado)","id":"171300","lat":"38.813736","lon":"-9.363850","lines":["1240","1255","1632","2626"],"schedule":{"travel_time":0,"stop_id":"171300"}},{"index":10,"name":"Estr Principal 99","id":"171298","lat":"38.815833","lon":"-9.361789","lines":["1240","1255","2626"],"schedule":{"travel_time":1,"stop_id":"171298"}},{"index":11,"name":"Estr Principal 16","id":"171296","lat":"38.819083","lon":"-9.355896","lines":["1240","1255","2626"],"schedule":{"travel_time":1,"stop_id":"171296"}},{"index":12,"name":"Estr Principal 8","id":"171294","lat":"38.820241","lon":"-9.353585","lines":["1240","1255","2626"],"schedule":{"travel_time":1,"stop_id":"171294"}},{"index":13,"name":"Estr Principal 1","id":"171292","lat":"38.822810","lon":"-9.351432","lines":["1240","1255","2626"],"schedule":{"travel_time":1,"stop_id":"171292"}},{"index":14,"name":"Av Dom António Correia de Sá 4","id":"171290","lat":"38.827480","lon":"-9.357598","lines":["1240"],"schedule":{"travel_time":2,"stop_id":"171290"}},{"index":15,"name":"En 9 Km 176","id":"171288","lat":"38.832575","lon":"-9.356524","lines":["1240","2626"],"schedule":{"travel_time":1,"stop_id":"171288"}},{"index":16,"name":"R Cruz das Moças 11","id":"171286","lat":"38.834673","lon":"-9.356097","lines":["1240"],"schedule":{"travel_time":0,"stop_id":"171286"}},{"index":17,"name":"EN 9 Fte Supermercado","id":"172624","lat":"38.835832","lon":"-9.355850","lines":["1240","1255","2626"],"schedule":{"travel_time":1,"stop_id":"172624"}},{"index":18,"name":"EN 9 123","id":"171284","lat":"38.839143","lon":"-9.354024","lines":["1240","1255","2626"],"schedule":{"travel_time":1,"stop_id":"171284"}},{"index":19,"name":"EN 9 (Cruz Museu do Ar)","id":"171282","lat":"38.841984","lon":"-9.341008","lines":["1240","2626"],"schedule":{"travel_time":3,"stop_id":"171282"}},{"index":20,"name":"Av Aviação Portuguesa 51","id":"171280","lat":"38.844976","lon":"-9.336074","lines":["1240","2626"],"schedule":{"travel_time":1,"stop_id":"171280"}},{"index":21,"name":"Av Aviação Portuguesa 38","id":"171278","lat":"38.847052","lon":"-9.332058","lines":["1240","2626"],"schedule":{"travel_time":1,"stop_id":"171278"}},{"index":22,"name":"Av Aviação Portuguesa 16","id":"171276","lat":"38.848293","lon":"-9.329116","lines":["1240","2626"],"schedule":{"travel_time":1,"stop_id":"171276"}},{"index":23,"name":"Av Liberdade 22","id":"171319","lat":"38.854759","lon":"-9.326264","lines":["1240","1255","1512","2626"],"schedule":{"travel_time":1,"stop_id":"171319"}},{"index":24,"name":"Av 25 Abril (X) R da Eirinha","id":"171270","lat":"38.857971","lon":"-9.326533","lines":["1240","1255","2626"],"schedule":{"travel_time":1,"stop_id":"171270"}},{"index":25,"name":"Largo Montelavar","id":"172101","lat":"38.861012","lon":"-9.331955","lines":["1240","1255"],"schedule":{"travel_time":2,"stop_id":"172101"}},{"index":26,"name":"R Arqto José Luis Monteiro (Escola)","id":"171265","lat":"38.863262","lon":"-9.329079","lines":["1240","1255","1512","1634"],"schedule":{"travel_time":1,"stop_id":"171265"}},{"index":27,"name":"R Maestro Álvaro Sousa 19","id":"171321","lat":"38.864000","lon":"-9.330121","lines":["1240","1255","1634","2626"],"schedule":{"travel_time":0,"stop_id":"171321"}},{"index":28,"name":"Av da Liberdade 169","id":"171323","lat":"38.864496","lon":"-9.327479","lines":["1240","1255","1512","1634"],"schedule":{"travel_time":1,"stop_id":"171323"}},{"index":29,"name":"R das Piçarras 53","id":"171262","lat":"38.865254","lon":"-9.324148","lines":["1240"],"schedule":{"travel_time":1,"stop_id":"171262"}},{"index":30,"name":"R das Piçarras 40","id":"171260","lat":"38.866527","lon":"-9.319702","lines":["1240"],"schedule":{"travel_time":1,"stop_id":"171260"}},{"index":31,"name":"R das Piçarras 6d","id":"171258","lat":"38.866714","lon":"-9.317396","lines":["1240"],"schedule":{"travel_time":1,"stop_id":"171258"}},{"index":32,"name":"R Ant Silva e Castro 1 (Jd Plátanos)","id":"171255","lat":"38.865075","lon":"-9.318066","lines":["1240","1634"],"schedule":{"travel_time":0,"stop_id":"171255"}},{"index":33,"name":"Largo 25 Abril 13","id":"171254","lat":"38.866465","lon":"-9.316143","lines":["1240","1634"],"schedule":{"travel_time":1,"stop_id":"171254"}},{"index":34,"name":"Maceira (Largo)","id":"171252","lat":"38.865987","lon":"-9.314375","lines":["1240","1634"],"schedule":{"travel_time":1,"stop_id":"171252"}},{"index":35,"name":"Estr de Mourăo (X) R dos Moleiros","id":"171250","lat":"38.871344","lon":"-9.311915","lines":["1240"],"schedule":{"travel_time":1,"stop_id":"171250"}},{"index":36,"name":"R Vale da Pipa 26","id":"171248","lat":"38.874589","lon":"-9.309824","lines":["1240"],"schedule":{"travel_time":1,"stop_id":"171248"}},{"index":37,"name":"Lgo de Anços (Chafariz)","id":"171245","lat":"38.877026","lon":"-9.306443","lines":["1240","1634"],"schedule":{"travel_time":1,"stop_id":"171245"}},{"index":38,"name":"Av Roma 98 (Lavadouro pub)","id":"171244","lat":"38.875283","lon":"-9.304446","lines":["1240","1634"],"schedule":{"travel_time":1,"stop_id":"171244"}},{"index":39,"name":"Av Roma 53","id":"171242","lat":"38.871976","lon":"-9.301449","lines":["1240","1634"],"schedule":{"travel_time":1,"stop_id":"171242"}},{"index":40,"name":"R Liga a Pedra Furada (X) Av Lapias","id":"171237","lat":"38.869125","lon":"-9.298088","lines":["1240","1634"],"schedule":{"travel_time":1,"stop_id":"171237"}},{"index":41,"name":"Av de Roma 35","id":"171236","lat":"38.871027","lon":"-9.299690","lines":["1240"],"schedule":{"travel_time":1,"stop_id":"171236"}},{"index":42,"name":"R do Campo da Bola (X) R das Cruzes","id":"171234","lat":"38.873487","lon":"-9.299352","lines":["1240"],"schedule":{"travel_time":0,"stop_id":"171234"}},{"index":43,"name":"R Principal 18","id":"171232","lat":"38.877600","lon":"-9.293820","lines":["1240"],"schedule":{"travel_time":2,"stop_id":"171232"}},{"index":44,"name":"R da Passagem de Nível 57","id":"171230","lat":"38.878115","lon":"-9.291433","lines":["1240"],"schedule":{"travel_time":1,"stop_id":"171230"}},{"index":45,"name":"R Passagem Nível (X) de São João","id":"171228","lat":"38.879611","lon":"-9.287674","lines":["1240"],"schedule":{"travel_time":1,"stop_id":"171228"}},{"index":46,"name":"R da Fonte (X) R das Barruncheiras","id":"171246","lat":"38.878270","lon":"-9.283169","lines":["1240"],"schedule":{"travel_time":1,"stop_id":"171246"}},{"index":47,"name":"Av Gen Barn a Ferr (X) R Fonte Quente","id":"171226","lat":"38.877615","lon":"-9.281043","lines":["1240"],"schedule":{"travel_time":0,"stop_id":"171226"}},{"index":48,"name":"Negrais (Soc Recreativa)","id":"171224","lat":"38.878784","lon":"-9.277402","lines":["1240","1634"],"schedule":{"travel_time":1,"stop_id":"171224"}}]}