{"color":"#C61D23","headsign":"Fontanelas (Largo)","id":"1247_0_2","long_name":"Fontanelas - Portela de Sintra (Estação) via Janas","line_id":"1247","shape_id":"442_4X7ZR","path":[{"index":1,"name":"Portela de Sintra (Estação) P5 Entrada Norte","id":"172483","lat":"38.802421","lon":"-9.376423","lines":["1247","1248","1250"],"schedule":{"travel_time":0,"stop_id":"172483"}},{"index":2,"name":"Av Desidério Cambournac 1","id":"171384","lat":"38.802524","lon":"-9.381061","lines":["1241","1247","1248","1250","1254","1624","1632"],"schedule":{"travel_time":3,"stop_id":"171384"}},{"index":3,"name":"Av Nunes de Carvalho 5","id":"171382","lat":"38.804079","lon":"-9.381790","lines":["1241","1247","1254","1624"],"schedule":{"travel_time":1,"stop_id":"171382"}},{"index":4,"name":"Av Nunes de Carvalho 60","id":"171380","lat":"38.805801","lon":"-9.386461","lines":["1241","1247","1254","1624"],"schedule":{"travel_time":1,"stop_id":"171380"}},{"index":5,"name":"Av N Carvalho 98 (Monte Santos)","id":"171378","lat":"38.805420","lon":"-9.388780","lines":["1241","1247","1254","1624"],"schedule":{"travel_time":1,"stop_id":"171378"}},{"index":6,"name":"R 25 de Abril (Casal do Monte)","id":"171793","lat":"38.807792","lon":"-9.388671","lines":["1247"],"schedule":{"travel_time":0,"stop_id":"171793"}},{"index":7,"name":"R 25 de Abril Frente Monte Ciprestes","id":"171795","lat":"38.809269","lon":"-9.387559","lines":["1247"],"schedule":{"travel_time":1,"stop_id":"171795"}},{"index":8,"name":"R 25 de Abril (Casal da Recosta)","id":"171797","lat":"38.810386","lon":"-9.389341","lines":["1247"],"schedule":{"travel_time":0,"stop_id":"171797"}},{"index":9,"name":"R 25 Abril 31","id":"171799","lat":"38.813824","lon":"-9.390703","lines":["1247"],"schedule":{"travel_time":1,"stop_id":"171799"}},{"index":10,"name":"R Padre Amaro T Azevedo 6","id":"171710","lat":"38.814842","lon":"-9.391579","lines":["1247","1248","1250"],"schedule":{"travel_time":1,"stop_id":"171710"}},{"index":11,"name":"R Padre Amaro Teixeira Azevedo 30","id":"171708","lat":"38.816095","lon":"-9.393524","lines":["1247","1248","1250"],"schedule":{"travel_time":0,"stop_id":"171708"}},{"index":12,"name":"R Gen H Delgado Ft 11 (Sociedade)","id":"171693","lat":"38.816849","lon":"-9.395629","lines":["1247","1248","1250"],"schedule":{"travel_time":1,"stop_id":"171693"}},{"index":13,"name":"R da Corga 32 B (Escola)","id":"171695","lat":"38.818751","lon":"-9.397064","lines":["1247","1248","1250"],"schedule":{"travel_time":1,"stop_id":"171695"}},{"index":14,"name":"R das Chesmas 3","id":"171697","lat":"38.819703","lon":"-9.396141","lines":["1247","1248","1250"],"schedule":{"travel_time":0,"stop_id":"171697"}},{"index":15,"name":"R Gen H Delgado Ft 11 (Sociedade)","id":"171694","lat":"38.816701","lon":"-9.395749","lines":["1247","1248","1250"],"schedule":{"travel_time":1,"stop_id":"171694"}},{"index":16,"name":"Caminho do Murtal (Centro de Saúde)","id":"171747","lat":"38.814389","lon":"-9.398501","lines":["1247","1250"],"schedule":{"travel_time":1,"stop_id":"171747"}},{"index":17,"name":"R Dr Joaquim Fontes Frente N º 16","id":"171801","lat":"38.814993","lon":"-9.395749","lines":["1247"],"schedule":{"travel_time":1,"stop_id":"171801"}},{"index":18,"name":"R Dr Joaquim Fontes (X) R Ferr Castro","id":"171803","lat":"38.811611","lon":"-9.395458","lines":["1247"],"schedule":{"travel_time":1,"stop_id":"171803"}},{"index":19,"name":"R Prof Dr Joaquim Fontes 96 A","id":"171805","lat":"38.809208","lon":"-9.396349","lines":["1247"],"schedule":{"travel_time":1,"stop_id":"171805"}},{"index":20,"name":"R Prof Dr Joaquim Fontes (Chafariz)","id":"171807","lat":"38.807495","lon":"-9.397791","lines":["1247"],"schedule":{"travel_time":1,"stop_id":"171807"}},{"index":21,"name":"Estr de Madre Deus 46","id":"171809","lat":"38.807347","lon":"-9.399914","lines":["1247"],"schedule":{"travel_time":0,"stop_id":"171809"}},{"index":22,"name":"Estr de Madre Deus Frente 55","id":"171811","lat":"38.809071","lon":"-9.401768","lines":["1247"],"schedule":{"travel_time":1,"stop_id":"171811"}},{"index":23,"name":"Estr de Madre Deus x Estr Labruscas","id":"171813","lat":"38.811532","lon":"-9.403674","lines":["1247"],"schedule":{"travel_time":1,"stop_id":"171813"}},{"index":24,"name":"Estr de Madre Deus (X) R Bela Vista","id":"171815","lat":"38.813449","lon":"-9.405485","lines":["1247"],"schedule":{"travel_time":0,"stop_id":"171815"}},{"index":25,"name":"Estr de Madre Deus 158","id":"171817","lat":"38.815795","lon":"-9.405859","lines":["1247"],"schedule":{"travel_time":1,"stop_id":"171817"}},{"index":26,"name":"Estr de Madre Deus 194A","id":"171819","lat":"38.817118","lon":"-9.406500","lines":["1247"],"schedule":{"travel_time":0,"stop_id":"171819"}},{"index":27,"name":"Estr de Madre Deus Frente N º 165","id":"171684","lat":"38.818751","lon":"-9.406780","lines":["1247","1248","1250"],"schedule":{"travel_time":1,"stop_id":"171684"}},{"index":28,"name":"Estr A H Rod Maximiano Café Alegria","id":"172518","lat":"38.821629","lon":"-9.407836","lines":["1247","1248"],"schedule":{"travel_time":1,"stop_id":"172518"}},{"index":29,"name":"Estr Madre Deus (Centro de Jardinagem)","id":"171682","lat":"38.823563","lon":"-9.409005","lines":["1247","1248"],"schedule":{"travel_time":0,"stop_id":"171682"}},{"index":30,"name":"Estr de Madre Deus (X) Estr de Janas","id":"171680","lat":"38.826961","lon":"-9.412087","lines":["1247","1248"],"schedule":{"travel_time":1,"stop_id":"171680"}},{"index":31,"name":"Estr de Janas (Casa Terra do Meio)","id":"171746","lat":"38.825996","lon":"-9.421904","lines":["1247"],"schedule":{"travel_time":2,"stop_id":"171746"}},{"index":32,"name":"Estr de Janas 53","id":"171744","lat":"38.825404","lon":"-9.426504","lines":["1247"],"schedule":{"travel_time":1,"stop_id":"171744"}},{"index":33,"name":"R Noel Cunha Frente 1","id":"171742","lat":"38.826273","lon":"-9.433911","lines":["1247"],"schedule":{"travel_time":2,"stop_id":"171742"}},{"index":34,"name":"R Noel Cunha (X) Lgo Visconde d'Asseca","id":"172650","lat":"38.826347","lon":"-9.437577","lines":["1247"],"schedule":{"travel_time":1,"stop_id":"172650"}},{"index":35,"name":"R do Pinhal (X) R Vinha Juiz","id":"172580","lat":"38.829094","lon":"-9.439754","lines":["1247"],"schedule":{"travel_time":1,"stop_id":"172580"}},{"index":36,"name":"R do Pinhal (X) R do Alecrim","id":"172651","lat":"38.829980","lon":"-9.442410","lines":["1247"],"schedule":{"travel_time":0,"stop_id":"172651"}},{"index":37,"name":"R do Pinhal (X) R Camejo","id":"172582","lat":"38.831981","lon":"-9.449872","lines":["1247"],"schedule":{"travel_time":2,"stop_id":"172582"}},{"index":38,"name":"Av Comissão Melhoramentos 55","id":"172652","lat":"38.833757","lon":"-9.454278","lines":["1247"],"schedule":{"travel_time":1,"stop_id":"172652"}},{"index":39,"name":"Av Comissão Melhoramentos (X) R Hortas","id":"172584","lat":"38.836008","lon":"-9.457985","lines":["1247"],"schedule":{"travel_time":1,"stop_id":"172584"}},{"index":40,"name":"Av Luís Augusto Colares (X) Lgo Chitas","id":"172653","lat":"38.837386","lon":"-9.459772","lines":["1247"],"schedule":{"travel_time":0,"stop_id":"172653"}},{"index":41,"name":"Av Luís Aug Colares 108 (Lg Marcelino)","id":"171447","lat":"38.838616","lon":"-9.461989","lines":["1242","1247","1248","1254"],"schedule":{"travel_time":1,"stop_id":"171447"}},{"index":42,"name":"R Dr Ant Brandão Vasc (Lgo P António)","id":"171446","lat":"38.839998","lon":"-9.460281","lines":["1242","1247","1248","1254"],"schedule":{"travel_time":1,"stop_id":"171446"}},{"index":43,"name":"R Dr Ant Brandão de Vasc Ft N º 31","id":"171491","lat":"38.842116","lon":"-9.460704","lines":["1242","1247","1248","1254"],"schedule":{"travel_time":1,"stop_id":"171491"}},{"index":44,"name":"R Dr Ant Brandão Vasconcelos Km 236","id":"171440","lat":"38.843812","lon":"-9.458958","lines":["1242","1247","1248","1254"],"schedule":{"travel_time":1,"stop_id":"171440"}},{"index":45,"name":"Av N Srª da Esperança (Jardim)","id":"171438","lat":"38.844937","lon":"-9.455825","lines":["1242","1247","1248","1254"],"schedule":{"travel_time":0,"stop_id":"171438"}},{"index":46,"name":"Av Nª Srª Esperança (Cs Muro Pedra)","id":"171436","lat":"38.845314","lon":"-9.454203","lines":["1242","1247","1248","1254"],"schedule":{"travel_time":1,"stop_id":"171436"}},{"index":47,"name":"Av Nª Srª da Esperança 286","id":"171434","lat":"38.846798","lon":"-9.449396","lines":["1242","1247","1248","1254"],"schedule":{"travel_time":1,"stop_id":"171434"}},{"index":48,"name":"Av Nª Srª Esperança 203 (X) Estr Aguda","id":"171432","lat":"38.848659","lon":"-9.445207","lines":["1242","1247","1248","1254"],"schedule":{"travel_time":1,"stop_id":"171432"}},{"index":49,"name":"Av Nª Srª da Esperança 216","id":"171430","lat":"38.849474","lon":"-9.439219","lines":["1242","1247","1248"],"schedule":{"travel_time":1,"stop_id":"171430"}},{"index":50,"name":"Av Nª Srª da Esperança 204","id":"171428","lat":"38.849204","lon":"-9.438594","lines":["1242","1247","1248"],"schedule":{"travel_time":0,"stop_id":"171428"}},{"index":51,"name":"Av Nª Srª da Esperança 174","id":"171493","lat":"38.847413","lon":"-9.437185","lines":["1242","1247","1248"],"schedule":{"travel_time":1,"stop_id":"171493"}},{"index":52,"name":"Fontanelas (Largo)","id":"171726","lat":"38.846991","lon":"-9.436302","lines":["1247"],"schedule":{"travel_time":0,"stop_id":"171726"}}]}