{"color":"#C61D23","headsign":"Fontanelas","id":"1248_1_1","long_name":"Portela de Sintra (Estação Norte) - Fontanelas via Casal da Granja","line_id":"1248","shape_id":"445_4X7ZR","path":[{"index":1,"name":"Portela de Sintra (Estação) P5 Entrada Norte","id":"172483","lat":"38.802421","lon":"-9.376423","lines":["1247","1248","1250"],"schedule":{"travel_time":0,"stop_id":"172483"}},{"index":2,"name":"Av Desidério Cambournac 1","id":"171384","lat":"38.802524","lon":"-9.381061","lines":["1241","1247","1248","1250","1254","1624","1632"],"schedule":{"travel_time":3,"stop_id":"171384"}},{"index":3,"name":"Av Aviação Portuguesa 21","id":"171315","lat":"38.806406","lon":"-9.379379","lines":["1240","1245","1248","1249","1250","1255","1632","1633","2626"],"schedule":{"travel_time":1,"stop_id":"171315"}},{"index":4,"name":"Av Aviação Portuguesa (Bombeiros)","id":"171310","lat":"38.807867","lon":"-9.377805","lines":["1240","1245","1248","1249","1250","1255","1632","1633","2626"],"schedule":{"travel_time":1,"stop_id":"171310"}},{"index":5,"name":"Av Aviação Portuguesa (Quinta Boyalvo)","id":"171544","lat":"38.809604","lon":"-9.374955","lines":["1240","1245","1248","1249","1250","1255","1632","1633"],"schedule":{"travel_time":1,"stop_id":"171544"}},{"index":6,"name":"Av Aviação Portuguesa (Escola)","id":"171305","lat":"38.811529","lon":"-9.371172","lines":["1240","1245","1248","1249","1250","1255","1632","1633","2626"],"schedule":{"travel_time":1,"stop_id":"171305"}},{"index":7,"name":"Estr da Várzea (Qta Desafio Jovem)","id":"171720","lat":"38.814374","lon":"-9.373931","lines":["1248","1250"],"schedule":{"travel_time":1,"stop_id":"171720"}},{"index":8,"name":"Estr da Várzea Ft Casal Santo Amaro","id":"171718","lat":"38.815904","lon":"-9.378140","lines":["1248","1250"],"schedule":{"travel_time":1,"stop_id":"171718"}},{"index":9,"name":"R Agueira 3","id":"171716","lat":"38.814000","lon":"-9.385816","lines":["1248","1250"],"schedule":{"travel_time":2,"stop_id":"171716"}},{"index":10,"name":"R Agueira 53","id":"171714","lat":"38.816318","lon":"-9.386178","lines":["1248","1250"],"schedule":{"travel_time":1,"stop_id":"171714"}},{"index":11,"name":"Largo Egas Moniz 5","id":"171712","lat":"38.815281","lon":"-9.388633","lines":["1248","1250"],"schedule":{"travel_time":0,"stop_id":"171712"}},{"index":12,"name":"R Padre Amaro T Azevedo 6","id":"171710","lat":"38.814842","lon":"-9.391579","lines":["1247","1248","1250"],"schedule":{"travel_time":1,"stop_id":"171710"}},{"index":13,"name":"R Padre Amaro Teixeira Azevedo 30","id":"171708","lat":"38.816095","lon":"-9.393524","lines":["1247","1248","1250"],"schedule":{"travel_time":1,"stop_id":"171708"}},{"index":14,"name":"R Gen H Delgado Ft 11 (Sociedade)","id":"171693","lat":"38.816849","lon":"-9.395629","lines":["1247","1248","1250"],"schedule":{"travel_time":0,"stop_id":"171693"}},{"index":15,"name":"R da Corga 32 B (Escola)","id":"171695","lat":"38.818751","lon":"-9.397064","lines":["1247","1248","1250"],"schedule":{"travel_time":1,"stop_id":"171695"}},{"index":16,"name":"R das Chesmas 3","id":"171697","lat":"38.819703","lon":"-9.396141","lines":["1247","1248","1250"],"schedule":{"travel_time":1,"stop_id":"171697"}},{"index":17,"name":"EN 247 1","id":"171699","lat":"38.822325","lon":"-9.395273","lines":["1248"],"schedule":{"travel_time":0,"stop_id":"171699"}},{"index":18,"name":"R do Lavadouro Velho 100","id":"171706","lat":"38.835325","lon":"-9.398132","lines":["1248"],"schedule":{"travel_time":4,"stop_id":"171706"}},{"index":19,"name":"R dos Moinhos 81","id":"171704","lat":"38.837310","lon":"-9.401401","lines":["1248"],"schedule":{"travel_time":1,"stop_id":"171704"}},{"index":20,"name":"R José Inácio Couto 102","id":"171702","lat":"38.833779","lon":"-9.400108","lines":["1248"],"schedule":{"travel_time":1,"stop_id":"171702"}},{"index":21,"name":"EN 247 1","id":"171700","lat":"38.822339","lon":"-9.395380","lines":["1248"],"schedule":{"travel_time":4,"stop_id":"171700"}},{"index":22,"name":"R Gen H Delgado Ft 11 (Sociedade)","id":"171694","lat":"38.816701","lon":"-9.395749","lines":["1247","1248","1250"],"schedule":{"travel_time":2,"stop_id":"171694"}},{"index":23,"name":"R D António de Sá Frente 21","id":"171692","lat":"38.816889","lon":"-9.396887","lines":["1248","1250"],"schedule":{"travel_time":0,"stop_id":"171692"}},{"index":24,"name":"R Eduardo Frutuoso Gaio (Lg Ponte)","id":"171690","lat":"38.816696","lon":"-9.400158","lines":["1248","1250"],"schedule":{"travel_time":1,"stop_id":"171690"}},{"index":25,"name":"R Eduardo Frutuoso Gaio Ft Lt 25 C","id":"171688","lat":"38.817023","lon":"-9.403311","lines":["1248","1250"],"schedule":{"travel_time":1,"stop_id":"171688"}},{"index":26,"name":"R Eduardo Frut Gaio (Casal S José)","id":"171723","lat":"38.817609","lon":"-9.405798","lines":["1248","1250"],"schedule":{"travel_time":0,"stop_id":"171723"}},{"index":27,"name":"Estr de Madre Deus Frente N º 165","id":"171684","lat":"38.818751","lon":"-9.406780","lines":["1247","1248","1250"],"schedule":{"travel_time":1,"stop_id":"171684"}},{"index":28,"name":"Estr A H Rod Maximiano Café Alegria","id":"172518","lat":"38.821629","lon":"-9.407836","lines":["1247","1248"],"schedule":{"travel_time":0,"stop_id":"172518"}},{"index":29,"name":"Estr Madre Deus (Centro de Jardinagem)","id":"171682","lat":"38.823563","lon":"-9.409005","lines":["1247","1248"],"schedule":{"travel_time":1,"stop_id":"171682"}},{"index":30,"name":"Estr de Madre Deus (X) Estr de Janas","id":"171680","lat":"38.826961","lon":"-9.412087","lines":["1247","1248"],"schedule":{"travel_time":1,"stop_id":"171680"}},{"index":31,"name":"Av N Sr da Esperança (X) R Alto Moita","id":"171413","lat":"38.835228","lon":"-9.419939","lines":["1242","1248"],"schedule":{"travel_time":3,"stop_id":"171413"}},{"index":32,"name":"Av Nª Srª da Esperança 5","id":"171415","lat":"38.838965","lon":"-9.425095","lines":["1242","1248"],"schedule":{"travel_time":1,"stop_id":"171415"}},{"index":33,"name":"Av Nª Srª da Esperança 7 (Capela)","id":"171417","lat":"38.841803","lon":"-9.427825","lines":["1242","1248"],"schedule":{"travel_time":1,"stop_id":"171417"}},{"index":34,"name":"Av Nª Srª da Esperança 48","id":"171419","lat":"38.842849","lon":"-9.428731","lines":["1242","1248"],"schedule":{"travel_time":1,"stop_id":"171419"}},{"index":35,"name":"Av Nª Srª da Esperança (X) Out Vista","id":"171421","lat":"38.844336","lon":"-9.431356","lines":["1242","1248"],"schedule":{"travel_time":0,"stop_id":"171421"}},{"index":36,"name":"Av Nª Srª da Esperança 126","id":"171423","lat":"38.846012","lon":"-9.435463","lines":["1242","1248"],"schedule":{"travel_time":1,"stop_id":"171423"}},{"index":37,"name":"Av N Srª Esperança 182 B (Farmácia)","id":"171425","lat":"38.848022","lon":"-9.437651","lines":["1242","1247","1248"],"schedule":{"travel_time":1,"stop_id":"171425"}},{"index":38,"name":"Av Nª Srª da Esperança 204","id":"171427","lat":"38.849200","lon":"-9.438444","lines":["1242","1247","1248"],"schedule":{"travel_time":1,"stop_id":"171427"}},{"index":39,"name":"Fontanelas","id":"171677","lat":"38.850141","lon":"-9.440104","lines":["1248"],"schedule":{"travel_time":0,"stop_id":"171677"}}]}