{"color":"#C61D23","headsign":"Rio De Mouro (Estação Sul)","id":"1251_2_1","long_name":"Mem Martins (Estação) - Rio De Mouro (Estação Sul)","line_id":"1251","shape_id":"456_4X7ZR","path":[{"index":1,"name":"Algueirão - Mem Martins (Estação) P1","id":"172628","lat":"38.797512","lon":"-9.341345","lines":["1232","1234","1251"],"schedule":{"travel_time":0,"stop_id":"172628"}},{"index":2,"name":"Estr Mem Martins 259","id":"170097","lat":"38.795734","lon":"-9.342531","lines":["1232","1251"],"schedule":{"travel_time":1,"stop_id":"170097"}},{"index":3,"name":"Estr Mem Martins (Centro Saúde)","id":"170099","lat":"38.795236","lon":"-9.343745","lines":["1232","1234","1251","1625","1627","1628","1631"],"schedule":{"travel_time":0,"stop_id":"170099"}},{"index":4,"name":"Estr Mem Martins (X) Pct Gen H Delgado","id":"170101","lat":"38.793533","lon":"-9.344145","lines":["1232","1234","1251","1625","1627","1628","1631"],"schedule":{"travel_time":0,"stop_id":"170101"}},{"index":5,"name":"Estr Mem Martins 201","id":"170103","lat":"38.792360","lon":"-9.344778","lines":["1232","1234","1251","1625","1627","1628","1631"],"schedule":{"travel_time":1,"stop_id":"170103"}},{"index":6,"name":"R das Eiras 8 (Cruzeiro)","id":"170105","lat":"38.790506","lon":"-9.346994","lines":["1251"],"schedule":{"travel_time":0,"stop_id":"170105"}},{"index":7,"name":"R das Eiras frente 15","id":"170107","lat":"38.790008","lon":"-9.348026","lines":["1251"],"schedule":{"travel_time":1,"stop_id":"170107"}},{"index":8,"name":"R Eiras 32 (Parque Infantil)","id":"170109","lat":"38.790426","lon":"-9.350103","lines":["1223","1251"],"schedule":{"travel_time":0,"stop_id":"170109"}},{"index":9,"name":"R das Eiras 59","id":"170111","lat":"38.790563","lon":"-9.352377","lines":["1223","1251"],"schedule":{"travel_time":1,"stop_id":"170111"}},{"index":10,"name":"Av Cândido Oliveira 5","id":"170113","lat":"38.790636","lon":"-9.353896","lines":["1223","1251"],"schedule":{"travel_time":0,"stop_id":"170113"}},{"index":11,"name":"Av Cândido de Oliveira 2","id":"170115","lat":"38.789341","lon":"-9.354891","lines":["1223","1251"],"schedule":{"travel_time":0,"stop_id":"170115"}},{"index":12,"name":"Av François Miterrand 34","id":"170117","lat":"38.786694","lon":"-9.355787","lines":["1223","1251"],"schedule":{"travel_time":1,"stop_id":"170117"}},{"index":13,"name":"Av Paul Harris 2","id":"170119","lat":"38.786260","lon":"-9.353799","lines":["1223","1251"],"schedule":{"travel_time":1,"stop_id":"170119"}},{"index":14,"name":"R Vasco Santana 81","id":"170121","lat":"38.786611","lon":"-9.350106","lines":["1223","1251"],"schedule":{"travel_time":0,"stop_id":"170121"}},{"index":15,"name":"R D Sousa Martins 58","id":"170123","lat":"38.785676","lon":"-9.349188","lines":["1223","1251"],"schedule":{"travel_time":1,"stop_id":"170123"}},{"index":16,"name":"R Leopoldo de Almeida 13","id":"170125","lat":"38.784490","lon":"-9.347950","lines":["1223","1251"],"schedule":{"travel_time":0,"stop_id":"170125"}},{"index":17,"name":"Estr Mem Martins (Supermercado)","id":"170127","lat":"38.782749","lon":"-9.347439","lines":["1223","1232","1234","1251","1614","1625","1627","1628","1631"],"schedule":{"travel_time":1,"stop_id":"170127"}},{"index":18,"name":"Mem Martins (Farmácia)","id":"170129","lat":"38.780471","lon":"-9.349460","lines":["1223","1232","1234","1251","1614","1625","1627","1628","1631"],"schedule":{"travel_time":1,"stop_id":"170129"}},{"index":19,"name":"Av Elias Garcia (Hospital cuf)","id":"170131","lat":"38.780832","lon":"-9.353245","lines":["1232","1234","1251","1614","1625","1627","1628","1631"],"schedule":{"travel_time":0,"stop_id":"170131"}},{"index":20,"name":"Av Combatentes (Hipermercado)","id":"170133","lat":"38.778866","lon":"-9.355613","lines":["1232","1234","1251","1614","1625","1627","1628","1631"],"schedule":{"travel_time":2,"stop_id":"170133"}},{"index":21,"name":"Av Combatentes (Entreposto)","id":"170135","lat":"38.775212","lon":"-9.355744","lines":["1232","1234","1251","1614","1625","1627","1628","1631"],"schedule":{"travel_time":1,"stop_id":"170135"}},{"index":22,"name":"Av Combatentes (X) António Vieira","id":"170137","lat":"38.773407","lon":"-9.356085","lines":["1232","1251","1614","1625","1627","1628","1631"],"schedule":{"travel_time":0,"stop_id":"170137"}},{"index":23,"name":"Av Combatentes (Bombas)","id":"170139","lat":"38.772485","lon":"-9.354692","lines":["1232","1234","1251","1614","1625","1627","1628","1631"],"schedule":{"travel_time":0,"stop_id":"170139"}},{"index":24,"name":"Av Dr Luís de Sá 14","id":"170141","lat":"38.771830","lon":"-9.351845","lines":["1232","1234","1251"],"schedule":{"travel_time":1,"stop_id":"170141"}},{"index":25,"name":"Av Dr Luís de Sá (Parque Monserrate)","id":"170143","lat":"38.771712","lon":"-9.349090","lines":["1232","1234","1251"],"schedule":{"travel_time":1,"stop_id":"170143"}},{"index":26,"name":"Av Dr Luís Sá (Posto Abast)","id":"170145","lat":"38.771452","lon":"-9.346068","lines":["1232","1234","1251"],"schedule":{"travel_time":0,"stop_id":"170145"}},{"index":27,"name":"Estr Terras da Lagoa (Stand)","id":"170147","lat":"38.772071","lon":"-9.344368","lines":["1232","1234","1251"],"schedule":{"travel_time":1,"stop_id":"170147"}},{"index":28,"name":"Estr Terras da Lagoa (Business Park)","id":"170149","lat":"38.773777","lon":"-9.343637","lines":["1232","1234","1251"],"schedule":{"travel_time":0,"stop_id":"170149"}},{"index":29,"name":"Cam Serradinho (Cimo Centro Comercial)","id":"170151","lat":"38.774224","lon":"-9.342538","lines":["1204","1223","1232","1234","1236","1251","1615"],"schedule":{"travel_time":1,"stop_id":"170151"}},{"index":30,"name":"Alto do Forte (Centro Comercial)","id":"170048","lat":"38.775740","lon":"-9.342026","lines":["1223","1232","1234","1251","1615"],"schedule":{"travel_time":0,"stop_id":"170048"}},{"index":31,"name":"Estr Terras Lagoa (Centro Comercial)","id":"170049","lat":"38.774883","lon":"-9.343144","lines":["1204","1223","1232","1234","1236","1251","1615"],"schedule":{"travel_time":1,"stop_id":"170049"}},{"index":32,"name":"Estr Terras da Lagoa (Rotunda)","id":"170051","lat":"38.778259","lon":"-9.342161","lines":["1204","1223","1232","1234","1236","1251","1615"],"schedule":{"travel_time":1,"stop_id":"170051"}},{"index":33,"name":"EN 249 Km13 5","id":"170053","lat":"38.778262","lon":"-9.339355","lines":["1204","1223","1236","1251","1615"],"schedule":{"travel_time":0,"stop_id":"170053"}},{"index":34,"name":"R Elias Garcia (Zona Comercial)","id":"170055","lat":"38.776975","lon":"-9.335048","lines":["1204","1223","1236","1251","1615"],"schedule":{"travel_time":1,"stop_id":"170055"}},{"index":35,"name":"R Maj Gen Machado de Sousa 28","id":"170153","lat":"38.781918","lon":"-9.336623","lines":["1223","1251","1615"],"schedule":{"travel_time":2,"stop_id":"170153"}},{"index":36,"name":"Mem Martins (Escola Secundária)","id":"170155","lat":"38.783693","lon":"-9.337116","lines":["1205","1210","1232","1251","1625"],"schedule":{"travel_time":1,"stop_id":"170155"}},{"index":37,"name":"Azinhaga Caneiras (X) R Dr Osório Vaz","id":"170157","lat":"38.788272","lon":"-9.336026","lines":["1205","1210","1232","1251","1625"],"schedule":{"travel_time":1,"stop_id":"170157"}},{"index":38,"name":"R D Carlos Gomes","id":"170159","lat":"38.788065","lon":"-9.334856","lines":["1205","1210","1232","1251","1625"],"schedule":{"travel_time":0,"stop_id":"170159"}},{"index":39,"name":"Av João de Deus (Escola Primária)","id":"170086","lat":"38.786948","lon":"-9.332934","lines":["1205","1210","1232","1251","1625","1627","1628","1631"],"schedule":{"travel_time":1,"stop_id":"170086"}},{"index":40,"name":"Av João de Deus 58","id":"170084","lat":"38.785057","lon":"-9.333005","lines":["1205","1210","1232","1251","1625","1627","1628","1631"],"schedule":{"travel_time":0,"stop_id":"170084"}},{"index":41,"name":"Av João de Deus 78","id":"170082","lat":"38.783683","lon":"-9.332555","lines":["1205","1210","1232","1251","1625","1627","1628","1631"],"schedule":{"travel_time":1,"stop_id":"170082"}},{"index":42,"name":"Av João de Deus 104 (Lg Alves Redol)","id":"170080","lat":"38.782111","lon":"-9.331263","lines":["1205","1210","1232","1251","1615","1625","1627","1628","1631"],"schedule":{"travel_time":0,"stop_id":"170080"}},{"index":43,"name":"Av Maria Lamas 5 (Farmácia)","id":"170061","lat":"38.783771","lon":"-9.330154","lines":["1205","1210","1223","1232","1251","1625","1627","1628","1631"],"schedule":{"travel_time":1,"stop_id":"170061"}},{"index":44,"name":"Av Maria Lamas 48","id":"170063","lat":"38.786038","lon":"-9.329946","lines":["1205","1210","1223","1232","1251","1615","1625","1627","1628","1631"],"schedule":{"travel_time":0,"stop_id":"170063"}},{"index":45,"name":"R da Ponte","id":"170065","lat":"38.786801","lon":"-9.328678","lines":["1223","1232","1251","1615","1625","1627","1628","1631"],"schedule":{"travel_time":1,"stop_id":"170065"}},{"index":46,"name":"Av D João II 45","id":"170067","lat":"38.784410","lon":"-9.326308","lines":["1223","1232","1251","1615","1625","1627","1628","1631"],"schedule":{"travel_time":1,"stop_id":"170067"}},{"index":47,"name":"Av D João II 3","id":"170069","lat":"38.781571","lon":"-9.324488","lines":["1223","1232","1251","1615","1625","1627","1628","1631"],"schedule":{"travel_time":1,"stop_id":"170069"}},{"index":48,"name":"Av Gago Coutinho 54","id":"170071","lat":"38.782223","lon":"-9.323319","lines":["1232","1251","1615","1625","1627","1628","1631"],"schedule":{"travel_time":0,"stop_id":"170071"}},{"index":49,"name":"Rio de Mouro (Estação Sul)","id":"172601","lat":"38.783821","lon":"-9.321914","lines":["1251"],"schedule":{"travel_time":1,"stop_id":"172601"}}]}