{"color":"#C61D23","headsign":"Amadora (Estação Sul)","id":"1502_0_1","long_name":"Algés (Estação) - Amadora (Estação Sul) via Linda-a-Velha","line_id":"1502","shape_id":"34_4X7ZR","path":[{"index":1,"name":"Algés (Estação) P9","id":"121061","lat":"38.699084","lon":"-9.227571","lines":["1502"],"schedule":{"travel_time":0,"stop_id":"121061"}},{"index":2,"name":"R João Chagas - Biblioteca Mun Algés","id":"120263","lat":"38.699776","lon":"-9.231540","lines":["1103","1107","1502"],"schedule":{"travel_time":1,"stop_id":"120263"}},{"index":3,"name":"Av Republica 34","id":"120203","lat":"38.701971","lon":"-9.231911","lines":["1114","1502"],"schedule":{"travel_time":0,"stop_id":"120203"}},{"index":4,"name":"Av Republica 96","id":"120209","lat":"38.704275","lon":"-9.230392","lines":["1114","1502"],"schedule":{"travel_time":1,"stop_id":"120209"}},{"index":5,"name":"Algés Cima","id":"121045","lat":"38.705796","lon":"-9.230161","lines":["1502"],"schedule":{"travel_time":0,"stop_id":"121045"}},{"index":6,"name":"R Victor Duarte Pedroso 26","id":"121047","lat":"38.708025","lon":"-9.230226","lines":["1502"],"schedule":{"travel_time":1,"stop_id":"121047"}},{"index":7,"name":"R Victor Duarte Pedroso - B Húngaros","id":"121049","lat":"38.708986","lon":"-9.233564","lines":["1502"],"schedule":{"travel_time":1,"stop_id":"121049"}},{"index":8,"name":"R Eng J F Ulrich(x)r D Dom Fernandes","id":"121051","lat":"38.710835","lon":"-9.238599","lines":["1502","1724","1728","1730"],"schedule":{"travel_time":1,"stop_id":"121051"}},{"index":9,"name":"R Pedro Alvares Cabral (Esc Primária)","id":"120160","lat":"38.710744","lon":"-9.240563","lines":["1502","1724","1728","1730"],"schedule":{"travel_time":1,"stop_id":"120160"}},{"index":10,"name":"Linda-a-Velha (Palácio Aciprestes)","id":"120158","lat":"38.711082","lon":"-9.242971","lines":["1502"],"schedule":{"travel_time":1,"stop_id":"120158"}},{"index":11,"name":"Av 25 de Abril Fte 22","id":"120249","lat":"38.714632","lon":"-9.242100","lines":["1103","1107","1502","1528","1724","1728","1730"],"schedule":{"travel_time":1,"stop_id":"120249"}},{"index":12,"name":"Av 25 de Abril - Central Park","id":"120173","lat":"38.716695","lon":"-9.238147","lines":["1103","1107","1502","1528","1724","1728","1730"],"schedule":{"travel_time":1,"stop_id":"120173"}},{"index":13,"name":"Av Forte (Proteção Civil)","id":"120275","lat":"38.719983","lon":"-9.234703","lines":["1103","1105","1107","1502","1503","1520","1522","1723","1728","1730","1731"],"schedule":{"travel_time":1,"stop_id":"120275"}},{"index":14,"name":"Av Forte (Posto Combust)","id":"120033","lat":"38.724253","lon":"-9.234694","lines":["1101","1103","1105","1107","1502","1503","1504","1520","1522","1722","1723","1726","1728","1730","1731"],"schedule":{"travel_time":1,"stop_id":"120033"}},{"index":15,"name":"Av Prof Rein Santos (Edif S Paulo)","id":"120035","lat":"38.725609","lon":"-9.234424","lines":["1101","1103","1105","1107","1109","1110","1502","1503","1504","1522","1605","1606","1722","1723","1726","1728","1730"],"schedule":{"travel_time":0,"stop_id":"120035"}},{"index":16,"name":"Av Prof Reinaldo Santos (Hosp Sta Cruz)","id":"120037","lat":"38.727377","lon":"-9.234218","lines":["1101","1103","1105","1107","1109","1110","1502","1503","1504","1522","1605","1606","1722","1723","1726","1728","1730"],"schedule":{"travel_time":1,"stop_id":"120037"}},{"index":17,"name":"R Manuel Teixeira Gomes (Bombeiros)","id":"120039","lat":"38.728748","lon":"-9.236794","lines":["1101","1103","1105","1107","1109","1110","1502","1503","1504","1522","1605","1606","1722","1723","1726","1728","1730"],"schedule":{"travel_time":0,"stop_id":"120039"}},{"index":18,"name":"R Manuel Teixeira Gomes 23A","id":"120473","lat":"38.728194","lon":"-9.238484","lines":["1101","1103","1105","1107","1109","1110","1502","1503","1504","1522","1605","1606","1722","1723","1726","1728","1730"],"schedule":{"travel_time":1,"stop_id":"120473"}},{"index":19,"name":"R Manuel Teixeira Gomes 11","id":"120101","lat":"38.726940","lon":"-9.239777","lines":["1101","1103","1105","1107","1109","1502","1503","1504","1522","1722","1723","1726","1728","1730"],"schedule":{"travel_time":0,"stop_id":"120101"}},{"index":20,"name":"Av Portugal 44","id":"120277","lat":"38.726178","lon":"-9.243488","lines":["1103","1107","1502"],"schedule":{"travel_time":1,"stop_id":"120277"}},{"index":21,"name":"Av Portugal (X) R B Ferreira Torrão","id":"120423","lat":"38.728138","lon":"-9.246614","lines":["1502","1507"],"schedule":{"travel_time":1,"stop_id":"120423"}},{"index":22,"name":"Rua Mina Grande 7","id":"121298","lat":"38.730861","lon":"-9.239198","lines":["1502","1507"],"schedule":{"travel_time":3,"stop_id":"121298"}},{"index":23,"name":"Estr Casal Canas (Vila Utopia)","id":"121301","lat":"38.733220","lon":"-9.237376","lines":["1502","1507"],"schedule":{"travel_time":1,"stop_id":"121301"}},{"index":24,"name":"Estr de Alfragide (Cimpor)","id":"121041","lat":"38.734831","lon":"-9.232549","lines":["1501","1502","1507","1712"],"schedule":{"travel_time":1,"stop_id":"121041"}},{"index":25,"name":"Estr Alfragide 17","id":"121043","lat":"38.734490","lon":"-9.227391","lines":["1501","1502","1507","1712"],"schedule":{"travel_time":1,"stop_id":"121043"}},{"index":26,"name":"Estr Seminário (Seminário)","id":"030519","lat":"38.732844","lon":"-9.222297","lines":["1502","1507","1712"],"schedule":{"travel_time":2,"stop_id":"030519"}},{"index":27,"name":"Estr Seminário (Hosp Veterinário)","id":"030002","lat":"38.734339","lon":"-9.220418","lines":["1501","1502","1507","1712"],"schedule":{"travel_time":0,"stop_id":"030002"}},{"index":28,"name":"Estr Alfragide 82","id":"030521","lat":"38.734906","lon":"-9.221186","lines":["1501","1502","1704","1713"],"schedule":{"travel_time":1,"stop_id":"030521"}},{"index":29,"name":"Estr Alfragide (Confecções)","id":"030523","lat":"38.734769","lon":"-9.223127","lines":["1501","1502"],"schedule":{"travel_time":0,"stop_id":"030523"}},{"index":30,"name":"Estr Afragide (Colégio)","id":"030881","lat":"38.734663","lon":"-9.224527","lines":["1501","1502"],"schedule":{"travel_time":0,"stop_id":"030881"}},{"index":31,"name":"Av José Gomes Ferreira 13","id":"030533","lat":"38.737861","lon":"-9.228173","lines":["1002","1502","1714","1715","1716"],"schedule":{"travel_time":2,"stop_id":"030533"}},{"index":32,"name":"EN 117 (Supermercado)","id":"030516","lat":"38.741492","lon":"-9.230617","lines":["1002","1502","1714","1715","1716"],"schedule":{"travel_time":1,"stop_id":"030516"}},{"index":33,"name":"Av D José I (Análises Clínicas)","id":"030445","lat":"38.749288","lon":"-9.233006","lines":["1013","1014","1502","1506","1514","1704","1712","1714","1716"],"schedule":{"travel_time":2,"stop_id":"030445"}},{"index":34,"name":"Av Pangim 4","id":"030535","lat":"38.750770","lon":"-9.230909","lines":["1502","1514","1714","1716"],"schedule":{"travel_time":1,"stop_id":"030535"}},{"index":35,"name":"R Moínho Velho 3E","id":"030537","lat":"38.753305","lon":"-9.232151","lines":["1502","1514","1714","1716","1718"],"schedule":{"travel_time":0,"stop_id":"030537"}},{"index":36,"name":"Av Aviação Portuguesa 18","id":"030539","lat":"38.755832","lon":"-9.233483","lines":["1002","1502","1514","1714","1716","1718"],"schedule":{"travel_time":1,"stop_id":"030539"}},{"index":37,"name":"Amadora (Estação) P5 Entrada Sul","id":"030845","lat":"38.758146","lon":"-9.234963","lines":["1502"],"schedule":{"travel_time":1,"stop_id":"030845"}}]}