{"color":"#C61D23","headsign":"Caxias (Estação)","id":"1507_0_2","long_name":"Caxias (Estação) - Reboleira (Metro)","line_id":"1507","shape_id":"39_4X7ZR","path":[{"index":1,"name":"Reboleira (Metro) P1","id":"030408","lat":"38.751919","lon":"-9.224524","lines":["1011","1507","2601"],"schedule":{"travel_time":0,"stop_id":"030408"}},{"index":2,"name":"R Indústrias (Fte Iefp)","id":"030406","lat":"38.750937","lon":"-9.219961","lines":["1011","1507","2601"],"schedule":{"travel_time":1,"stop_id":"030406"}},{"index":3,"name":"R Das Fontainhas (ED Areeiro)","id":"030285","lat":"38.750832","lon":"-9.217038","lines":["1008","1011","1507","2601"],"schedule":{"travel_time":1,"stop_id":"030285"}},{"index":4,"name":"Av D Pedro V 3","id":"030585","lat":"38.748082","lon":"-9.215356","lines":["1507"],"schedule":{"travel_time":1,"stop_id":"030585"}},{"index":5,"name":"Praça Águas Livres 2A","id":"030049","lat":"38.746875","lon":"-9.216116","lines":["1001","1015","1501","1507","1510","1704","1713","1718"],"schedule":{"travel_time":0,"stop_id":"030049"}},{"index":6,"name":"Av República 15B","id":"030040","lat":"38.745973","lon":"-9.212380","lines":["1001","1507","1704","1718"],"schedule":{"travel_time":1,"stop_id":"030040"}},{"index":7,"name":"Buraca (X) Cova Moura","id":"030051","lat":"38.743964","lon":"-9.211074","lines":["1001","1507","1704","1718"],"schedule":{"travel_time":1,"stop_id":"030051"}},{"index":8,"name":"Buraca (X) Cova Moura","id":"030052","lat":"38.744051","lon":"-9.210842","lines":["1001","1507","1704","1718"],"schedule":{"travel_time":1,"stop_id":"030052"}},{"index":9,"name":"R Trindade Coelho 19","id":"030038","lat":"38.744177","lon":"-9.210299","lines":["1001","1507","1704"],"schedule":{"travel_time":0,"stop_id":"030038"}},{"index":10,"name":"R Trindade Coelho (X) Pcta Conde Arnoso","id":"030053","lat":"38.744248","lon":"-9.208001","lines":["1001","1507","1704"],"schedule":{"travel_time":0,"stop_id":"030053"}},{"index":11,"name":"Estr Alfragide (CTT)","id":"030055","lat":"38.742752","lon":"-9.205946","lines":["1001","1507","1704"],"schedule":{"travel_time":1,"stop_id":"030055"}},{"index":12,"name":"R Luís Vaz de Camões (Centro Saúde)","id":"030032","lat":"38.740877","lon":"-9.208868","lines":["1001","1507","1704"],"schedule":{"travel_time":1,"stop_id":"030032"}},{"index":13,"name":"R 5 Outubro 18","id":"030030","lat":"38.742366","lon":"-9.211530","lines":["1001","1507","1704"],"schedule":{"travel_time":1,"stop_id":"030030"}},{"index":14,"name":"Av Republica (Pav Desportivo)","id":"030028","lat":"38.742386","lon":"-9.212775","lines":["1001","1507","1704","1718"],"schedule":{"travel_time":0,"stop_id":"030028"}},{"index":15,"name":"Alfragide (F Aérea)","id":"030026","lat":"38.738276","lon":"-9.214130","lines":["1001","1002","1507","1718"],"schedule":{"travel_time":2,"stop_id":"030026"}},{"index":16,"name":"Av Leite Vasconcelos 2A","id":"030587","lat":"38.737225","lon":"-9.216326","lines":["1507","1704"],"schedule":{"travel_time":1,"stop_id":"030587"}},{"index":17,"name":"Av Alm Garrett (X) Pct Raúl Brandão","id":"030580","lat":"38.738351","lon":"-9.217711","lines":["1507","1704"],"schedule":{"travel_time":0,"stop_id":"030580"}},{"index":18,"name":"Av Conde São Marçal 3","id":"030578","lat":"38.735504","lon":"-9.218941","lines":["1507","1704"],"schedule":{"travel_time":1,"stop_id":"030578"}},{"index":19,"name":"Alfragide (Hosp Veterinário)","id":"030001","lat":"38.734441","lon":"-9.220576","lines":["1001","1002","1506","1507","1712"],"schedule":{"travel_time":1,"stop_id":"030001"}},{"index":20,"name":"Estr do Seminário (Alfrapark)","id":"030571","lat":"38.732882","lon":"-9.222508","lines":["1506","1507","1712"],"schedule":{"travel_time":0,"stop_id":"030571"}},{"index":21,"name":"EN 6-2 2","id":"121053","lat":"38.734475","lon":"-9.226847","lines":["1502","1506","1507","1712"],"schedule":{"travel_time":1,"stop_id":"121053"}},{"index":22,"name":"R Carlos Pinto Coelho 55","id":"030547","lat":"38.736037","lon":"-9.230985","lines":["1502","1506","1507","1712"],"schedule":{"travel_time":1,"stop_id":"030547"}},{"index":23,"name":"Av Marconi (X) Estr Casal Canas","id":"121055","lat":"38.734531","lon":"-9.234618","lines":["1502","1507"],"schedule":{"travel_time":2,"stop_id":"121055"}},{"index":24,"name":"Estr Casal Canas (Fte Vila Utopia)","id":"121280","lat":"38.733271","lon":"-9.237678","lines":["1502","1507"],"schedule":{"travel_time":1,"stop_id":"121280"}},{"index":25,"name":"R Mina Grande","id":"121281","lat":"38.731385","lon":"-9.239250","lines":["1502","1507"],"schedule":{"travel_time":0,"stop_id":"121281"}},{"index":26,"name":"Av Portugal (X) R B Ferreira Torrão","id":"120424","lat":"38.728041","lon":"-9.246528","lines":["1502","1507"],"schedule":{"travel_time":4,"stop_id":"120424"}},{"index":27,"name":"Carnaxide (Av Portugal)","id":"120361","lat":"38.726557","lon":"-9.244423","lines":["1105","1507","1522","1605","1606","1726","1728","1730"],"schedule":{"travel_time":0,"stop_id":"120361"}},{"index":28,"name":"R 5 Outubro 13 (Lgo Pátria Nova)","id":"120279","lat":"38.725387","lon":"-9.246036","lines":["1103","1105","1107","1109","1110","1507","1520","1522","1527","1528","1605","1606","1726","1728","1730","1731"],"schedule":{"travel_time":1,"stop_id":"120279"}},{"index":29,"name":"R 5 Outubro 2","id":"120281","lat":"38.725095","lon":"-9.249104","lines":["1103","1105","1107","1109","1110","1507","1520","1522","1527","1528","1605","1606","1726","1728","1730","1731"],"schedule":{"travel_time":1,"stop_id":"120281"}},{"index":30,"name":"Carnaxide (C Branca)","id":"120431","lat":"38.723774","lon":"-9.247636","lines":["1110","1507","1520","1527","1528","1605","1606","1731"],"schedule":{"travel_time":1,"stop_id":"120431"}},{"index":31,"name":"Av Tomás Ribeiro 81","id":"120283","lat":"38.723219","lon":"-9.248406","lines":["1103","1107","1110","1507","1520","1527","1528","1605","1606","1726","1728","1730","1731"],"schedule":{"travel_time":0,"stop_id":"120283"}},{"index":32,"name":"Av Tomás Ribeiro (X) Sant N Sra Rocha","id":"120285","lat":"38.720735","lon":"-9.250854","lines":["1103","1107","1110","1507","1520","1527","1528","1605","1606","1726","1728","1730","1731"],"schedule":{"travel_time":1,"stop_id":"120285"}},{"index":33,"name":"Av Tomás Ribeiro 82","id":"120287","lat":"38.717509","lon":"-9.252359","lines":["1103","1107","1110","1507","1520","1527","1528","1605","1606","1726","1728","1730","1731"],"schedule":{"travel_time":1,"stop_id":"120287"}},{"index":34,"name":"Av Tomás Ribeiro (X) Tv Godinho","id":"120289","lat":"38.715998","lon":"-9.254038","lines":["1103","1107","1110","1507","1520","1527","1528","1605","1606","1726","1728","1730","1731"],"schedule":{"travel_time":1,"stop_id":"120289"}},{"index":35,"name":"Av Tomás Ribeiro (X) Visconde m rey","id":"120291","lat":"38.714789","lon":"-9.256263","lines":["1103","1107","1507","1520","1527","1528","1605","1606","1726","1728","1730","1731"],"schedule":{"travel_time":0,"stop_id":"120291"}},{"index":36,"name":"Av Tomás Ribeiro (Rot Queijas)","id":"120293","lat":"38.715626","lon":"-9.262791","lines":["1103","1107","1111","1507","1520","1527","1528","1726","1728","1730","1731"],"schedule":{"travel_time":2,"stop_id":"120293"}},{"index":37,"name":"R João XXI 10","id":"120295","lat":"38.717597","lon":"-9.263256","lines":["1103","1106","1107","1111","1507","1520","1527","1528","1726","1728","1729","1730","1731","1733"],"schedule":{"travel_time":0,"stop_id":"120295"}},{"index":38,"name":"R João XXI (Igreja)","id":"120297","lat":"38.719079","lon":"-9.263025","lines":["1103","1106","1107","1111","1507","1520","1527","1528","1726","1728","1729","1730","1731","1733"],"schedule":{"travel_time":1,"stop_id":"120297"}},{"index":39,"name":"R Mouzinho Silveira 25","id":"120299","lat":"38.722013","lon":"-9.263508","lines":["1103","1106","1107","1507","1527","1726","1728","1729","1730","1733"],"schedule":{"travel_time":1,"stop_id":"120299"}},{"index":40,"name":"R Mouzinho Silveira (X) Açores","id":"120543","lat":"38.723493","lon":"-9.263602","lines":["1103","1106","1107","1111","1507","1527","1726","1728","1729","1730","1733"],"schedule":{"travel_time":0,"stop_id":"120543"}},{"index":41,"name":"R Açores 32","id":"120303","lat":"38.723270","lon":"-9.266329","lines":["1103","1106","1107","1110","1111","1507","1527","1726","1728","1729","1730","1733"],"schedule":{"travel_time":1,"stop_id":"120303"}},{"index":42,"name":"R Angra Heroísmo (Escadinhas)","id":"120305","lat":"38.721763","lon":"-9.266498","lines":["1103","1106","1107","1110","1111","1507","1520","1527","1528","1726","1728","1729","1730","1731","1733"],"schedule":{"travel_time":0,"stop_id":"120305"}},{"index":43,"name":"R Qta Bonfim (X) R Marquez Sá Bandeira","id":"120307","lat":"38.720458","lon":"-9.265822","lines":["1103","1106","1107","1110","1111","1507","1520","1527","1528","1726","1728","1729","1730","1731","1733"],"schedule":{"travel_time":1,"stop_id":"120307"}},{"index":44,"name":"Queijas (PSP)","id":"120309","lat":"38.720514","lon":"-9.263724","lines":["1103","1106","1107","1110","1111","1507","1520","1527","1528","1726","1728","1729","1730","1731","1733"],"schedule":{"travel_time":0,"stop_id":"120309"}},{"index":45,"name":"R João XXI (Igreja)","id":"120313","lat":"38.718816","lon":"-9.263157","lines":["1103","1106","1107","1110","1111","1507","1520","1527","1528","1726","1728","1729","1730","1731","1733"],"schedule":{"travel_time":1,"stop_id":"120313"}},{"index":46,"name":"R João XXI 1","id":"120296","lat":"38.717532","lon":"-9.263398","lines":["1103","1106","1107","1110","1111","1507","1520","1527","1528","1726","1728","1729","1730","1731","1733"],"schedule":{"travel_time":0,"stop_id":"120296"}},{"index":47,"name":"R das Tilias X R das Magnólias","id":"121075","lat":"38.709793","lon":"-9.266945","lines":["1507","1606","1725"],"schedule":{"travel_time":3,"stop_id":"121075"}},{"index":48,"name":"R Tilias (X) Alam Sabugueiros","id":"120602","lat":"38.711009","lon":"-9.268668","lines":["1507","1606","1725"],"schedule":{"travel_time":1,"stop_id":"120602"}},{"index":49,"name":"Av J Freitas Branco (X) R Artur Rib","id":"120600","lat":"38.710789","lon":"-9.271801","lines":["1115","1117","1122","1507","1525","1606","1725"],"schedule":{"travel_time":0,"stop_id":"120600"}},{"index":50,"name":"Av João Freitas Branco 23","id":"120598","lat":"38.709802","lon":"-9.272521","lines":["1115","1117","1122","1507","1525","1606","1725"],"schedule":{"travel_time":1,"stop_id":"120598"}},{"index":51,"name":"Laveiras (Coreto)","id":"120596","lat":"38.707858","lon":"-9.273795","lines":["1115","1117","1122","1507","1525","1606","1725"],"schedule":{"travel_time":1,"stop_id":"120596"}},{"index":52,"name":"Av Cons Ferreira Lobo 39","id":"121077","lat":"38.707047","lon":"-9.274824","lines":["1122","1507","1525","1725"],"schedule":{"travel_time":0,"stop_id":"121077"}},{"index":53,"name":"R S João de Deus 9","id":"120657","lat":"38.704269","lon":"-9.274533","lines":["1115","1117","1122","1507","1525"],"schedule":{"travel_time":1,"stop_id":"120657"}},{"index":54,"name":"Av A Florêncio Santos (Jta Freguesia)","id":"120659","lat":"38.701687","lon":"-9.275555","lines":["1115","1117","1122","1507","1525"],"schedule":{"travel_time":1,"stop_id":"120659"}},{"index":55,"name":"Caxias (Estação)","id":"120587","lat":"38.698899","lon":"-9.274041","lines":["1122","1507","1525"],"schedule":{"travel_time":1,"stop_id":"120587"}}]}