{"color":"#3D85C6","headsign":"Damaia de Baixo","id":"1510_0_1","long_name":"Amadora (Hospital) - Damaia De Baixo (Pavilhão Desportivo)","line_id":"1510","shape_id":"42_4X7ZR","path":[{"index":1,"name":"Amadora (Hospital)","id":"030847","lat":"38.745523","lon":"-9.245956","lines":["1009","1510","1514","1704"],"schedule":{"travel_time":0,"stop_id":"030847"}},{"index":2,"name":"Fte Palácio Queluz","id":"172055","lat":"38.749709","lon":"-9.256736","lines":["1510","1512"],"schedule":{"travel_time":3,"stop_id":"172055"}},{"index":3,"name":"R Heliodoro Salgado 2","id":"172059","lat":"38.752372","lon":"-9.257069","lines":["1510","1513","1519","1717"],"schedule":{"travel_time":1,"stop_id":"172059"}},{"index":4,"name":"Av Conde Almeida Araújo 12","id":"172061","lat":"38.753798","lon":"-9.255675","lines":["1510","1513","1519","1717"],"schedule":{"travel_time":1,"stop_id":"172061"}},{"index":5,"name":"Av C Almeida Araujo (Jta Freguesia)","id":"172063","lat":"38.755009","lon":"-9.255052","lines":["1510","1513","1519","1717"],"schedule":{"travel_time":0,"stop_id":"172063"}},{"index":6,"name":"Queluz (4 Caminhos)","id":"170927","lat":"38.756327","lon":"-9.253683","lines":["1230","1510","1512","1513","1519","1716"],"schedule":{"travel_time":1,"stop_id":"170927"}},{"index":7,"name":"Rua Laura Alves (X) Rua Dom Pedro IV","id":"175188","lat":"38.756760","lon":"-9.250327","lines":["1510","1518","1601","1716","1717"],"schedule":{"travel_time":1,"stop_id":"175188"}},{"index":8,"name":"Av Elias Garcia 25","id":"171027","lat":"38.759411","lon":"-9.250340","lines":["1230","1509","1510","1512","1514","1515","1518","1519","1601","1716","1717","1720","1721"],"schedule":{"travel_time":1,"stop_id":"171027"}},{"index":9,"name":"R Elias Garcia (Escolas)","id":"030328","lat":"38.760571","lon":"-9.247861","lines":["1009","1014","1508","1509","1510","1514","1515","1518","1601","1603","1716","1717","1718","1720","1721"],"schedule":{"travel_time":1,"stop_id":"030328"}},{"index":10,"name":"R Elias Garcia 323","id":"030326","lat":"38.760998","lon":"-9.245511","lines":["1009","1014","1508","1509","1510","1514","1515","1518","1601","1716","1717","1718","1720","1721"],"schedule":{"travel_time":1,"stop_id":"030326"}},{"index":11,"name":"Amadora (Hosp Luz)","id":"030322","lat":"38.760333","lon":"-9.241066","lines":["1014","1508","1510","1515","1601","1716","1718","1720","1721"],"schedule":{"travel_time":1,"stop_id":"030322"}},{"index":12,"name":"R Elias Garcia 362","id":"030475","lat":"38.759271","lon":"-9.237939","lines":["1009","1014","1508","1509","1510","1514","1515","1601","1716","1718","1720","1721"],"schedule":{"travel_time":1,"stop_id":"030475"}},{"index":13,"name":"R Luís Camões 9 (CTT)","id":"030477","lat":"38.757233","lon":"-9.236109","lines":["1002","1009","1014","1501","1502","1508","1509","1510","1514","1515","1601","1712","1714","1716","1718","1720","1721"],"schedule":{"travel_time":0,"stop_id":"030477"}},{"index":14,"name":"Av Aviação Portuguesa 21","id":"030479","lat":"38.755870","lon":"-9.233636","lines":["1014","1502","1510","1514","1714","1716","1718"],"schedule":{"travel_time":1,"stop_id":"030479"}},{"index":15,"name":"Av Alexandre Sales (Esc Secundária)","id":"030481","lat":"38.755065","lon":"-9.231523","lines":["1014","1510"],"schedule":{"travel_time":1,"stop_id":"030481"}},{"index":16,"name":"Av Dr José Pontes Fte 33","id":"030464","lat":"38.754236","lon":"-9.229473","lines":["1014","1510"],"schedule":{"travel_time":1,"stop_id":"030464"}},{"index":17,"name":"Av Dr José Pontes 11","id":"030483","lat":"38.752698","lon":"-9.229207","lines":["1510","1718"],"schedule":{"travel_time":0,"stop_id":"030483"}},{"index":18,"name":"Av Dr José Pontes Fte 5","id":"030462","lat":"38.751464","lon":"-9.228517","lines":["1014","1510","1718"],"schedule":{"travel_time":0,"stop_id":"030462"}},{"index":19,"name":"Av D José I 7","id":"030459","lat":"38.751124","lon":"-9.226385","lines":["1014","1506","1510","1712","1718"],"schedule":{"travel_time":1,"stop_id":"030459"}},{"index":20,"name":"Reboleira (Estação) P8","id":"030111","lat":"38.750456","lon":"-9.223049","lines":["1014","1506","1510","1712","1718"],"schedule":{"travel_time":0,"stop_id":"030111"}},{"index":21,"name":"Av Manuel Alpedrinha (Pcta Francisco Ramos Costa)","id":"030086","lat":"38.749657","lon":"-9.223973","lines":["1002","1510","1704"],"schedule":{"travel_time":1,"stop_id":"030086"}},{"index":22,"name":"Av Manuel Alpedr (X) R Amilcar Cabral","id":"030655","lat":"38.748827","lon":"-9.225773","lines":["1510","1704"],"schedule":{"travel_time":0,"stop_id":"030655"}},{"index":23,"name":"Av Manuel Alpedrinha (Escola)","id":"030657","lat":"38.748757","lon":"-9.228012","lines":["1510","1704"],"schedule":{"travel_time":1,"stop_id":"030657"}},{"index":24,"name":"R Herculano de Carvalho 62 (Clinica)","id":"030492","lat":"38.749518","lon":"-9.231395","lines":["1510","1704"],"schedule":{"travel_time":1,"stop_id":"030492"}},{"index":25,"name":"R Prof Dr Ant Flores 4","id":"030454","lat":"38.748341","lon":"-9.231630","lines":["1510"],"schedule":{"travel_time":0,"stop_id":"030454"}},{"index":26,"name":"R António Aurélio Cora Ferreira 10","id":"030659","lat":"38.746379","lon":"-9.231921","lines":["1510"],"schedule":{"travel_time":1,"stop_id":"030659"}},{"index":27,"name":"R Madame Curie 16","id":"030450","lat":"38.747303","lon":"-9.230297","lines":["1510"],"schedule":{"travel_time":0,"stop_id":"030450"}},{"index":28,"name":"Av João Paulo II (Praça Gama Pinto)","id":"030447","lat":"38.746002","lon":"-9.227483","lines":["1013","1510"],"schedule":{"travel_time":1,"stop_id":"030447"}},{"index":29,"name":"Atalaia (Escola Secundária)","id":"030113","lat":"38.744938","lon":"-9.226621","lines":["1002","1013","1015","1510"],"schedule":{"travel_time":0,"stop_id":"030113"}},{"index":30,"name":"R Jorge Mina 13","id":"030503","lat":"38.743808","lon":"-9.224937","lines":["1015","1510"],"schedule":{"travel_time":1,"stop_id":"030503"}},{"index":31,"name":"R Manuel Cabanas 3","id":"030661","lat":"38.743583","lon":"-9.222419","lines":["1015","1510"],"schedule":{"travel_time":1,"stop_id":"030661"}},{"index":32,"name":"Praça Marquês das Minas 2","id":"030678","lat":"38.743793","lon":"-9.220217","lines":["1501","1510"],"schedule":{"travel_time":1,"stop_id":"030678"}},{"index":33,"name":"R D João V 38","id":"030531","lat":"38.745529","lon":"-9.217843","lines":["1501","1510"],"schedule":{"travel_time":1,"stop_id":"030531"}},{"index":34,"name":"Praça Águas Livres 2A","id":"030049","lat":"38.746875","lon":"-9.216116","lines":["1001","1015","1501","1507","1510","1704","1713","1718"],"schedule":{"travel_time":0,"stop_id":"030049"}},{"index":35,"name":"Av D Pedro V 3","id":"030586","lat":"38.748096","lon":"-9.215115","lines":["1510"],"schedule":{"travel_time":1,"stop_id":"030586"}},{"index":36,"name":"R Goa (X) R Duarte Pacheco Pereira","id":"030663","lat":"38.748931","lon":"-9.213551","lines":["1510","1713"],"schedule":{"travel_time":0,"stop_id":"030663"}},{"index":37,"name":"R João Mascarenhas 13A","id":"030665","lat":"38.748240","lon":"-9.212475","lines":["1510","1713"],"schedule":{"travel_time":1,"stop_id":"030665"}},{"index":38,"name":"Damaia de Baixo","id":"030668","lat":"38.747655","lon":"-9.210687","lines":["1510","1713"],"schedule":{"travel_time":0,"stop_id":"030668"}}]}