{"color":"#C61D23","headsign":"Casal Cambra (Igreja)","id":"1516_0_2","long_name":"Casal Cambra (Igreja) - Monte Abraão (Estação)","line_id":"1516","shape_id":"363_4X7ZR","path":[{"index":1,"name":"Monte Abraão (Estação) P8","id":"172478","lat":"38.755731","lon":"-9.265666","lines":["1224","1511","1516","1715"],"schedule":{"travel_time":0,"stop_id":"172478"}},{"index":2,"name":"Av Gen Humberto Delgado (Escadinhas)","id":"172166","lat":"38.761646","lon":"-9.259005","lines":["1516"],"schedule":{"travel_time":3,"stop_id":"172166"}},{"index":3,"name":"Av Gen Humberto Delgado (Post Combust)","id":"170897","lat":"38.764330","lon":"-9.258480","lines":["1226","1516"],"schedule":{"travel_time":1,"stop_id":"170897"}},{"index":4,"name":"Av Miguel Bombarda 182","id":"170594","lat":"38.766810","lon":"-9.257873","lines":["1212","1224","1230","1512","1516","1716","1718"],"schedule":{"travel_time":1,"stop_id":"170594"}},{"index":5,"name":"R Alexandre Herculano 21","id":"170592","lat":"38.769755","lon":"-9.259741","lines":["1212","1224","1230","1512","1516","1716","1718"],"schedule":{"travel_time":1,"stop_id":"170592"}},{"index":6,"name":"R Alexandre Herculano 4","id":"171053","lat":"38.774183","lon":"-9.260667","lines":["1230","1516"],"schedule":{"travel_time":1,"stop_id":"171053"}},{"index":7,"name":"Belas (Samaritana)","id":"170527","lat":"38.777404","lon":"-9.260511","lines":["1211","1516","2605"],"schedule":{"travel_time":1,"stop_id":"170527"}},{"index":8,"name":"Serra Silveira","id":"172161","lat":"38.780084","lon":"-9.255016","lines":["1516","1519"],"schedule":{"travel_time":3,"stop_id":"172161"}},{"index":9,"name":"R 1º Maio (Igreja)","id":"172163","lat":"38.777566","lon":"-9.253856","lines":["1516","1519"],"schedule":{"travel_time":1,"stop_id":"172163"}},{"index":10,"name":"R Primeiro de Maio (x) R Navegantes","id":"172570","lat":"38.779372","lon":"-9.252781","lines":["1516","1519"],"schedule":{"travel_time":1,"stop_id":"172570"}},{"index":11,"name":"EN 250 118","id":"172160","lat":"38.782110","lon":"-9.256631","lines":["1516","2605"],"schedule":{"travel_time":1,"stop_id":"172160"}},{"index":12,"name":"EN 250 79 (Ferro Velho)","id":"172158","lat":"38.782181","lon":"-9.253832","lines":["1516","2605"],"schedule":{"travel_time":1,"stop_id":"172158"}},{"index":13,"name":"EN 250 34","id":"172156","lat":"38.781463","lon":"-9.250032","lines":["1516","2605"],"schedule":{"travel_time":1,"stop_id":"172156"}},{"index":14,"name":"EN 250 6","id":"172154","lat":"38.782112","lon":"-9.247162","lines":["1516","2605"],"schedule":{"travel_time":1,"stop_id":"172154"}},{"index":15,"name":"EN 250 (X) Estrada Águas Livres","id":"030594","lat":"38.782494","lon":"-9.245492","lines":["1508","1515","1516","1603","1720","2605"],"schedule":{"travel_time":0,"stop_id":"030594"}},{"index":16,"name":"EN 250 (Qta Rosa Bacará)","id":"030592","lat":"38.788380","lon":"-9.243574","lines":["1508","1516","1603","2605"],"schedule":{"travel_time":2,"stop_id":"030592"}},{"index":17,"name":"Serra Casal Cambra (Saida)","id":"172133","lat":"38.792542","lon":"-9.244813","lines":["1516","1603"],"schedule":{"travel_time":1,"stop_id":"172133"}},{"index":18,"name":"R Principal (X) R Infante Sagres","id":"172135","lat":"38.796258","lon":"-9.248267","lines":["1516","1603"],"schedule":{"travel_time":2,"stop_id":"172135"}},{"index":19,"name":"R Principal (X) R Infante Sagres","id":"172137","lat":"38.795701","lon":"-9.250021","lines":["1516","1603"],"schedule":{"travel_time":0,"stop_id":"172137"}},{"index":20,"name":"R Principal 38","id":"172139","lat":"38.796258","lon":"-9.252457","lines":["1516","1603"],"schedule":{"travel_time":1,"stop_id":"172139"}},{"index":21,"name":"R Principal 39","id":"172141","lat":"38.798172","lon":"-9.253266","lines":["1516","1603"],"schedule":{"travel_time":1,"stop_id":"172141"}},{"index":22,"name":"R Principal 80","id":"172143","lat":"38.803020","lon":"-9.253401","lines":["1516","1603"],"schedule":{"travel_time":1,"stop_id":"172143"}},{"index":23,"name":"R Inf Sagres 38 (X) R Florbela Espanca","id":"172145","lat":"38.801792","lon":"-9.251346","lines":["1516","1603"],"schedule":{"travel_time":1,"stop_id":"172145"}},{"index":24,"name":"R Infante Sagres 21 (X) Trav Boa Vista","id":"172147","lat":"38.799614","lon":"-9.251086","lines":["1516","1603"],"schedule":{"travel_time":0,"stop_id":"172147"}},{"index":25,"name":"R Inf Sagres (X) R Afonso Albuquerque","id":"172149","lat":"38.798306","lon":"-9.249891","lines":["1516","1603"],"schedule":{"travel_time":1,"stop_id":"172149"}},{"index":26,"name":"Serra C Cambra","id":"172151","lat":"38.796295","lon":"-9.248570","lines":["1516","1603"],"schedule":{"travel_time":0,"stop_id":"172151"}},{"index":27,"name":"Serra Ccambr (Saida)","id":"172134","lat":"38.792353","lon":"-9.244618","lines":["1516","1603"],"schedule":{"travel_time":2,"stop_id":"172134"}},{"index":28,"name":"R Berlim (X) EN 250","id":"172571","lat":"38.796246","lon":"-9.240497","lines":["1516"],"schedule":{"travel_time":2,"stop_id":"172571"}},{"index":29,"name":"Rua Berlim","id":"030715","lat":"38.796813","lon":"-9.236502","lines":["1516"],"schedule":{"travel_time":0,"stop_id":"030715"}},{"index":30,"name":"Casal Cambra (Escola)","id":"171549","lat":"38.798273","lon":"-9.233993","lines":["1244","1509","1516","1517"],"schedule":{"travel_time":1,"stop_id":"171549"}},{"index":31,"name":"Casal Cambra (R Sta Marta 22)","id":"171551","lat":"38.798800","lon":"-9.232999","lines":["1244","1509","1516","1711"],"schedule":{"travel_time":0,"stop_id":"171551"}},{"index":32,"name":"Casal Cambra (Centro saúde)","id":"171553","lat":"38.800311","lon":"-9.228422","lines":["1244","1509","1515","1516","1517","1637","1709","1710","1719","1720","2702"],"schedule":{"travel_time":2,"stop_id":"171553"}},{"index":33,"name":"Av Lisboa 80","id":"171555","lat":"38.801813","lon":"-9.228414","lines":["1244","1509","1515","1516","1517","1637","1709","1710","1719","1720","2702"],"schedule":{"travel_time":0,"stop_id":"171555"}},{"index":34,"name":"Av Lisboa (Igreja)","id":"171557","lat":"38.803762","lon":"-9.228274","lines":["1244","1516","1517","1637","1709","1710","1719","2702"],"schedule":{"travel_time":1,"stop_id":"171557"}}]}