{"color":"#C61D23","headsign":"Casal Rebentão (Rotunda)","id":"1517_0_2","long_name":"Casal de Cambra (C Rebentão) - Reboleira (Metro)","line_id":"1517","shape_id":"51_4X7ZR","path":[{"index":1,"name":"Reboleira (Metro) P2","id":"030407","lat":"38.751574","lon":"-9.224147","lines":["1517","1518"],"schedule":{"travel_time":0,"stop_id":"030407"}},{"index":2,"name":"Av Brasil 51","id":"030087","lat":"38.752975","lon":"-9.226085","lines":["1517","1712"],"schedule":{"travel_time":1,"stop_id":"030087"}},{"index":3,"name":"Av Brasil (Escola)","id":"030089","lat":"38.754448","lon":"-9.226913","lines":["1517","1712"],"schedule":{"travel_time":0,"stop_id":"030089"}},{"index":4,"name":"Av Brasil 23","id":"030877","lat":"38.755972","lon":"-9.227635","lines":["1517","1712"],"schedule":{"travel_time":1,"stop_id":"030877"}},{"index":5,"name":"Av Brasil 5","id":"030876","lat":"38.757515","lon":"-9.227218","lines":["1517","1712"],"schedule":{"travel_time":0,"stop_id":"030876"}},{"index":6,"name":"Estr Falagueira 60","id":"030163","lat":"38.761949","lon":"-9.228595","lines":["1003","1517","1707"],"schedule":{"travel_time":2,"stop_id":"030163"}},{"index":7,"name":"Estr Serra Mira 32","id":"030138","lat":"38.765134","lon":"-9.230620","lines":["1003","1517","1707"],"schedule":{"travel_time":1,"stop_id":"030138"}},{"index":8,"name":"Estr Serra Mira (Móveis Salima)","id":"030165","lat":"38.766987","lon":"-9.230609","lines":["1514","1517","1707"],"schedule":{"travel_time":0,"stop_id":"030165"}},{"index":9,"name":"Estr Serra da Mina 56A","id":"030187","lat":"38.768940","lon":"-9.230201","lines":["1004","1006","1010","1517","1707"],"schedule":{"travel_time":1,"stop_id":"030187"}},{"index":10,"name":"Estr Serra Mira (Fte Estal CMA)","id":"030189","lat":"38.773792","lon":"-9.230565","lines":["1004","1006","1517","1707"],"schedule":{"travel_time":1,"stop_id":"030189"}},{"index":11,"name":"Moinhos Funcheira (Rotunda)","id":"030226","lat":"38.778584","lon":"-9.230460","lines":["1004","1006","1509","1517","1707","1719"],"schedule":{"travel_time":2,"stop_id":"030226"}},{"index":12,"name":"Av D F Piteira Santos 16 (Superm)","id":"030227","lat":"38.778936","lon":"-9.232480","lines":["1004","1006","1509","1517","1707","1719"],"schedule":{"travel_time":0,"stop_id":"030227"}},{"index":13,"name":"Av D Armando Romão 14","id":"030222","lat":"38.779634","lon":"-9.233691","lines":["1004","1006","1509","1517"],"schedule":{"travel_time":1,"stop_id":"030222"}},{"index":14,"name":"Av Amália Rodrigues 36","id":"030229","lat":"38.781856","lon":"-9.233791","lines":["1004","1006","1509","1517","1719"],"schedule":{"travel_time":1,"stop_id":"030229"}},{"index":15,"name":"Av Amália Rodrigues 73","id":"030218","lat":"38.783807","lon":"-9.231668","lines":["1004","1006","1509","1517","1719"],"schedule":{"travel_time":0,"stop_id":"030218"}},{"index":16,"name":"Av Lucas Pires 14","id":"030216","lat":"38.783540","lon":"-9.234200","lines":["1004","1006","1509","1517","1719"],"schedule":{"travel_time":1,"stop_id":"030216"}},{"index":17,"name":"Av Lucas Pires (X) Estrada da Central","id":"030214","lat":"38.782060","lon":"-9.236548","lines":["1004","1006","1509","1517","1719"],"schedule":{"travel_time":1,"stop_id":"030214"}},{"index":18,"name":"R Fernando Maia (X) R Campos","id":"030707","lat":"38.788438","lon":"-9.233352","lines":["1509","1515","1517","1720"],"schedule":{"travel_time":2,"stop_id":"030707"}},{"index":19,"name":"R Fernando Maia X R Qta Fonte Santa","id":"030709","lat":"38.789628","lon":"-9.231960","lines":["1509","1515","1517","1720"],"schedule":{"travel_time":1,"stop_id":"030709"}},{"index":20,"name":"Largo Visconde Asseca (Coreto)","id":"030645","lat":"38.791675","lon":"-9.230476","lines":["1509","1515","1517","1720"],"schedule":{"travel_time":0,"stop_id":"030645"}},{"index":21,"name":"R Horta Costa (X) R Ponte","id":"030647","lat":"38.792206","lon":"-9.229607","lines":["1509","1515","1517","1720"],"schedule":{"travel_time":1,"stop_id":"030647"}},{"index":22,"name":"R Alexandre Pinheiro Torres 4A","id":"030633","lat":"38.788043","lon":"-9.224783","lines":["1509","1517","1711","1719"],"schedule":{"travel_time":2,"stop_id":"030633"}},{"index":23,"name":"Av José Saramago 7","id":"030635","lat":"38.789703","lon":"-9.225134","lines":["1509","1517","1711","1719"],"schedule":{"travel_time":0,"stop_id":"030635"}},{"index":24,"name":"Av José Saramago 14","id":"030637","lat":"38.790879","lon":"-9.227004","lines":["1509","1517","1711","1719"],"schedule":{"travel_time":1,"stop_id":"030637"}},{"index":25,"name":"Estr Prin Caneças (X) Horta Costa","id":"030711","lat":"38.792133","lon":"-9.228076","lines":["1515","1517","1709","1710","1711","1719","1720","2702"],"schedule":{"travel_time":0,"stop_id":"030711"}},{"index":26,"name":"Av Lisboa (X) R D João I","id":"172123","lat":"38.796187","lon":"-9.228717","lines":["1515","1517","1709","1710","1711","1719","1720","2702"],"schedule":{"travel_time":1,"stop_id":"172123"}},{"index":27,"name":"Av Lisboa 26D","id":"172125","lat":"38.798055","lon":"-9.228513","lines":["1515","1517","1709","1710","1711","1719","1720","2702"],"schedule":{"travel_time":1,"stop_id":"172125"}},{"index":28,"name":"Casal Cambra (Centro saúde)","id":"171553","lat":"38.800311","lon":"-9.228422","lines":["1244","1509","1515","1516","1517","1637","1709","1710","1719","1720","2702"],"schedule":{"travel_time":0,"stop_id":"171553"}},{"index":29,"name":"Av Lisboa 80","id":"171555","lat":"38.801813","lon":"-9.228414","lines":["1244","1509","1515","1516","1517","1637","1709","1710","1719","1720","2702"],"schedule":{"travel_time":1,"stop_id":"171555"}},{"index":30,"name":"Av Lisboa (Igreja)","id":"171557","lat":"38.803762","lon":"-9.228274","lines":["1244","1516","1517","1637","1709","1710","1719","2702"],"schedule":{"travel_time":0,"stop_id":"171557"}},{"index":31,"name":"Av Dinamarca 169","id":"172129","lat":"38.804343","lon":"-9.229256","lines":["1516","1517","1637","1709","1710","1719","2702"],"schedule":{"travel_time":1,"stop_id":"172129"}},{"index":32,"name":"Av Timor 27","id":"171614","lat":"38.804463","lon":"-9.231659","lines":["1517"],"schedule":{"travel_time":0,"stop_id":"171614"}},{"index":33,"name":"Av Timor 98","id":"171612","lat":"38.804054","lon":"-9.235321","lines":["1517"],"schedule":{"travel_time":1,"stop_id":"171612"}},{"index":34,"name":"R Amadora (X) R Viana Castelo","id":"171610","lat":"38.803638","lon":"-9.238481","lines":["1517"],"schedule":{"travel_time":1,"stop_id":"171610"}},{"index":35,"name":"Av Brasil 112 (Escola Casal Cambra)","id":"172177","lat":"38.802566","lon":"-9.237364","lines":["1517","1711"],"schedule":{"travel_time":1,"stop_id":"172177"}},{"index":36,"name":"Av Brasil 65","id":"172170","lat":"38.802524","lon":"-9.233542","lines":["1517","1711"],"schedule":{"travel_time":0,"stop_id":"172170"}},{"index":37,"name":"Av Moçambique (Parq Casal Cambra)","id":"172053","lat":"38.800163","lon":"-9.233456","lines":["1509","1515","1517","1711","1720"],"schedule":{"travel_time":1,"stop_id":"172053"}},{"index":38,"name":"Casal Cambra (Escola)","id":"171550","lat":"38.798349","lon":"-9.234196","lines":["1244","1509","1515","1516","1517","1720"],"schedule":{"travel_time":1,"stop_id":"171550"}},{"index":39,"name":"R Lyon 4A","id":"172127","lat":"38.796036","lon":"-9.233573","lines":["1515","1517","1720"],"schedule":{"travel_time":0,"stop_id":"172127"}},{"index":40,"name":"Casal Rebentão (Rotunda)","id":"030717","lat":"38.794603","lon":"-9.233595","lines":["1517"],"schedule":{"travel_time":1,"stop_id":"030717"}}]}