{"color":"#C61D23","headsign":"Reboleira (Metro)","id":"1518_0_1","long_name":"Monte Abraão - Reboleira (Metro)","line_id":"1518","shape_id":"364_4X7ZR","path":[{"index":1,"name":"Queluz (M Abraão)","id":"170893","lat":"38.765800","lon":"-9.261186","lines":["1226","1518"],"schedule":{"travel_time":0,"stop_id":"170893"}},{"index":2,"name":"Av Liberdade 146","id":"170896","lat":"38.764744","lon":"-9.259797","lines":["1226","1518"],"schedule":{"travel_time":1,"stop_id":"170896"}},{"index":3,"name":"Monte Abraão (Pavilhão Desportivo)","id":"172165","lat":"38.761723","lon":"-9.259223","lines":["1516","1518"],"schedule":{"travel_time":1,"stop_id":"172165"}},{"index":4,"name":"Av Capitão António Gomes Rocha 8","id":"170877","lat":"38.760976","lon":"-9.261850","lines":["1226","1518"],"schedule":{"travel_time":1,"stop_id":"170877"}},{"index":5,"name":"Av Liberdade (Centro saúde)","id":"170879","lat":"38.761684","lon":"-9.260978","lines":["1226","1518"],"schedule":{"travel_time":0,"stop_id":"170879"}},{"index":6,"name":"R Jaime Cortesão (X) Av Miradouro","id":"170881","lat":"38.762718","lon":"-9.261386","lines":["1226","1518"],"schedule":{"travel_time":1,"stop_id":"170881"}},{"index":7,"name":"Av Miradouro (X) R Vieira Silva","id":"172179","lat":"38.764448","lon":"-9.262424","lines":["1518"],"schedule":{"travel_time":1,"stop_id":"172179"}},{"index":8,"name":"R Ramada Curto 2","id":"172546","lat":"38.764767","lon":"-9.263709","lines":["1518"],"schedule":{"travel_time":0,"stop_id":"172546"}},{"index":9,"name":"Mte Abraão (V Sant)","id":"172181","lat":"38.763639","lon":"-9.263794","lines":["1518"],"schedule":{"travel_time":0,"stop_id":"172181"}},{"index":10,"name":"R Inf D Henriq (X) R Tristão Cunha","id":"172183","lat":"38.762784","lon":"-9.265615","lines":["1518"],"schedule":{"travel_time":1,"stop_id":"172183"}},{"index":11,"name":"Av Joaquim Luís 49A","id":"171085","lat":"38.761130","lon":"-9.267829","lines":["1230","1518"],"schedule":{"travel_time":1,"stop_id":"171085"}},{"index":12,"name":"Av Joaquim Luís (Pcta 11 Março)","id":"171087","lat":"38.759241","lon":"-9.267869","lines":["1230","1518"],"schedule":{"travel_time":1,"stop_id":"171087"}},{"index":13,"name":"Monte Abraão (Estação) P2","id":"172185","lat":"38.755576","lon":"-9.265855","lines":["1518","1527"],"schedule":{"travel_time":1,"stop_id":"172185"}},{"index":14,"name":"R Timor 2","id":"170923","lat":"38.756556","lon":"-9.261663","lines":["1224","1230","1236","1512","1518","1527","1528","1530","1601","1715","1717","1721"],"schedule":{"travel_time":1,"stop_id":"170923"}},{"index":15,"name":"Av Elias Garcia 219","id":"170925","lat":"38.757352","lon":"-9.258757","lines":["1230","1512","1515","1518","1530","1601","1715","1716","1720","1721"],"schedule":{"travel_time":1,"stop_id":"170925"}},{"index":16,"name":"Queluz (4 Caminhos)","id":"172499","lat":"38.756331","lon":"-9.253467","lines":["1515","1518","1530","1601","1715","1717","1720","1721"],"schedule":{"travel_time":1,"stop_id":"172499"}},{"index":17,"name":"Rua Laura Alves (X) Rua Dom Pedro IV","id":"175188","lat":"38.756760","lon":"-9.250327","lines":["1510","1518","1601","1716","1717"],"schedule":{"travel_time":1,"stop_id":"175188"}},{"index":18,"name":"Av Elias Garcia 25","id":"171027","lat":"38.759411","lon":"-9.250340","lines":["1230","1509","1510","1512","1514","1515","1518","1519","1601","1716","1717","1720","1721"],"schedule":{"travel_time":1,"stop_id":"171027"}},{"index":19,"name":"R Elias Garcia (Escolas)","id":"030328","lat":"38.760571","lon":"-9.247861","lines":["1009","1014","1508","1509","1510","1514","1515","1518","1601","1603","1716","1717","1718","1720","1721"],"schedule":{"travel_time":1,"stop_id":"030328"}},{"index":20,"name":"R Elias Garcia 323","id":"030326","lat":"38.760998","lon":"-9.245511","lines":["1009","1014","1508","1509","1510","1514","1515","1518","1601","1716","1717","1718","1720","1721"],"schedule":{"travel_time":1,"stop_id":"030326"}},{"index":21,"name":"Rua Elias Garcia 281","id":"173561","lat":"38.760437","lon":"-9.241812","lines":["1509","1514","1518","1717"],"schedule":{"travel_time":0,"stop_id":"173561"}},{"index":22,"name":"Amadora (Estação) P2 Entrada Norte","id":"030843","lat":"38.760890","lon":"-9.237513","lines":["1518","1717"],"schedule":{"travel_time":2,"stop_id":"030843"}},{"index":23,"name":"R Henrique Nogueira 12a (Jardim)","id":"030101","lat":"38.759188","lon":"-9.233165","lines":["1005","1006","1518","1703","1717"],"schedule":{"travel_time":1,"stop_id":"030101"}},{"index":24,"name":"Bombeiros Volunt 4C (Mercado da Mina)","id":"030103","lat":"38.760720","lon":"-9.233497","lines":["1005","1006","1518","1703","1717"],"schedule":{"travel_time":1,"stop_id":"030103"}},{"index":25,"name":"Av Com Luis Antonio Silva 62B","id":"030105","lat":"38.759686","lon":"-9.229522","lines":["1517","1518","1707","1717"],"schedule":{"travel_time":1,"stop_id":"030105"}},{"index":26,"name":"R Elias Garcia 103","id":"030605","lat":"38.757920","lon":"-9.226425","lines":["1508","1514","1515","1518","1601","1707","1717","1720","1721"],"schedule":{"travel_time":1,"stop_id":"030605"}},{"index":27,"name":"R Elias Garcia 88","id":"030607","lat":"38.757305","lon":"-9.223257","lines":["1508","1514","1515","1518","1601","1707","1717","1720","1721"],"schedule":{"travel_time":1,"stop_id":"030607"}},{"index":28,"name":"R Mª A B Nogueira (X) Pcta Virg Moura","id":"030723","lat":"38.756033","lon":"-9.222874","lines":["1518"],"schedule":{"travel_time":1,"stop_id":"030723"}},{"index":29,"name":"R Mª Alda B Nogueira 20","id":"030725","lat":"38.756111","lon":"-9.225130","lines":["1518"],"schedule":{"travel_time":0,"stop_id":"030725"}},{"index":30,"name":"Reboleira (Metro) P2","id":"030407","lat":"38.751574","lon":"-9.224147","lines":["1517","1518"],"schedule":{"travel_time":2,"stop_id":"030407"}}]}