{"color":"#C61D23","headsign":"Monte Abraão","id":"1518_0_2","long_name":"Monte Abraão - Reboleira (Metro)","line_id":"1518","shape_id":"366_4X7ZR","path":[{"index":1,"name":"Reboleira (Metro) P2","id":"030407","lat":"38.751574","lon":"-9.224147","lines":["1517","1518"],"schedule":{"travel_time":0,"stop_id":"030407"}},{"index":2,"name":"R Mª Alda B Nogueira 20","id":"030726","lat":"38.755941","lon":"-9.225609","lines":["1518"],"schedule":{"travel_time":2,"stop_id":"030726"}},{"index":3,"name":"R Mª A B Nogueira (X) Pcta Lib Galvão","id":"030724","lat":"38.755928","lon":"-9.222862","lines":["1518"],"schedule":{"travel_time":1,"stop_id":"030724"}},{"index":4,"name":"Av Eduardo Jorge 26","id":"030613","lat":"38.757683","lon":"-9.222224","lines":["1508","1514","1515","1518","1601","1707","1717","1720","1721"],"schedule":{"travel_time":0,"stop_id":"030613"}},{"index":5,"name":"Estr da Falagueira 18","id":"030727","lat":"38.759683","lon":"-9.227354","lines":["1518","1707","1717"],"schedule":{"travel_time":2,"stop_id":"030727"}},{"index":6,"name":"Av Gen Humberto Delgado 1","id":"030093","lat":"38.760526","lon":"-9.229893","lines":["1518","1717"],"schedule":{"travel_time":1,"stop_id":"030093"}},{"index":7,"name":"Av Gen Humb Delgado (Supermercado)","id":"030095","lat":"38.761396","lon":"-9.233941","lines":["1518","1717"],"schedule":{"travel_time":1,"stop_id":"030095"}},{"index":8,"name":"Av Gen Humberto Delgado 122","id":"030097","lat":"38.762225","lon":"-9.237707","lines":["1004","1509","1518","1603","1717"],"schedule":{"travel_time":1,"stop_id":"030097"}},{"index":9,"name":"Av Pedro Álvares Cabral 5","id":"030343","lat":"38.762150","lon":"-9.240039","lines":["1004","1009","1509","1514","1518","1603","1717"],"schedule":{"travel_time":1,"stop_id":"030343"}},{"index":10,"name":"Amadora (Hosp Luz)","id":"030323","lat":"38.760534","lon":"-9.242658","lines":["1009","1014","1508","1515","1518","1601","1716","1717","1718","1720","1721"],"schedule":{"travel_time":1,"stop_id":"030323"}},{"index":11,"name":"R Elias Garcia Fte 323","id":"030325","lat":"38.761179","lon":"-9.245491","lines":["1009","1014","1508","1515","1518","1601","1716","1717","1718","1720","1721"],"schedule":{"travel_time":1,"stop_id":"030325"}},{"index":12,"name":"R Elias Garcia (Fte Escolas)","id":"030327","lat":"38.760717","lon":"-9.247945","lines":["1009","1014","1508","1515","1518","1601","1603","1716","1717","1718","1720","1721"],"schedule":{"travel_time":0,"stop_id":"030327"}},{"index":13,"name":"Av Elias Garcia 40","id":"171028","lat":"38.759253","lon":"-9.250478","lines":["1230","1512","1515","1518","1519","1601","1716","1717","1720","1721"],"schedule":{"travel_time":1,"stop_id":"171028"}},{"index":14,"name":"Queluz (4 Caminhos)","id":"172476","lat":"38.756470","lon":"-9.253940","lines":["1510","1511","1518","1715","1721"],"schedule":{"travel_time":2,"stop_id":"172476"}},{"index":15,"name":"Av Elias Garcia 222A","id":"170926","lat":"38.757489","lon":"-9.258787","lines":["1230","1511","1512","1515","1518","1530","1601","1715","1716","1720","1721"],"schedule":{"travel_time":1,"stop_id":"170926"}},{"index":16,"name":"R Timor 2","id":"170924","lat":"38.756650","lon":"-9.262052","lines":["1224","1230","1236","1511","1512","1518","1527","1528","1530","1601","1715","1717","1721"],"schedule":{"travel_time":1,"stop_id":"170924"}},{"index":17,"name":"Monte Abraão (Estação) P5","id":"172105","lat":"38.755645","lon":"-9.266021","lines":["1518"],"schedule":{"travel_time":2,"stop_id":"172105"}},{"index":18,"name":"Av Luís Camões (R Cardeal D a Ribeiro)","id":"170869","lat":"38.758323","lon":"-9.264907","lines":["1226","1230","1516","1518"],"schedule":{"travel_time":2,"stop_id":"170869"}},{"index":19,"name":"R Ruy Gameiro (Escola)","id":"170874","lat":"38.759326","lon":"-9.265782","lines":["1230","1518"],"schedule":{"travel_time":0,"stop_id":"170874"}},{"index":20,"name":"R Ruy Gameiro (Pcta José Malhoa)","id":"171089","lat":"38.759186","lon":"-9.267406","lines":["1230","1518"],"schedule":{"travel_time":1,"stop_id":"171089"}},{"index":21,"name":"Av Joaquim Luís 45","id":"171086","lat":"38.760637","lon":"-9.267775","lines":["1230","1518"],"schedule":{"travel_time":0,"stop_id":"171086"}},{"index":22,"name":"R Inf D Henriq (X) R Pedro Sintra","id":"172187","lat":"38.762555","lon":"-9.265496","lines":["1230","1518"],"schedule":{"travel_time":1,"stop_id":"172187"}},{"index":23,"name":"Mte Abraão (V Sant)","id":"170885","lat":"38.763477","lon":"-9.264499","lines":["1226","1230","1518"],"schedule":{"travel_time":1,"stop_id":"170885"}},{"index":24,"name":"R Ramada Curto Fte 2","id":"172516","lat":"38.764854","lon":"-9.263385","lines":["1226","1518"],"schedule":{"travel_time":1,"stop_id":"172516"}},{"index":25,"name":"R Vieira Silva (X) Av Miradouro","id":"170887","lat":"38.764618","lon":"-9.262845","lines":["1226","1518"],"schedule":{"travel_time":0,"stop_id":"170887"}},{"index":26,"name":"R Jacinto Garcia Fte 119","id":"172514","lat":"38.763315","lon":"-9.262678","lines":["1226","1518"],"schedule":{"travel_time":0,"stop_id":"172514"}},{"index":27,"name":"Av Agostinho Neto (X) R Palmira Bastos","id":"172511","lat":"38.762357","lon":"-9.263364","lines":["1226","1230","1518"],"schedule":{"travel_time":1,"stop_id":"172511"}},{"index":28,"name":"Av Agostinho Neto 87","id":"170889","lat":"38.761772","lon":"-9.261818","lines":["1226","1230","1518"],"schedule":{"travel_time":0,"stop_id":"170889"}},{"index":29,"name":"Av Liberdade (Centro saúde)","id":"170879","lat":"38.761684","lon":"-9.260978","lines":["1226","1518"],"schedule":{"travel_time":1,"stop_id":"170879"}},{"index":30,"name":"Av Afonso Costa 43","id":"170891","lat":"38.763301","lon":"-9.260701","lines":["1226","1518"],"schedule":{"travel_time":0,"stop_id":"170891"}},{"index":31,"name":"Queluz (M Abraão)","id":"170893","lat":"38.765800","lon":"-9.261186","lines":["1226","1518"],"schedule":{"travel_time":1,"stop_id":"170893"}}]}