{"color":"#C61D23","headsign":"Queluz (Palácio)","id":"1519_0_2","long_name":"Queluz (Palácio) - Serra Silveira","line_id":"1519","shape_id":"368_4X7ZR","path":[{"index":1,"name":"Serra Silveira","id":"172161","lat":"38.780084","lon":"-9.255016","lines":["1516","1519"],"schedule":{"travel_time":0,"stop_id":"172161"}},{"index":2,"name":"R Navegantes 3","id":"172191","lat":"38.779332","lon":"-9.253063","lines":["1519"],"schedule":{"travel_time":1,"stop_id":"172191"}},{"index":3,"name":"R 1º Maio (Igreja)","id":"172164","lat":"38.777659","lon":"-9.253946","lines":["1519"],"schedule":{"travel_time":1,"stop_id":"172164"}},{"index":4,"name":"R Eng J Sousa Sant Marq (Ponte Rib)","id":"030730","lat":"38.773011","lon":"-9.252948","lines":["1519"],"schedule":{"travel_time":2,"stop_id":"030730"}},{"index":5,"name":"Carenque (Lgo)","id":"030599","lat":"38.770662","lon":"-9.251608","lines":["1508","1515","1519","1603","1720"],"schedule":{"travel_time":1,"stop_id":"030599"}},{"index":6,"name":"Estr Carenque 21d","id":"172037","lat":"38.766213","lon":"-9.251244","lines":["1508","1515","1519","1603","1720"],"schedule":{"travel_time":3,"stop_id":"172037"}},{"index":7,"name":"Carenque (X) Bica Costa","id":"172039","lat":"38.763931","lon":"-9.251895","lines":["1508","1515","1519","1603","1720"],"schedule":{"travel_time":1,"stop_id":"172039"}},{"index":8,"name":"Estr Carenque (X) Bº Alto Moínhos","id":"171097","lat":"38.761483","lon":"-9.250961","lines":["1230","1508","1512","1519","1603","1718"],"schedule":{"travel_time":1,"stop_id":"171097"}},{"index":9,"name":"Av Elias Garcia 40","id":"171028","lat":"38.759253","lon":"-9.250478","lines":["1230","1512","1515","1518","1519","1601","1716","1717","1720","1721"],"schedule":{"travel_time":1,"stop_id":"171028"}},{"index":10,"name":"Queluz (4 Caminhos)","id":"170928","lat":"38.756449","lon":"-9.254178","lines":["1519","1530","1601","1717"],"schedule":{"travel_time":2,"stop_id":"170928"}},{"index":11,"name":"Av Republica 55","id":"172067","lat":"38.753842","lon":"-9.256074","lines":["1510","1513","1519","1717"],"schedule":{"travel_time":2,"stop_id":"172067"}},{"index":12,"name":"Av Republica 1","id":"172069","lat":"38.752231","lon":"-9.257848","lines":["1510","1513","1519","1717"],"schedule":{"travel_time":1,"stop_id":"172069"}},{"index":13,"name":"Queluz (Palácio)","id":"172057","lat":"38.750198","lon":"-9.257298","lines":["1519"],"schedule":{"travel_time":1,"stop_id":"172057"}}]}