{"color":"#C61D23","headsign":"Agualva - Cacém (Estação)","id":"1523_0_2","long_name":"Agualva-Cacém (Estação) - Oeiras (Estação)","line_id":"1523","shape_id":"140_4X7ZR","path":[{"index":1,"name":"Oeiras (Estação) P8 Entrada Norte","id":"121270","lat":"38.688615","lon":"-9.316617","lines":["1120","1523","1529","1604","1614","1615"],"schedule":{"travel_time":0,"stop_id":"121270"}},{"index":2,"name":"R Desembargador Faria (Ina)","id":"120731","lat":"38.691720","lon":"-9.314050","lines":["1120","1121","1523","1529","1530","1601","1604","1605","1606","1725"],"schedule":{"travel_time":1,"stop_id":"120731"}},{"index":3,"name":"R Cândido dos Reis 84","id":"120733","lat":"38.692621","lon":"-9.311273","lines":["1120","1121","1523","1529","1530","1601","1604","1605","1606","1725"],"schedule":{"travel_time":1,"stop_id":"120733"}},{"index":4,"name":"R Figueirinha 14","id":"121119","lat":"38.693820","lon":"-9.308050","lines":["1523","1529","1530","1601"],"schedule":{"travel_time":1,"stop_id":"121119"}},{"index":5,"name":"R Figueirinha 26","id":"120747","lat":"38.697254","lon":"-9.306189","lines":["1120","1121","1523","1529","1530","1601","1612","1725"],"schedule":{"travel_time":1,"stop_id":"120747"}},{"index":6,"name":"Av Rio Janeiro (Cemitério)","id":"121116","lat":"38.698194","lon":"-9.306869","lines":["1523","1529","1530","1601"],"schedule":{"travel_time":1,"stop_id":"121116"}},{"index":7,"name":"Pça Com Henrique Moreira Rato 34B","id":"121114","lat":"38.697380","lon":"-9.309347","lines":["1523","1529","1530","1601"],"schedule":{"travel_time":1,"stop_id":"121114"}},{"index":8,"name":"Av Rio Janeiro (X) R Gaspar Lemos","id":"121112","lat":"38.697791","lon":"-9.311384","lines":["1523","1529","1530","1601"],"schedule":{"travel_time":0,"stop_id":"121112"}},{"index":9,"name":"Estr Oeiras (Posto Combust)","id":"121121","lat":"38.701703","lon":"-9.308260","lines":["1523","1529","1530","1601","1605","1606"],"schedule":{"travel_time":2,"stop_id":"121121"}},{"index":10,"name":"Estr de Oeiras 10","id":"120621","lat":"38.705611","lon":"-9.307578","lines":["1115","1117","1523"],"schedule":{"travel_time":2,"stop_id":"120621"}},{"index":11,"name":"Estr Ribeira Lage","id":"121299","lat":"38.709221","lon":"-9.312956","lines":["1115","1117","1523","1608"],"schedule":{"travel_time":2,"stop_id":"121299"}},{"index":12,"name":"R Encosta Lagoas (X) R das Lajes","id":"120971","lat":"38.710022","lon":"-9.312262","lines":["1523"],"schedule":{"travel_time":0,"stop_id":"120971"}},{"index":13,"name":"Lagoas Park (Teixeira Duarte)","id":"120938","lat":"38.714120","lon":"-9.310781","lines":["1523","1529","1612","1733"],"schedule":{"travel_time":2,"stop_id":"120938"}},{"index":14,"name":"Av Sta Casa Misericórd (Saída Lagoas)","id":"121110","lat":"38.714449","lon":"-9.308051","lines":["1523","1529","1733"],"schedule":{"travel_time":0,"stop_id":"121110"}},{"index":15,"name":"Av Sta Casa Miseric (X) Estr Oeiras","id":"121108","lat":"38.713978","lon":"-9.304841","lines":["1523","1529","1733"],"schedule":{"travel_time":1,"stop_id":"121108"}},{"index":16,"name":"Porto Salvo (Centro)","id":"120919","lat":"38.716223","lon":"-9.301603","lines":["1123","1520","1521","1523","1530","1601","1610","1616","1731","1733"],"schedule":{"travel_time":2,"stop_id":"120919"}},{"index":17,"name":"R C Rio Maior (Igreja)","id":"120921","lat":"38.719011","lon":"-9.302212","lines":["1123","1125","1520","1521","1523","1530","1601","1610","1611","1616","1731","1733"],"schedule":{"travel_time":1,"stop_id":"120921"}},{"index":18,"name":"Estr Leião (X) Av Eng Arantes Oliveira","id":"121087","lat":"38.723125","lon":"-9.302481","lines":["1125","1520","1521","1523","1530","1601","1731","1733"],"schedule":{"travel_time":1,"stop_id":"121087"}},{"index":19,"name":"Leião (X) Talaíde","id":"121019","lat":"38.729376","lon":"-9.301270","lines":["1125","1523","1530","1531","1601","1616","1617","1733"],"schedule":{"travel_time":2,"stop_id":"121019"}},{"index":20,"name":"Estr Leceia (X) Estr Leião","id":"121123","lat":"38.732273","lon":"-9.298034","lines":["1523","1529","1530","1531","1601","1617","1733"],"schedule":{"travel_time":2,"stop_id":"121123"}},{"index":21,"name":"Taguspark (Rotunda SEF)","id":"121106","lat":"38.736033","lon":"-9.299921","lines":["1523","1529","1531","1608","1612","1616","1617","1733"],"schedule":{"travel_time":3,"stop_id":"121106"}},{"index":22,"name":"Av Prof Dr Cavaco Silva 19","id":"121104","lat":"38.739124","lon":"-9.304781","lines":["1523","1529","1531","1608","1612","1616","1617","1733"],"schedule":{"travel_time":2,"stop_id":"121104"}},{"index":23,"name":"Taguspark (Núcleo Central)","id":"121102","lat":"38.741584","lon":"-9.305086","lines":["1523","1529","1531","1608","1612","1616","1617","1733"],"schedule":{"travel_time":1,"stop_id":"121102"}},{"index":24,"name":"Taguspark (BCP)","id":"121091","lat":"38.744940","lon":"-9.304304","lines":["1520","1521","1523","1524","1529","1612","1616","1731","1733"],"schedule":{"travel_time":1,"stop_id":"121091"}},{"index":25,"name":"Av Brasil (Esc Primária)","id":"170730","lat":"38.748045","lon":"-9.301975","lines":["1523","1529","1531","1616","1617"],"schedule":{"travel_time":2,"stop_id":"170730"}},{"index":26,"name":"São Marcos (Rotunda)","id":"170776","lat":"38.751257","lon":"-9.302776","lines":["1215","1216","1220","1225","1233","1523","1529","1531","1616","1617","1733"],"schedule":{"travel_time":1,"stop_id":"170776"}},{"index":27,"name":"S Marcos (X)","id":"170774","lat":"38.751497","lon":"-9.306024","lines":["1215","1225","1520","1521","1523","1612","1731"],"schedule":{"travel_time":1,"stop_id":"170774"}},{"index":28,"name":"Estr Paço d ' Arcos 167","id":"170772","lat":"38.754463","lon":"-9.306715","lines":["1215","1225","1520","1521","1523","1731"],"schedule":{"travel_time":1,"stop_id":"170772"}},{"index":29,"name":"Alto Belavista (Business Park)","id":"170781","lat":"38.757772","lon":"-9.306862","lines":["1215","1225","1520","1521","1523","1731"],"schedule":{"travel_time":1,"stop_id":"170781"}},{"index":30,"name":"Estr Paço d'Arcos (X) Estr Ligeiras","id":"170768","lat":"38.762846","lon":"-9.305539","lines":["1215","1225","1520","1521","1523","1731"],"schedule":{"travel_time":2,"stop_id":"170768"}},{"index":31,"name":"Cacém (Estr Paço Arcos)","id":"170684","lat":"38.766888","lon":"-9.305274","lines":["1215","1220","1225","1233","1520","1521","1523","1731"],"schedule":{"travel_time":1,"stop_id":"170684"}},{"index":32,"name":"R de Angola 41","id":"170453","lat":"38.768738","lon":"-9.304440","lines":["1209","1215","1220","1222","1223","1225","1233","1236","1520","1521","1523","1613","1622","1731"],"schedule":{"travel_time":1,"stop_id":"170453"}},{"index":33,"name":"R Angola (Rotunda)","id":"170455","lat":"38.767599","lon":"-9.301623","lines":["1209","1215","1220","1222","1223","1225","1233","1236","1520","1521","1523","1613","1622","1731"],"schedule":{"travel_time":1,"stop_id":"170455"}},{"index":34,"name":"Agualva-Cacém (Estação) P1","id":"172486","lat":"38.766975","lon":"-9.298571","lines":["1523","1612"],"schedule":{"travel_time":1,"stop_id":"172486"}}]}