{"color":"#C61D23","headsign":"Massamá - Barcarena (Estação Sul)","id":"1525_2_1","long_name":"Caxias (Estação) - Massamá-Barcarena (Estação Sul)","line_id":"1525","shape_id":"372_4X7ZR","path":[{"index":1,"name":"Caxias (Estação)","id":"120587","lat":"38.698899","lon":"-9.274041","lines":["1122","1507","1525"],"schedule":{"travel_time":0,"stop_id":"120587"}},{"index":2,"name":"Av A Florêncio Santos (Jta Freguesia)","id":"120589","lat":"38.701376","lon":"-9.275794","lines":["1115","1117","1122","1507","1525"],"schedule":{"travel_time":2,"stop_id":"120589"}},{"index":3,"name":"Av Cons Ferreira Lobo 2A (CTT)","id":"120591","lat":"38.703735","lon":"-9.274660","lines":["1115","1117","1507","1525","1725"],"schedule":{"travel_time":1,"stop_id":"120591"}},{"index":4,"name":"Av Cons Ferreira Lobo 40","id":"120593","lat":"38.706733","lon":"-9.274879","lines":["1115","1117","1507","1525","1725"],"schedule":{"travel_time":2,"stop_id":"120593"}},{"index":5,"name":"Laveiras (Coreto)","id":"120595","lat":"38.707784","lon":"-9.273801","lines":["1115","1117","1122","1507","1525","1606","1725"],"schedule":{"travel_time":0,"stop_id":"120595"}},{"index":6,"name":"Av João Freitas Branco 24","id":"120597","lat":"38.709573","lon":"-9.272455","lines":["1115","1117","1122","1507","1525","1606","1725"],"schedule":{"travel_time":1,"stop_id":"120597"}},{"index":7,"name":"Av J Freitas Branco (Lgo Qta Jardim)","id":"120599","lat":"38.711078","lon":"-9.271136","lines":["1115","1117","1122","1507","1525","1606","1725"],"schedule":{"travel_time":1,"stop_id":"120599"}},{"index":8,"name":"Estr Murganhal (Escola)","id":"120905","lat":"38.712770","lon":"-9.271367","lines":["1122","1525"],"schedule":{"travel_time":1,"stop_id":"120905"}},{"index":9,"name":"Murganhal (Chafariz)","id":"120907","lat":"38.714857","lon":"-9.272573","lines":["1122","1525"],"schedule":{"travel_time":1,"stop_id":"120907"}},{"index":10,"name":"Estr Cacém (Fte X) R Qta Moura","id":"120909","lat":"38.717843","lon":"-9.275682","lines":["1122","1525"],"schedule":{"travel_time":1,"stop_id":"120909"}},{"index":11,"name":"Estr Cacém (Fte Vivendas)","id":"121127","lat":"38.720584","lon":"-9.276453","lines":["1525"],"schedule":{"travel_time":2,"stop_id":"121127"}},{"index":12,"name":"Estr Cacém - Casal Sto Ant Sol Posto","id":"121129","lat":"38.722550","lon":"-9.275233","lines":["1525"],"schedule":{"travel_time":0,"stop_id":"121129"}},{"index":13,"name":"Estr Cacém (X) R Antero Quental","id":"121131","lat":"38.726642","lon":"-9.276282","lines":["1525"],"schedule":{"travel_time":2,"stop_id":"121131"}},{"index":14,"name":"R J Sabino Sousa (Escadinhas)","id":"121133","lat":"38.729129","lon":"-9.276832","lines":["1525"],"schedule":{"travel_time":1,"stop_id":"121133"}},{"index":15,"name":"Barcarena (Bombeiros)","id":"120555","lat":"38.731767","lon":"-9.278150","lines":["1111","1520","1525","1528","1731"],"schedule":{"travel_time":1,"stop_id":"120555"}},{"index":16,"name":"Barcarena (Rotunda)","id":"120557","lat":"38.732664","lon":"-9.280044","lines":["1111","1525","1528"],"schedule":{"travel_time":1,"stop_id":"120557"}},{"index":17,"name":"Estr Cacém (Ribeira Acima)","id":"121135","lat":"38.736516","lon":"-9.282159","lines":["1525","1528"],"schedule":{"travel_time":2,"stop_id":"121135"}},{"index":18,"name":"Estr Fontaínhas (X) Fábrica Pólvora","id":"121137","lat":"38.741316","lon":"-9.284327","lines":["1525","1528"],"schedule":{"travel_time":2,"stop_id":"121137"}},{"index":19,"name":"Estr Fontaínhas 11","id":"121139","lat":"38.742610","lon":"-9.283090","lines":["1525","1528"],"schedule":{"travel_time":1,"stop_id":"121139"}},{"index":20,"name":"Av Santo António Fte 8","id":"121141","lat":"38.743661","lon":"-9.282951","lines":["1525","1528"],"schedule":{"travel_time":0,"stop_id":"121141"}},{"index":21,"name":"Tercena (e R 25 Ab)","id":"121143","lat":"38.744794","lon":"-9.283966","lines":["1525","1528"],"schedule":{"travel_time":1,"stop_id":"121143"}},{"index":22,"name":"Tercena (Av Sto António)","id":"121145","lat":"38.746287","lon":"-9.283615","lines":["1525","1528"],"schedule":{"travel_time":1,"stop_id":"121145"}},{"index":23,"name":"Av Infante D Henrique (X) R Helena de Aragão","id":"121147","lat":"38.748407","lon":"-9.283050","lines":["1525"],"schedule":{"travel_time":1,"stop_id":"121147"}},{"index":24,"name":"Av Infante D Henrique 135","id":"120522","lat":"38.750147","lon":"-9.281185","lines":["1111","1525"],"schedule":{"travel_time":1,"stop_id":"120522"}},{"index":25,"name":"Massamá - Barcarena (Estação Sul)","id":"120520","lat":"38.751366","lon":"-9.283970","lines":["1111","1525"],"schedule":{"travel_time":1,"stop_id":"120520"}}]}