{"color":"#C61D23","headsign":"Queluz - Belas (Estação)","id":"1527_0_1","long_name":"Cruz Quebrada (Estação) - Queluz (Estação)","line_id":"1527","shape_id":"379_4X7ZR","path":[{"index":1,"name":"Cruz Quebrada (Estação)","id":"121159","lat":"38.700091","lon":"-9.252176","lines":["1527"],"schedule":{"travel_time":0,"stop_id":"121159"}},{"index":2,"name":"Av Ferreira Godinho 6","id":"121161","lat":"38.701223","lon":"-9.253543","lines":["1527"],"schedule":{"travel_time":1,"stop_id":"121161"}},{"index":3,"name":"Alto Boa Viagem (Posto Combust)","id":"120333","lat":"38.703397","lon":"-9.261115","lines":["1106","1527"],"schedule":{"travel_time":2,"stop_id":"120333"}},{"index":4,"name":"Estádio Nacional (Tribuna do Estádio)","id":"120335","lat":"38.708781","lon":"-9.263810","lines":["1106","1527"],"schedule":{"travel_time":1,"stop_id":"120335"}},{"index":5,"name":"R João XXI 10","id":"120295","lat":"38.717597","lon":"-9.263256","lines":["1103","1106","1107","1111","1507","1520","1527","1528","1726","1728","1729","1730","1731","1733"],"schedule":{"travel_time":3,"stop_id":"120295"}},{"index":6,"name":"R João XXI (Igreja)","id":"120297","lat":"38.719079","lon":"-9.263025","lines":["1103","1106","1107","1111","1507","1520","1527","1528","1726","1728","1729","1730","1731","1733"],"schedule":{"travel_time":0,"stop_id":"120297"}},{"index":7,"name":"R Mouzinho Silveira 25","id":"120299","lat":"38.722013","lon":"-9.263508","lines":["1103","1106","1107","1507","1527","1726","1728","1729","1730","1733"],"schedule":{"travel_time":1,"stop_id":"120299"}},{"index":8,"name":"R Mouzinho Silveira (X) Açores","id":"120543","lat":"38.723493","lon":"-9.263602","lines":["1103","1106","1107","1111","1507","1527","1726","1728","1729","1730","1733"],"schedule":{"travel_time":0,"stop_id":"120543"}},{"index":9,"name":"R Açores 32","id":"120303","lat":"38.723270","lon":"-9.266329","lines":["1103","1106","1107","1110","1111","1507","1527","1726","1728","1729","1730","1733"],"schedule":{"travel_time":1,"stop_id":"120303"}},{"index":10,"name":"R Angra Heroísmo (Escadinhas)","id":"120305","lat":"38.721763","lon":"-9.266498","lines":["1103","1106","1107","1110","1111","1507","1520","1527","1528","1726","1728","1729","1730","1731","1733"],"schedule":{"travel_time":0,"stop_id":"120305"}},{"index":11,"name":"R Qta Bonfim (X) R Marquez Sá Bandeira","id":"120307","lat":"38.720458","lon":"-9.265822","lines":["1103","1106","1107","1110","1111","1507","1520","1527","1528","1726","1728","1729","1730","1731","1733"],"schedule":{"travel_time":0,"stop_id":"120307"}},{"index":12,"name":"Queijas (PSP)","id":"120309","lat":"38.720514","lon":"-9.263724","lines":["1103","1106","1107","1110","1111","1507","1520","1527","1528","1726","1728","1729","1730","1731","1733"],"schedule":{"travel_time":1,"stop_id":"120309"}},{"index":13,"name":"R João XXI (Igreja)","id":"120313","lat":"38.718816","lon":"-9.263157","lines":["1103","1106","1107","1110","1111","1507","1520","1527","1528","1726","1728","1729","1730","1731","1733"],"schedule":{"travel_time":0,"stop_id":"120313"}},{"index":14,"name":"R João XXI 1","id":"120296","lat":"38.717532","lon":"-9.263398","lines":["1103","1106","1107","1110","1111","1507","1520","1527","1528","1726","1728","1729","1730","1731","1733"],"schedule":{"travel_time":1,"stop_id":"120296"}},{"index":15,"name":"Av Tomás Ribeiro (Rot Queijas)","id":"120315","lat":"38.715391","lon":"-9.262512","lines":["1103","1107","1110","1507","1520","1527","1528","1605","1606","1726","1728","1730","1731"],"schedule":{"travel_time":1,"stop_id":"120315"}},{"index":16,"name":"Av Tomás Ribeiro (X) Beco dos Mouros","id":"120292","lat":"38.714581","lon":"-9.256510","lines":["1103","1107","1110","1507","1520","1527","1528","1605","1606","1726","1728","1730","1731"],"schedule":{"travel_time":1,"stop_id":"120292"}},{"index":17,"name":"Av Tomás Ribeiro (X) Tv Godinho","id":"120290","lat":"38.716036","lon":"-9.253846","lines":["1103","1107","1110","1507","1520","1527","1528","1605","1606","1726","1728","1730","1731"],"schedule":{"travel_time":0,"stop_id":"120290"}},{"index":18,"name":"Av Tomás Ribeiro 82","id":"120288","lat":"38.717430","lon":"-9.252296","lines":["1103","1107","1110","1507","1520","1527","1528","1605","1606","1726","1728","1730","1731"],"schedule":{"travel_time":1,"stop_id":"120288"}},{"index":19,"name":"Av Tomás Ribeiro (X) Sant N Sra Rocha","id":"120286","lat":"38.720707","lon":"-9.250737","lines":["1103","1107","1110","1507","1520","1527","1528","1605","1606","1726","1728","1730","1731"],"schedule":{"travel_time":1,"stop_id":"120286"}},{"index":20,"name":"Av Tomás Ribeiro 81A","id":"120284","lat":"38.723045","lon":"-9.248548","lines":["1103","1107","1110","1507","1520","1527","1528","1605","1606","1726","1728","1730","1731"],"schedule":{"travel_time":1,"stop_id":"120284"}},{"index":21,"name":"Av Tomás Ribeiro (Tv Escadinhas)","id":"120317","lat":"38.724371","lon":"-9.246609","lines":["1103","1105","1107","1109","1110","1507","1520","1522","1527","1528","1605","1606","1726","1728","1730","1731"],"schedule":{"travel_time":0,"stop_id":"120317"}},{"index":22,"name":"R 5 Outubro 13 (Lgo Pátria Nova)","id":"120279","lat":"38.725387","lon":"-9.246036","lines":["1103","1105","1107","1109","1110","1507","1520","1522","1527","1528","1605","1606","1726","1728","1730","1731"],"schedule":{"travel_time":1,"stop_id":"120279"}},{"index":23,"name":"R 5 Outubro 2","id":"120281","lat":"38.725095","lon":"-9.249104","lines":["1103","1105","1107","1109","1110","1507","1520","1522","1527","1528","1605","1606","1726","1728","1730","1731"],"schedule":{"travel_time":0,"stop_id":"120281"}},{"index":24,"name":"Estr Queluz (Qta Gandarela)","id":"120363","lat":"38.725204","lon":"-9.253236","lines":["1105","1109","1522","1527"],"schedule":{"travel_time":1,"stop_id":"120363"}},{"index":25,"name":"Estr Queluz 95","id":"120365","lat":"38.730803","lon":"-9.258445","lines":["1105","1522","1527"],"schedule":{"travel_time":2,"stop_id":"120365"}},{"index":26,"name":"Estr Queluz","id":"120367","lat":"38.733308","lon":"-9.259666","lines":["1105","1522","1527"],"schedule":{"travel_time":1,"stop_id":"120367"}},{"index":27,"name":"Valejas (X) Estr Milit","id":"120369","lat":"38.736519","lon":"-9.259814","lines":["1105","1522","1527"],"schedule":{"travel_time":0,"stop_id":"120369"}},{"index":28,"name":"Estr Militar (Casal Martins)","id":"120371","lat":"38.737651","lon":"-9.263631","lines":["1105","1522","1527"],"schedule":{"travel_time":2,"stop_id":"120371"}},{"index":29,"name":"Estr Militar 1","id":"120373","lat":"38.734992","lon":"-9.264776","lines":["1105","1522","1527"],"schedule":{"travel_time":0,"stop_id":"120373"}},{"index":30,"name":"Valejas Cima","id":"120375","lat":"38.735611","lon":"-9.267373","lines":["1105","1522","1527"],"schedule":{"travel_time":1,"stop_id":"120375"}},{"index":31,"name":"R Trabalho (Fábricas)","id":"120377","lat":"38.738220","lon":"-9.269267","lines":["1105","1107","1111","1522","1527","1528","1717","1729","1730"],"schedule":{"travel_time":1,"stop_id":"120377"}},{"index":32,"name":"R Mário Castelhano 40","id":"120379","lat":"38.740304","lon":"-9.268346","lines":["1105","1107","1111","1522","1527","1528","1717","1729","1730"],"schedule":{"travel_time":1,"stop_id":"120379"}},{"index":33,"name":"R Mario Castelhano (Consiglieri Park)","id":"120381","lat":"38.741741","lon":"-9.269270","lines":["1105","1107","1111","1522","1527","1528","1717","1729","1730"],"schedule":{"travel_time":0,"stop_id":"120381"}},{"index":34,"name":"Estr Consiglieri Pedroso 69","id":"120383","lat":"38.742764","lon":"-9.267929","lines":["1105","1107","1111","1522","1527","1528","1530","1601","1717","1729","1730"],"schedule":{"travel_time":0,"stop_id":"120383"}},{"index":35,"name":"Queluz Baixo (CC)","id":"120385","lat":"38.744460","lon":"-9.266581","lines":["1522","1527","1528","1530","1601","1717"],"schedule":{"travel_time":1,"stop_id":"120385"}},{"index":36,"name":"Estr Consigl Pedroso (Esc Primária)","id":"121097","lat":"38.745938","lon":"-9.265228","lines":["1522","1527","1528","1530","1601","1717"],"schedule":{"travel_time":0,"stop_id":"121097"}},{"index":37,"name":"Monte Abraão (Estação) P2","id":"172185","lat":"38.755576","lon":"-9.265855","lines":["1518","1527"],"schedule":{"travel_time":3,"stop_id":"172185"}},{"index":38,"name":"R Timor 2","id":"170923","lat":"38.756556","lon":"-9.261663","lines":["1224","1230","1236","1512","1518","1527","1528","1530","1601","1715","1717","1721"],"schedule":{"travel_time":1,"stop_id":"170923"}},{"index":39,"name":"Queluz-Belas (Estação)","id":"172477","lat":"38.759508","lon":"-9.257205","lines":["1236","1527","1528"],"schedule":{"travel_time":2,"stop_id":"172477"}}]}