{"color":"#C61D23","headsign":"Queluz (4 Caminhos)","id":"1530_0_1","long_name":"Oeiras (Estação Norte) - Queluz (4 Caminhos)","line_id":"1530","shape_id":"384_4X7ZR","path":[{"index":1,"name":"Oeiras (Estação) P7 Entrada Norte","id":"120729","lat":"38.688787","lon":"-9.316630","lines":["1121","1530","1601","1605","1606","1725"],"schedule":{"travel_time":0,"stop_id":"120729"}},{"index":2,"name":"R Desembargador Faria (Ina)","id":"120731","lat":"38.691720","lon":"-9.314050","lines":["1120","1121","1523","1529","1530","1601","1604","1605","1606","1725"],"schedule":{"travel_time":1,"stop_id":"120731"}},{"index":3,"name":"R Cândido dos Reis 84","id":"120733","lat":"38.692621","lon":"-9.311273","lines":["1120","1121","1523","1529","1530","1601","1604","1605","1606","1725"],"schedule":{"travel_time":1,"stop_id":"120733"}},{"index":4,"name":"R Figueirinha 14","id":"121119","lat":"38.693820","lon":"-9.308050","lines":["1523","1529","1530","1601"],"schedule":{"travel_time":0,"stop_id":"121119"}},{"index":5,"name":"R Figueirinha 26","id":"120747","lat":"38.697254","lon":"-9.306189","lines":["1120","1121","1523","1529","1530","1601","1612","1725"],"schedule":{"travel_time":1,"stop_id":"120747"}},{"index":6,"name":"Av Rio Janeiro (Cemitério)","id":"121116","lat":"38.698194","lon":"-9.306869","lines":["1523","1529","1530","1601"],"schedule":{"travel_time":1,"stop_id":"121116"}},{"index":7,"name":"Pça Com Henrique Moreira Rato 34B","id":"121114","lat":"38.697380","lon":"-9.309347","lines":["1523","1529","1530","1601"],"schedule":{"travel_time":0,"stop_id":"121114"}},{"index":8,"name":"Av Rio Janeiro (X) R Gaspar Lemos","id":"121112","lat":"38.697791","lon":"-9.311384","lines":["1523","1529","1530","1601"],"schedule":{"travel_time":1,"stop_id":"121112"}},{"index":9,"name":"Estr Oeiras (Posto Combust)","id":"121121","lat":"38.701703","lon":"-9.308260","lines":["1523","1529","1530","1601","1605","1606"],"schedule":{"travel_time":1,"stop_id":"121121"}},{"index":10,"name":"Estr de Oeiras 10","id":"120859","lat":"38.705316","lon":"-9.306032","lines":["1529","1530","1601"],"schedule":{"travel_time":1,"stop_id":"120859"}},{"index":11,"name":"Estr Oeiras (Rot R Cacilhas)","id":"121287","lat":"38.708941","lon":"-9.305523","lines":["1529","1530","1601"],"schedule":{"travel_time":1,"stop_id":"121287"}},{"index":12,"name":"Estr Oeiras (Inst Condessa de Cuba)","id":"121171","lat":"38.711759","lon":"-9.305118","lines":["1529","1530","1601"],"schedule":{"travel_time":1,"stop_id":"121171"}},{"index":13,"name":"Estr Oeiras (X) R Sta Casa Misericordia","id":"121181","lat":"38.713443","lon":"-9.304298","lines":["1530","1601"],"schedule":{"travel_time":0,"stop_id":"121181"}},{"index":14,"name":"Porto Salvo (Centro)","id":"120919","lat":"38.716223","lon":"-9.301603","lines":["1123","1520","1521","1523","1530","1601","1610","1616","1731","1733"],"schedule":{"travel_time":2,"stop_id":"120919"}},{"index":15,"name":"R C Rio Maior (Igreja)","id":"120921","lat":"38.719011","lon":"-9.302212","lines":["1123","1125","1520","1521","1523","1530","1601","1610","1611","1616","1731","1733"],"schedule":{"travel_time":0,"stop_id":"120921"}},{"index":16,"name":"Estr Leião (X) Av Eng Arantes Oliveira","id":"121087","lat":"38.723125","lon":"-9.302481","lines":["1125","1520","1521","1523","1530","1601","1731","1733"],"schedule":{"travel_time":1,"stop_id":"121087"}},{"index":17,"name":"Leião (X) Talaíde","id":"121019","lat":"38.729376","lon":"-9.301270","lines":["1125","1523","1530","1531","1601","1616","1617","1733"],"schedule":{"travel_time":2,"stop_id":"121019"}},{"index":18,"name":"Estr Leceia (X) Estr Leião","id":"121123","lat":"38.732273","lon":"-9.298034","lines":["1523","1529","1530","1531","1601","1617","1733"],"schedule":{"travel_time":1,"stop_id":"121123"}},{"index":19,"name":"Estr Leceia Viv Terranova","id":"121183","lat":"38.731467","lon":"-9.292038","lines":["1530","1531","1601","1617"],"schedule":{"travel_time":1,"stop_id":"121183"}},{"index":20,"name":"Estr Leceia (Fte X) Caminho Serra","id":"120576","lat":"38.730577","lon":"-9.288452","lines":["1111","1530","1531","1601","1617"],"schedule":{"travel_time":1,"stop_id":"120576"}},{"index":21,"name":"Leceia (Igreja)","id":"121086","lat":"38.728374","lon":"-9.284442","lines":["1119","1520","1525","1530","1601","1731"],"schedule":{"travel_time":1,"stop_id":"121086"}},{"index":22,"name":"R 7 Junho Fte 32","id":"121084","lat":"38.730376","lon":"-9.281901","lines":["1520","1525","1530","1601","1731"],"schedule":{"travel_time":1,"stop_id":"121084"}},{"index":23,"name":"Barcarena (Ponte)","id":"120560","lat":"38.732311","lon":"-9.281058","lines":["1111","1520","1525","1530","1601","1731"],"schedule":{"travel_time":0,"stop_id":"120560"}},{"index":24,"name":"R Bomb Voluntários (Recorte)","id":"121283","lat":"38.737630","lon":"-9.278845","lines":["1530","1601"],"schedule":{"travel_time":2,"stop_id":"121283"}},{"index":25,"name":"Estr Consigl Pedroso 123","id":"120533","lat":"38.740268","lon":"-9.272985","lines":["1111","1528","1530","1601","1717"],"schedule":{"travel_time":1,"stop_id":"120533"}},{"index":26,"name":"Estr Consiglieri Pedroso 81","id":"120535","lat":"38.741636","lon":"-9.269710","lines":["1111","1530","1601"],"schedule":{"travel_time":1,"stop_id":"120535"}},{"index":27,"name":"Estr Consiglieri Pedroso 69","id":"120383","lat":"38.742764","lon":"-9.267929","lines":["1105","1107","1111","1522","1527","1528","1530","1601","1717","1729","1730"],"schedule":{"travel_time":1,"stop_id":"120383"}},{"index":28,"name":"Queluz Baixo (CC)","id":"120385","lat":"38.744460","lon":"-9.266581","lines":["1522","1527","1528","1530","1601","1717"],"schedule":{"travel_time":0,"stop_id":"120385"}},{"index":29,"name":"Estr Consigl Pedroso (Esc Primária)","id":"121097","lat":"38.745938","lon":"-9.265228","lines":["1522","1527","1528","1530","1601","1717"],"schedule":{"travel_time":1,"stop_id":"121097"}},{"index":30,"name":"Monte Abraão (Estação) P3","id":"172199","lat":"38.755591","lon":"-9.265790","lines":["1528","1530","1601"],"schedule":{"travel_time":2,"stop_id":"172199"}},{"index":31,"name":"R Timor 2","id":"170923","lat":"38.756556","lon":"-9.261663","lines":["1224","1230","1236","1512","1518","1527","1528","1530","1601","1715","1717","1721"],"schedule":{"travel_time":1,"stop_id":"170923"}},{"index":32,"name":"Av Elias Garcia 219","id":"170925","lat":"38.757352","lon":"-9.258757","lines":["1230","1512","1515","1518","1530","1601","1715","1716","1720","1721"],"schedule":{"travel_time":1,"stop_id":"170925"}},{"index":33,"name":"Queluz (4 Caminhos)","id":"172499","lat":"38.756331","lon":"-9.253467","lines":["1515","1518","1530","1601","1715","1717","1720","1721"],"schedule":{"travel_time":1,"stop_id":"172499"}}]}