{"color":"#C61D23","headsign":"Carcavelos (Estação)","id":"1604_0_2","long_name":"Carcavelos (Estação) - Parede (Terminal)","line_id":"1604","shape_id":"155_4X7ZR","path":[{"index":1,"name":"Parede Terminal Rodoviário","id":"050046","lat":"38.691818","lon":"-9.359241","lines":["1604","1638"],"schedule":{"travel_time":0,"stop_id":"050046"}},{"index":2,"name":"Av República 1400 (Estação Parede)","id":"050047","lat":"38.690400","lon":"-9.356268","lines":["1604","1638"],"schedule":{"travel_time":1,"stop_id":"050047"}},{"index":3,"name":"Av República 1153","id":"050049","lat":"38.689633","lon":"-9.353563","lines":["1604","1638"],"schedule":{"travel_time":0,"stop_id":"050049"}},{"index":4,"name":"R Machado dos Santos 514","id":"050051","lat":"38.690414","lon":"-9.351763","lines":["1604","1638"],"schedule":{"travel_time":1,"stop_id":"050051"}},{"index":5,"name":"R José Elias Garcia 37","id":"050040","lat":"38.692276","lon":"-9.354057","lines":["1604","1638"],"schedule":{"travel_time":1,"stop_id":"050040"}},{"index":6,"name":"Av Bombeiros Voluntários 238","id":"050038","lat":"38.694549","lon":"-9.353475","lines":["1604"],"schedule":{"travel_time":1,"stop_id":"050038"}},{"index":7,"name":"Av Bombeiros Voluntários 25","id":"050035","lat":"38.698263","lon":"-9.351826","lines":["1604"],"schedule":{"travel_time":1,"stop_id":"050035"}},{"index":8,"name":"Av 25 de Abril 804 (Depósito Gás)","id":"050034","lat":"38.699306","lon":"-9.349117","lines":["1604"],"schedule":{"travel_time":1,"stop_id":"050034"}},{"index":9,"name":"Av 25 de Abril 1 (Rotunda)","id":"050032","lat":"38.701604","lon":"-9.346054","lines":["1604"],"schedule":{"travel_time":1,"stop_id":"050032"}},{"index":10,"name":"R do Zambujal 169","id":"050030","lat":"38.703545","lon":"-9.345977","lines":["1604"],"schedule":{"travel_time":0,"stop_id":"050030"}},{"index":11,"name":"R do Zambujal 201A","id":"050028","lat":"38.703451","lon":"-9.343004","lines":["1604"],"schedule":{"travel_time":1,"stop_id":"050028"}},{"index":12,"name":"Lgo de São Domingos","id":"050026","lat":"38.701954","lon":"-9.341176","lines":["1604"],"schedule":{"travel_time":1,"stop_id":"050026"}},{"index":13,"name":"R Afonso de Albuquerque 104","id":"050024","lat":"38.700837","lon":"-9.338914","lines":["1604","1614","1615"],"schedule":{"travel_time":0,"stop_id":"050024"}},{"index":14,"name":"Av D F Sá Carneiro 858 (Escola)","id":"050055","lat":"38.699448","lon":"-9.336175","lines":["1604","1614","1615"],"schedule":{"travel_time":1,"stop_id":"050055"}},{"index":15,"name":"Av S Miguel das Encostas 230","id":"050425","lat":"38.701566","lon":"-9.335080","lines":["1604"],"schedule":{"travel_time":0,"stop_id":"050425"}},{"index":16,"name":"Av S Miguel das Encostas Fte 499","id":"050426","lat":"38.703906","lon":"-9.336074","lines":["1604"],"schedule":{"travel_time":1,"stop_id":"050426"}},{"index":17,"name":"R Santa Isabel Fte 32","id":"050427","lat":"38.702679","lon":"-9.336779","lines":["1604"],"schedule":{"travel_time":0,"stop_id":"050427"}},{"index":18,"name":"Av S Miguel das Encostas 249","id":"050428","lat":"38.701359","lon":"-9.335261","lines":["1604"],"schedule":{"travel_time":1,"stop_id":"050428"}},{"index":19,"name":"Av Gonçalves Zarco","id":"050020","lat":"38.697784","lon":"-9.328809","lines":["1604","1608","1609","1614","1638"],"schedule":{"travel_time":2,"stop_id":"050020"}},{"index":20,"name":"Av Gonçalves Zarco 245","id":"050057","lat":"38.698173","lon":"-9.326709","lines":["1604","1608","1609","1638"],"schedule":{"travel_time":1,"stop_id":"050057"}},{"index":21,"name":"Av Gonçalves Zarco 472A","id":"050059","lat":"38.699747","lon":"-9.325337","lines":["1604","1608","1609","1638"],"schedule":{"travel_time":0,"stop_id":"050059"}},{"index":22,"name":"R Ilha de Santa Maria 166","id":"050016","lat":"38.700170","lon":"-9.323731","lines":["1604"],"schedule":{"travel_time":1,"stop_id":"050016"}},{"index":23,"name":"R Escolas (Fte Esc Conde de Oeiras)","id":"121200","lat":"38.697910","lon":"-9.324355","lines":["1604"],"schedule":{"travel_time":0,"stop_id":"121200"}},{"index":24,"name":"Rotunda Quinta do Marquês","id":"121201","lat":"38.696484","lon":"-9.326094","lines":["1121","1604","1614"],"schedule":{"travel_time":1,"stop_id":"121201"}},{"index":25,"name":"Av República 15","id":"121198","lat":"38.694900","lon":"-9.324844","lines":["1604","1614","1615"],"schedule":{"travel_time":0,"stop_id":"121198"}},{"index":26,"name":"Av Salvador Allende 35 (C Saúde)","id":"120877","lat":"38.692825","lon":"-9.318352","lines":["1120","1529","1604","1614","1615"],"schedule":{"travel_time":2,"stop_id":"120877"}},{"index":27,"name":"Oeiras (Estação) P8 Entrada Norte","id":"121270","lat":"38.688615","lon":"-9.316617","lines":["1120","1523","1529","1604","1614","1615"],"schedule":{"travel_time":1,"stop_id":"121270"}},{"index":28,"name":"R Desembargador Faria (Ina)","id":"120731","lat":"38.691720","lon":"-9.314050","lines":["1120","1121","1523","1529","1530","1601","1604","1605","1606","1725"],"schedule":{"travel_time":1,"stop_id":"120731"}},{"index":29,"name":"R Cândido dos Reis 84","id":"120733","lat":"38.692621","lon":"-9.311273","lines":["1120","1121","1523","1529","1530","1601","1604","1605","1606","1725"],"schedule":{"travel_time":1,"stop_id":"120733"}},{"index":30,"name":"R Cândido dos Reis - PSP","id":"121191","lat":"38.693324","lon":"-9.307790","lines":["1121","1604","1725"],"schedule":{"travel_time":1,"stop_id":"121191"}},{"index":31,"name":"Av Moçambique 12","id":"120845","lat":"38.694338","lon":"-9.304134","lines":["1604"],"schedule":{"travel_time":1,"stop_id":"120845"}},{"index":32,"name":"Av Moçambique - (PSP)","id":"121193","lat":"38.695176","lon":"-9.302550","lines":["1604"],"schedule":{"travel_time":0,"stop_id":"121193"}},{"index":33,"name":"R Salvador da Baía - Jardins dos Arcos","id":"120847","lat":"38.696193","lon":"-9.302443","lines":["1604"],"schedule":{"travel_time":0,"stop_id":"120847"}},{"index":34,"name":"R São Salvador da Baía 24","id":"120849","lat":"38.698296","lon":"-9.302696","lines":["1604"],"schedule":{"travel_time":1,"stop_id":"120849"}},{"index":35,"name":"Av A Bern Cabral Macedo (Oeiras Parque)","id":"120619","lat":"38.704195","lon":"-9.301642","lines":["1115","1117","1120","1604","1606"],"schedule":{"travel_time":2,"stop_id":"120619"}},{"index":36,"name":"Oeiras Parque (Posto Combust)","id":"120898","lat":"38.703133","lon":"-9.304547","lines":["1601","1604","1612"],"schedule":{"travel_time":1,"stop_id":"120898"}},{"index":37,"name":"Oeiras (B Augusto Castro)","id":"120771","lat":"38.695989","lon":"-9.306653","lines":["1120","1523","1529","1530","1601","1604","1612","1725"],"schedule":{"travel_time":1,"stop_id":"120771"}},{"index":38,"name":"Av Embaixador Aug Castro 18 D","id":"121195","lat":"38.695825","lon":"-9.309986","lines":["1523","1529","1530","1601","1604","1725"],"schedule":{"travel_time":1,"stop_id":"121195"}},{"index":39,"name":"Av Emb Aug Castro (X) R Junção bem","id":"120781","lat":"38.695643","lon":"-9.312026","lines":["1120","1523","1529","1530","1601","1604","1605","1606","1725"],"schedule":{"travel_time":1,"stop_id":"120781"}},{"index":40,"name":"Lgo Avião Lusitania 7","id":"120783","lat":"38.693472","lon":"-9.313673","lines":["1120","1523","1529","1530","1601","1604","1605","1606","1725"],"schedule":{"travel_time":0,"stop_id":"120783"}},{"index":41,"name":"R José Diogo Silva (Parque)","id":"120815","lat":"38.687219","lon":"-9.314993","lines":["1120","1121","1523","1529","1530","1601","1604","1605","1606","1725"],"schedule":{"travel_time":2,"stop_id":"120815"}},{"index":42,"name":"Oeiras (Estação) P8 Entrada Norte","id":"121270","lat":"38.688615","lon":"-9.316617","lines":["1120","1523","1529","1604","1614","1615"],"schedule":{"travel_time":1,"stop_id":"121270"}},{"index":43,"name":"R Qta Grande 3 - Inst Gulbenkian","id":"120817","lat":"38.690776","lon":"-9.315991","lines":["1120","1121","1529","1604","1608","1609","1614","1615","1638"],"schedule":{"travel_time":0,"stop_id":"120817"}},{"index":44,"name":"R dos Lagares da Quinta 17","id":"120819","lat":"38.693094","lon":"-9.317122","lines":["1120","1121","1529","1604"],"schedule":{"travel_time":1,"stop_id":"120819"}},{"index":45,"name":"Av Salvador Allende 35 (C Saúde)","id":"120877","lat":"38.692825","lon":"-9.318352","lines":["1120","1529","1604","1614","1615"],"schedule":{"travel_time":2,"stop_id":"120877"}},{"index":46,"name":"Oeiras (Estação) P1 Entrada Norte","id":"120787","lat":"38.688535","lon":"-9.317854","lines":["1120","1529","1604","1608","1609","1614","1615","1638"],"schedule":{"travel_time":1,"stop_id":"120787"}},{"index":47,"name":"Oeiras (Estação) P9 Entrada Sul","id":"121187","lat":"38.688143","lon":"-9.317519","lines":["1121","1601","1604","1605","1606","1612","1613","1614","1615"],"schedule":{"travel_time":1,"stop_id":"121187"}},{"index":48,"name":"Av Inf D Henrique (Clínica)","id":"121207","lat":"38.687033","lon":"-9.318752","lines":["1601","1604","1605","1606","1613","1614","1615"],"schedule":{"travel_time":0,"stop_id":"121207"}},{"index":49,"name":"Av Infante D Henrique (Quartel)","id":"120879","lat":"38.686308","lon":"-9.319189","lines":["1601","1604","1605","1606","1613","1614","1615"],"schedule":{"travel_time":0,"stop_id":"120879"}},{"index":50,"name":"Av D João I 15 (Igreja)","id":"120805","lat":"38.684883","lon":"-9.320586","lines":["1121","1601","1604"],"schedule":{"travel_time":1,"stop_id":"120805"}},{"index":51,"name":"Av D João I 39 (Tribunal)","id":"120807","lat":"38.683932","lon":"-9.319290","lines":["1121","1601","1604"],"schedule":{"travel_time":0,"stop_id":"120807"}},{"index":52,"name":"R D Filipa Lencastre 2","id":"120799","lat":"38.683304","lon":"-9.319590","lines":["1121","1601","1604"],"schedule":{"travel_time":0,"stop_id":"120799"}},{"index":53,"name":"R D Filipa Lencastre 10","id":"121189","lat":"38.683743","lon":"-9.321301","lines":["1121","1601","1604"],"schedule":{"travel_time":1,"stop_id":"121189"}},{"index":54,"name":"Av Inf D Henrique 6","id":"121209","lat":"38.683511","lon":"-9.321899","lines":["1601","1604","1605","1606","1613","1614","1615"],"schedule":{"travel_time":0,"stop_id":"121209"}},{"index":55,"name":"Oeiras (Medrosa)","id":"121186","lat":"38.682865","lon":"-9.323132","lines":["1601","1604","1605","1606","1613","1614","1615"],"schedule":{"travel_time":0,"stop_id":"121186"}},{"index":56,"name":"Av Francisco Lucas Pires 239","id":"050014","lat":"38.684817","lon":"-9.326569","lines":["1601","1604","1605","1606","1613","1614","1615"],"schedule":{"travel_time":1,"stop_id":"050014"}},{"index":57,"name":"Av Dr Francisco Lucas Pires (X) R Flora","id":"050001","lat":"38.685118","lon":"-9.328584","lines":["1601","1604","1605","1606","1613","1614","1615"],"schedule":{"travel_time":1,"stop_id":"050001"}},{"index":58,"name":"Estr Torre Fte 626","id":"050423","lat":"38.683579","lon":"-9.330281","lines":["1601","1604","1605","1606","1614","1615"],"schedule":{"travel_time":0,"stop_id":"050423"}},{"index":59,"name":"R Inglaterra 233","id":"050003","lat":"38.682401","lon":"-9.329654","lines":["1601","1604","1605","1606","1613","1614","1615"],"schedule":{"travel_time":1,"stop_id":"050003"}},{"index":60,"name":"Nova SBE","id":"050005","lat":"38.681218","lon":"-9.326013","lines":["1604","1622"],"schedule":{"travel_time":0,"stop_id":"050005"}},{"index":61,"name":"R Inglaterra 233","id":"050004","lat":"38.682389","lon":"-9.329503","lines":["1601","1604","1605","1606","1613","1614","1615"],"schedule":{"travel_time":2,"stop_id":"050004"}},{"index":62,"name":"Estr da Torre 1","id":"050012","lat":"38.685506","lon":"-9.330634","lines":["1604","1613","1614"],"schedule":{"travel_time":1,"stop_id":"050012"}},{"index":63,"name":"Carcavelos (Estação)","id":"050418","lat":"38.687574","lon":"-9.336967","lines":["1604","1612","1614","1615"],"schedule":{"travel_time":1,"stop_id":"050418"}}]}