{"color":"#C61D23","headsign":"Oeiras (Estação Norte)","id":"1604_1_3","long_name":"Oeiras (Estação Norte) | Circular","line_id":"1604","shape_id":"159_4X7ZR","path":[{"index":1,"name":"Oeiras (Estação) P8 Entrada Norte","id":"121270","lat":"38.688615","lon":"-9.316617","lines":["1120","1523","1529","1604","1614","1615"],"schedule":{"travel_time":0,"stop_id":"121270"}},{"index":2,"name":"R Desembargador Faria (Ina)","id":"120731","lat":"38.691720","lon":"-9.314050","lines":["1120","1121","1523","1529","1530","1601","1604","1605","1606","1725"],"schedule":{"travel_time":1,"stop_id":"120731"}},{"index":3,"name":"R Cândido dos Reis 84","id":"120733","lat":"38.692621","lon":"-9.311273","lines":["1120","1121","1523","1529","1530","1601","1604","1605","1606","1725"],"schedule":{"travel_time":1,"stop_id":"120733"}},{"index":4,"name":"R Cândido dos Reis - PSP","id":"121191","lat":"38.693324","lon":"-9.307790","lines":["1121","1604","1725"],"schedule":{"travel_time":1,"stop_id":"121191"}},{"index":5,"name":"Av Moçambique 12","id":"120845","lat":"38.694338","lon":"-9.304134","lines":["1604"],"schedule":{"travel_time":1,"stop_id":"120845"}},{"index":6,"name":"Av Moçambique - (PSP)","id":"121193","lat":"38.695176","lon":"-9.302550","lines":["1604"],"schedule":{"travel_time":1,"stop_id":"121193"}},{"index":7,"name":"R Salvador da Baía - Jardins dos Arcos","id":"120847","lat":"38.696193","lon":"-9.302443","lines":["1604"],"schedule":{"travel_time":0,"stop_id":"120847"}},{"index":8,"name":"Av Brasília 33","id":"120752","lat":"38.697669","lon":"-9.303095","lines":["1120","1604","1725"],"schedule":{"travel_time":0,"stop_id":"120752"}},{"index":9,"name":"Oeiras (Bº Augusto Castro)","id":"120750","lat":"38.697563","lon":"-9.305221","lines":["1120","1604","1725"],"schedule":{"travel_time":1,"stop_id":"120750"}},{"index":10,"name":"Oeiras (B Augusto Castro)","id":"120771","lat":"38.695989","lon":"-9.306653","lines":["1120","1523","1529","1530","1601","1604","1612","1725"],"schedule":{"travel_time":2,"stop_id":"120771"}},{"index":11,"name":"Av Embaixador Aug Castro 18 D","id":"121195","lat":"38.695825","lon":"-9.309986","lines":["1523","1529","1530","1601","1604","1725"],"schedule":{"travel_time":0,"stop_id":"121195"}},{"index":12,"name":"Av Emb Aug Castro (X) R Junção bem","id":"120781","lat":"38.695643","lon":"-9.312026","lines":["1120","1523","1529","1530","1601","1604","1605","1606","1725"],"schedule":{"travel_time":1,"stop_id":"120781"}},{"index":13,"name":"Lgo Avião Lusitania 7","id":"120783","lat":"38.693472","lon":"-9.313673","lines":["1120","1523","1529","1530","1601","1604","1605","1606","1725"],"schedule":{"travel_time":1,"stop_id":"120783"}},{"index":14,"name":"R José Diogo Silva (Parque)","id":"120815","lat":"38.687219","lon":"-9.314993","lines":["1120","1121","1523","1529","1530","1601","1604","1605","1606","1725"],"schedule":{"travel_time":2,"stop_id":"120815"}},{"index":15,"name":"Oeiras (Estação) P8 Entrada Norte","id":"121270","lat":"38.688615","lon":"-9.316617","lines":["1120","1523","1529","1604","1614","1615"],"schedule":{"travel_time":0,"stop_id":"121270"}},{"index":16,"name":"R Qta Grande 3 - Inst Gulbenkian","id":"120817","lat":"38.690776","lon":"-9.315991","lines":["1120","1121","1529","1604","1608","1609","1614","1615","1638"],"schedule":{"travel_time":1,"stop_id":"120817"}},{"index":17,"name":"R dos Lagares da Quinta 17","id":"120819","lat":"38.693094","lon":"-9.317122","lines":["1120","1121","1529","1604"],"schedule":{"travel_time":1,"stop_id":"120819"}},{"index":18,"name":"Av Salvador Allende 35 (C Saúde)","id":"120877","lat":"38.692825","lon":"-9.318352","lines":["1120","1529","1604","1614","1615"],"schedule":{"travel_time":1,"stop_id":"120877"}},{"index":19,"name":"Oeiras (Estação) P1 Entrada Norte","id":"120787","lat":"38.688535","lon":"-9.317854","lines":["1120","1529","1604","1608","1609","1614","1615","1638"],"schedule":{"travel_time":1,"stop_id":"120787"}}]}