{"color":"#C61D23","headsign":"Carcavelos (SBE)","id":"1605_0_1","long_name":"Carnaxide (Av. João Paulo II) - Carcavelos (Nova SBE) via A5","line_id":"1605","shape_id":"280_4X7ZR","path":[{"index":1,"name":"Carnaxide (Urbanização Norte)","id":"121213","lat":"38.733787","lon":"-9.229817","lines":["1605","1606"],"schedule":{"travel_time":0,"stop_id":"121213"}},{"index":2,"name":"R Qta do Salredo","id":"121215","lat":"38.730885","lon":"-9.225611","lines":["1605","1606"],"schedule":{"travel_time":2,"stop_id":"121215"}},{"index":3,"name":"R Qta do Salredo","id":"121217","lat":"38.728269","lon":"-9.222150","lines":["1605","1606"],"schedule":{"travel_time":1,"stop_id":"121217"}},{"index":4,"name":"Rua da Quinta do Salrego (Zona Comercial)","id":"123132","lat":"38.726309","lon":"-9.217681","lines":["1101","1501","1504","1605","1606","1722"],"schedule":{"travel_time":1,"stop_id":"123132"}},{"index":5,"name":"Av Cavaleiros 70","id":"120005","lat":"38.726517","lon":"-9.215945","lines":["1101","1504","1605","1606","1722"],"schedule":{"travel_time":0,"stop_id":"120005"}},{"index":6,"name":"R Qta Paizinho 8","id":"120007","lat":"38.723812","lon":"-9.215444","lines":["1101","1503","1504","1605","1606","1713","1722","1726","1728","1730"],"schedule":{"travel_time":1,"stop_id":"120007"}},{"index":7,"name":"R Qta Paizinho 11","id":"120009","lat":"38.722314","lon":"-9.217916","lines":["1101","1503","1504","1605","1606","1713","1722","1726","1728","1730"],"schedule":{"travel_time":1,"stop_id":"120009"}},{"index":8,"name":"R Cincinato da Costa 39","id":"120011","lat":"38.720288","lon":"-9.219559","lines":["1101","1503","1504","1605","1606","1722","1726","1728","1730"],"schedule":{"travel_time":0,"stop_id":"120011"}},{"index":9,"name":"Estr Portela 45","id":"120013","lat":"38.721288","lon":"-9.221364","lines":["1101","1503","1504","1605","1606","1722","1726","1728","1730"],"schedule":{"travel_time":1,"stop_id":"120013"}},{"index":10,"name":"Estr Portela (Esc Primária)","id":"120015","lat":"38.722379","lon":"-9.224595","lines":["1101","1503","1504","1605","1606","1722","1726","1728","1730"],"schedule":{"travel_time":1,"stop_id":"120015"}},{"index":11,"name":"R Cravos Abril (P Desp Carlos Queiroz)","id":"120017","lat":"38.723790","lon":"-9.225990","lines":["1101","1109","1503","1504","1605","1606","1722","1726","1728","1730"],"schedule":{"travel_time":0,"stop_id":"120017"}},{"index":12,"name":"R Cravos Abril (X) Liberdade","id":"120019","lat":"38.724048","lon":"-9.228229","lines":["1101","1503","1504","1605","1606","1722","1726","1728","1730"],"schedule":{"travel_time":1,"stop_id":"120019"}},{"index":13,"name":"Estr Outurela (Parque Holanda)","id":"120461","lat":"38.724532","lon":"-9.231484","lines":["1109","1503","1605","1606"],"schedule":{"travel_time":0,"stop_id":"120461"}},{"index":14,"name":"Av Prof Rein Santos (Edif S Paulo)","id":"120035","lat":"38.725609","lon":"-9.234424","lines":["1101","1103","1105","1107","1109","1110","1502","1503","1504","1522","1605","1606","1722","1723","1726","1728","1730"],"schedule":{"travel_time":1,"stop_id":"120035"}},{"index":15,"name":"Av Prof Reinaldo Santos (Hosp Sta Cruz)","id":"120037","lat":"38.727377","lon":"-9.234218","lines":["1101","1103","1105","1107","1109","1110","1502","1503","1504","1522","1605","1606","1722","1723","1726","1728","1730"],"schedule":{"travel_time":1,"stop_id":"120037"}},{"index":16,"name":"R Manuel Teixeira Gomes (Bombeiros)","id":"120039","lat":"38.728748","lon":"-9.236794","lines":["1101","1103","1105","1107","1109","1110","1502","1503","1504","1522","1605","1606","1722","1723","1726","1728","1730"],"schedule":{"travel_time":0,"stop_id":"120039"}},{"index":17,"name":"R Manuel Teixeira Gomes 23A","id":"120473","lat":"38.728194","lon":"-9.238484","lines":["1101","1103","1105","1107","1109","1110","1502","1503","1504","1522","1605","1606","1722","1723","1726","1728","1730"],"schedule":{"travel_time":1,"stop_id":"120473"}},{"index":18,"name":"R Aquilino Ribeiro 7","id":"120041","lat":"38.727662","lon":"-9.240078","lines":["1101","1105","1110","1503","1504","1522","1605","1606","1722","1726","1728","1730"],"schedule":{"travel_time":0,"stop_id":"120041"}},{"index":19,"name":"R Aquilino Ribeiro 20","id":"120043","lat":"38.728511","lon":"-9.241654","lines":["1101","1105","1110","1503","1504","1522","1605","1606","1722","1726","1728","1730"],"schedule":{"travel_time":1,"stop_id":"120043"}},{"index":20,"name":"R Aquilino Ribeiro (Esc Preparatória)","id":"120045","lat":"38.728850","lon":"-9.244842","lines":["1101","1105","1110","1503","1504","1522","1605","1606","1722","1726","1728","1730"],"schedule":{"travel_time":0,"stop_id":"120045"}},{"index":21,"name":"Carnaxide (Av Portugal)","id":"120361","lat":"38.726557","lon":"-9.244423","lines":["1105","1507","1522","1605","1606","1726","1728","1730"],"schedule":{"travel_time":1,"stop_id":"120361"}},{"index":22,"name":"R 5 Outubro 13 (Lgo Pátria Nova)","id":"120279","lat":"38.725387","lon":"-9.246036","lines":["1103","1105","1107","1109","1110","1507","1520","1522","1527","1528","1605","1606","1726","1728","1730","1731"],"schedule":{"travel_time":1,"stop_id":"120279"}},{"index":23,"name":"R 5 Outubro 2","id":"120281","lat":"38.725095","lon":"-9.249104","lines":["1103","1105","1107","1109","1110","1507","1520","1522","1527","1528","1605","1606","1726","1728","1730","1731"],"schedule":{"travel_time":0,"stop_id":"120281"}},{"index":24,"name":"Carnaxide (C Branca)","id":"120431","lat":"38.723774","lon":"-9.247636","lines":["1110","1507","1520","1527","1528","1605","1606","1731"],"schedule":{"travel_time":1,"stop_id":"120431"}},{"index":25,"name":"Av Tomás Ribeiro 81","id":"120283","lat":"38.723219","lon":"-9.248406","lines":["1103","1107","1110","1507","1520","1527","1528","1605","1606","1726","1728","1730","1731"],"schedule":{"travel_time":0,"stop_id":"120283"}},{"index":26,"name":"Av Tomás Ribeiro (X) Sant N Sra Rocha","id":"120285","lat":"38.720735","lon":"-9.250854","lines":["1103","1107","1110","1507","1520","1527","1528","1605","1606","1726","1728","1730","1731"],"schedule":{"travel_time":1,"stop_id":"120285"}},{"index":27,"name":"Av Tomás Ribeiro 82","id":"120287","lat":"38.717509","lon":"-9.252359","lines":["1103","1107","1110","1507","1520","1527","1528","1605","1606","1726","1728","1730","1731"],"schedule":{"travel_time":1,"stop_id":"120287"}},{"index":28,"name":"Av Tomás Ribeiro (X) Tv Godinho","id":"120289","lat":"38.715998","lon":"-9.254038","lines":["1103","1107","1110","1507","1520","1527","1528","1605","1606","1726","1728","1730","1731"],"schedule":{"travel_time":1,"stop_id":"120289"}},{"index":29,"name":"Av Tomás Ribeiro (X) Visconde m rey","id":"120291","lat":"38.714789","lon":"-9.256263","lines":["1103","1107","1507","1520","1527","1528","1605","1606","1726","1728","1730","1731"],"schedule":{"travel_time":0,"stop_id":"120291"}},{"index":30,"name":"Queijas (Rotunda saida)","id":"121219","lat":"38.715154","lon":"-9.263576","lines":["1605","1606","1729","1733"],"schedule":{"travel_time":2,"stop_id":"121219"}},{"index":31,"name":"Estr Oeiras (Posto Combust)","id":"120863","lat":"38.702675","lon":"-9.307592","lines":["1115","1117","1125","1523","1529","1530","1601","1605","1606"],"schedule":{"travel_time":12,"stop_id":"120863"}},{"index":32,"name":"Lgo Avião Lusitania 7","id":"120783","lat":"38.693472","lon":"-9.313673","lines":["1120","1523","1529","1530","1601","1604","1605","1606","1725"],"schedule":{"travel_time":3,"stop_id":"120783"}},{"index":33,"name":"R José Diogo Silva (Parque)","id":"120815","lat":"38.687219","lon":"-9.314993","lines":["1120","1121","1523","1529","1530","1601","1604","1605","1606","1725"],"schedule":{"travel_time":2,"stop_id":"120815"}},{"index":34,"name":"Oeiras (Estação) P9 Entrada Sul","id":"121187","lat":"38.688143","lon":"-9.317519","lines":["1121","1601","1604","1605","1606","1612","1613","1614","1615"],"schedule":{"travel_time":0,"stop_id":"121187"}},{"index":35,"name":"Av Inf D Henrique (Clínica)","id":"121207","lat":"38.687033","lon":"-9.318752","lines":["1601","1604","1605","1606","1613","1614","1615"],"schedule":{"travel_time":1,"stop_id":"121207"}},{"index":36,"name":"Av Infante D Henrique (Quartel)","id":"120879","lat":"38.686308","lon":"-9.319189","lines":["1601","1604","1605","1606","1613","1614","1615"],"schedule":{"travel_time":0,"stop_id":"120879"}},{"index":37,"name":"Av Inf D Henrique 6","id":"121209","lat":"38.683511","lon":"-9.321899","lines":["1601","1604","1605","1606","1613","1614","1615"],"schedule":{"travel_time":1,"stop_id":"121209"}},{"index":38,"name":"Oeiras (Medrosa)","id":"121186","lat":"38.682865","lon":"-9.323132","lines":["1601","1604","1605","1606","1613","1614","1615"],"schedule":{"travel_time":0,"stop_id":"121186"}},{"index":39,"name":"Av Francisco Lucas Pires 239","id":"050014","lat":"38.684817","lon":"-9.326569","lines":["1601","1604","1605","1606","1613","1614","1615"],"schedule":{"travel_time":1,"stop_id":"050014"}},{"index":40,"name":"Av Dr Francisco Lucas Pires (X) R Flora","id":"050001","lat":"38.685118","lon":"-9.328584","lines":["1601","1604","1605","1606","1613","1614","1615"],"schedule":{"travel_time":1,"stop_id":"050001"}},{"index":41,"name":"Estr Torre Fte 626","id":"050423","lat":"38.683579","lon":"-9.330281","lines":["1601","1604","1605","1606","1614","1615"],"schedule":{"travel_time":0,"stop_id":"050423"}},{"index":42,"name":"R Inglaterra 233","id":"050003","lat":"38.682401","lon":"-9.329654","lines":["1601","1604","1605","1606","1613","1614","1615"],"schedule":{"travel_time":1,"stop_id":"050003"}},{"index":43,"name":"Carcavelos (SBE)","id":"050421","lat":"38.679662","lon":"-9.327764","lines":["1605","1606","1612","1613","1614","1615"],"schedule":{"travel_time":2,"stop_id":"050421"}}]}