{"color":"#C61D23","headsign":"Talaíde (Igreja)","id":"1609_0_1","long_name":"Oeiras (Estação Norte) - Talaíde (Igreja)","line_id":"1609","shape_id":"164_4X7ZR","path":[{"index":1,"name":"Oeiras (Estação) P4 Entrada Norte","id":"121235","lat":"38.688648","lon":"-9.317037","lines":["1608","1609"],"schedule":{"travel_time":0,"stop_id":"121235"}},{"index":2,"name":"R Qta Grande 3 - Inst Gulbenkian","id":"120817","lat":"38.690776","lon":"-9.315991","lines":["1120","1121","1529","1604","1608","1609","1614","1615","1638"],"schedule":{"travel_time":1,"stop_id":"120817"}},{"index":3,"name":"R da Quinta Grande 18","id":"120830","lat":"38.691139","lon":"-9.318961","lines":["1608","1609","1638"],"schedule":{"travel_time":1,"stop_id":"120830"}},{"index":4,"name":"R Monsenhor Ferreira de Melo - Igreja","id":"121237","lat":"38.693367","lon":"-9.323920","lines":["1608","1609","1638"],"schedule":{"travel_time":3,"stop_id":"121237"}},{"index":5,"name":"Alameda Conde de Oeiras 68","id":"121239","lat":"38.691735","lon":"-9.324075","lines":["1608","1609","1638"],"schedule":{"travel_time":1,"stop_id":"121239"}},{"index":6,"name":"R Dr José Carlos Moreira 8","id":"121234","lat":"38.690954","lon":"-9.325206","lines":["1608","1609","1638"],"schedule":{"travel_time":0,"stop_id":"121234"}},{"index":7,"name":"Av D José I 29 (C C Palmeiras)","id":"121232","lat":"38.691192","lon":"-9.327070","lines":["1608","1609","1638"],"schedule":{"travel_time":1,"stop_id":"121232"}},{"index":8,"name":"Av D José I fte 171A","id":"121230","lat":"38.692313","lon":"-9.328472","lines":["1608","1609","1638"],"schedule":{"travel_time":1,"stop_id":"121230"}},{"index":9,"name":"Av D José I (Qta do Barão)","id":"121228","lat":"38.694475","lon":"-9.328473","lines":["1608","1609","1638"],"schedule":{"travel_time":1,"stop_id":"121228"}},{"index":10,"name":"Av República (Supermercado)","id":"121226","lat":"38.695781","lon":"-9.329059","lines":["1608","1609","1615","1638"],"schedule":{"travel_time":1,"stop_id":"121226"}},{"index":11,"name":"Av Gonçalves Zarco","id":"050020","lat":"38.697784","lon":"-9.328809","lines":["1604","1608","1609","1614","1638"],"schedule":{"travel_time":1,"stop_id":"050020"}},{"index":12,"name":"Av Gonçalves Zarco 245","id":"050057","lat":"38.698173","lon":"-9.326709","lines":["1604","1608","1609","1638"],"schedule":{"travel_time":1,"stop_id":"050057"}},{"index":13,"name":"Av Gonçalves Zarco 472A","id":"050059","lat":"38.699747","lon":"-9.325337","lines":["1604","1608","1609","1638"],"schedule":{"travel_time":1,"stop_id":"050059"}},{"index":14,"name":"Av Gonçalves Zarco 812 (Mosteiro)","id":"050096","lat":"38.702818","lon":"-9.324573","lines":["1608","1609"],"schedule":{"travel_time":1,"stop_id":"050096"}},{"index":15,"name":"Estr Principal do Arneiro (Pingo Doce)","id":"050099","lat":"38.705158","lon":"-9.324158","lines":["1608","1609","1638"],"schedule":{"travel_time":2,"stop_id":"050099"}},{"index":16,"name":"Estr do Arneiro (Fte Sociedade)","id":"050092","lat":"38.706161","lon":"-9.325342","lines":["1608","1609","1638"],"schedule":{"travel_time":0,"stop_id":"050092"}},{"index":17,"name":"Estr do Arneiro (X) Bairro do Pinhal","id":"050090","lat":"38.708535","lon":"-9.327643","lines":["1608","1609","1638"],"schedule":{"travel_time":2,"stop_id":"050090"}},{"index":18,"name":"Estr do Arneiro (Fte Supermercado)","id":"050088","lat":"38.710554","lon":"-9.329681","lines":["1608","1609","1638"],"schedule":{"travel_time":1,"stop_id":"050088"}},{"index":19,"name":"Estr Principal do Outeiro 81","id":"050086","lat":"38.711737","lon":"-9.329595","lines":["1608","1609"],"schedule":{"travel_time":1,"stop_id":"050086"}},{"index":20,"name":"Estr Prin Out 259 B (St Dominic)","id":"050084","lat":"38.713100","lon":"-9.328106","lines":["1608","1609"],"schedule":{"travel_time":0,"stop_id":"050084"}},{"index":21,"name":"Estr Principal do Outeiro Fte 515","id":"050082","lat":"38.714893","lon":"-9.326583","lines":["1608","1609"],"schedule":{"travel_time":1,"stop_id":"050082"}},{"index":22,"name":"Estr Principal do Outeiro Lt 1","id":"050080","lat":"38.716904","lon":"-9.325318","lines":["1608","1609"],"schedule":{"travel_time":1,"stop_id":"050080"}},{"index":23,"name":"Estr Princ Outeiro Lt 14 (Lgo)","id":"050078","lat":"38.718145","lon":"-9.323598","lines":["1608","1609"],"schedule":{"travel_time":1,"stop_id":"050078"}},{"index":24,"name":"Estr Principal do Outeiro 1360","id":"050076","lat":"38.718940","lon":"-9.326619","lines":["1608","1609"],"schedule":{"travel_time":2,"stop_id":"050076"}},{"index":25,"name":"Estr Princ Outeiro Fte Lt A (Spie)","id":"050074","lat":"38.721475","lon":"-9.328616","lines":["1608","1609"],"schedule":{"travel_time":1,"stop_id":"050074"}},{"index":26,"name":"Estr Principal Outeiro Fte 3","id":"050072","lat":"38.724160","lon":"-9.330219","lines":["1608","1609"],"schedule":{"travel_time":1,"stop_id":"050072"}},{"index":27,"name":"Estr de Polima 624 (Progelcone)","id":"050070","lat":"38.724092","lon":"-9.328034","lines":["1608","1609"],"schedule":{"travel_time":1,"stop_id":"050070"}},{"index":28,"name":"Estr de Polima Fte 278","id":"050068","lat":"38.724459","lon":"-9.323635","lines":["1608","1609"],"schedule":{"travel_time":2,"stop_id":"050068"}},{"index":29,"name":"R Carlos Paredes","id":"050066","lat":"38.724936","lon":"-9.322045","lines":["1608","1609"],"schedule":{"travel_time":1,"stop_id":"050066"}},{"index":30,"name":"Estr M Correia Lopes 322A (Fte Polygr)","id":"050064","lat":"38.727573","lon":"-9.321088","lines":["1608","1609"],"schedule":{"travel_time":1,"stop_id":"050064"}},{"index":31,"name":"Conceição Abóboda (Rotunda)","id":"050062","lat":"38.730717","lon":"-9.323288","lines":["1608","1609"],"schedule":{"travel_time":2,"stop_id":"050062"}},{"index":32,"name":"Estr de Talaíde (Ponte)","id":"050101","lat":"38.734060","lon":"-9.319547","lines":["1608","1609"],"schedule":{"travel_time":2,"stop_id":"050101"}},{"index":33,"name":"Estr de Talaíde Zona Industrial","id":"050103","lat":"38.733327","lon":"-9.317164","lines":["1608","1609"],"schedule":{"travel_time":1,"stop_id":"050103"}},{"index":34,"name":"Talaíde (Igreja)","id":"050107","lat":"38.737768","lon":"-9.313226","lines":["1608","1609","1610","1611","1616","1617"],"schedule":{"travel_time":3,"stop_id":"050107"}}]}