{"color":"#C61D23","headsign":"Paço De Arcos (Estação Norte)","id":"1610_1_2","long_name":"Paço De Arcos (Estação Norte) - Talaíde (Campo Futebol) via Leião","line_id":"1610","shape_id":"286_4X7ZR","path":[{"index":1,"name":"Talaíde (Campo Futebol)","id":"050113","lat":"38.739660","lon":"-9.314695","lines":["1610","1611","1616","1617"],"schedule":{"travel_time":0,"stop_id":"050113"}},{"index":2,"name":"Talaíde (Igreja)","id":"050107","lat":"38.737768","lon":"-9.313226","lines":["1608","1609","1610","1611","1616","1617"],"schedule":{"travel_time":1,"stop_id":"050107"}},{"index":3,"name":"Estr Talaíde 2 (Chafariz)","id":"050109","lat":"38.736741","lon":"-9.310439","lines":["1608","1610","1611","1616"],"schedule":{"travel_time":1,"stop_id":"050109"}},{"index":4,"name":"Estr Talaíde (X) R Lopo S Albergaria","id":"121002","lat":"38.734232","lon":"-9.306937","lines":["1125","1608","1610","1611","1616"],"schedule":{"travel_time":0,"stop_id":"121002"}},{"index":5,"name":"Estr Talaíde 53","id":"121015","lat":"38.732736","lon":"-9.304276","lines":["1520","1521","1531","1610","1616","1617","1731"],"schedule":{"travel_time":1,"stop_id":"121015"}},{"index":6,"name":"Estr Talaíde (Igreja)","id":"121017","lat":"38.730318","lon":"-9.302095","lines":["1520","1521","1531","1610","1616","1617","1731"],"schedule":{"travel_time":1,"stop_id":"121017"}},{"index":7,"name":"Av Lopo Soares Albergaria 40","id":"121176","lat":"38.729212","lon":"-9.310029","lines":["1529","1610","1611","1616"],"schedule":{"travel_time":5,"stop_id":"121176"}},{"index":8,"name":"R Augusta (X) R S José","id":"120994","lat":"38.727783","lon":"-9.310509","lines":["1125","1529","1610","1611","1616"],"schedule":{"travel_time":0,"stop_id":"120994"}},{"index":9,"name":"R S Jose Fte 119","id":"120992","lat":"38.725463","lon":"-9.310786","lines":["1125","1529","1610","1611","1616"],"schedule":{"travel_time":1,"stop_id":"120992"}},{"index":10,"name":"R Augusta (X) Pct José Afonso","id":"120982","lat":"38.725023","lon":"-9.309984","lines":["1125","1529","1610","1611","1616"],"schedule":{"travel_time":0,"stop_id":"120982"}},{"index":11,"name":"R D Pedro V (X) Av Eng a Oliveira","id":"120980","lat":"38.722809","lon":"-9.309905","lines":["1125","1529","1610","1611","1616"],"schedule":{"travel_time":1,"stop_id":"120980"}},{"index":12,"name":"Porto Salvo (B Auto Construção)","id":"120943","lat":"38.722406","lon":"-9.307773","lines":["1123","1125","1529","1610","1611","1616"],"schedule":{"travel_time":0,"stop_id":"120943"}},{"index":13,"name":"Av Eng Arantes Oliveira 21","id":"120924","lat":"38.722651","lon":"-9.304264","lines":["1123","1125","1610","1611","1616"],"schedule":{"travel_time":1,"stop_id":"120924"}},{"index":14,"name":"R Conde Rio Maior (X) R C Carneiro","id":"120945","lat":"38.721761","lon":"-9.302801","lines":["1123","1125","1520","1521","1523","1530","1601","1610","1611","1616","1731","1733"],"schedule":{"travel_time":0,"stop_id":"120945"}},{"index":15,"name":"R Conde Rio Maior (Igreja)","id":"120922","lat":"38.718966","lon":"-9.302389","lines":["1123","1125","1520","1521","1523","1530","1601","1610","1611","1616","1731","1733"],"schedule":{"travel_time":1,"stop_id":"120922"}},{"index":16,"name":"Porto Salvo (Centro)","id":"120947","lat":"38.717429","lon":"-9.302327","lines":["1123","1125","1520","1521","1523","1530","1601","1610","1611","1616","1731","1733"],"schedule":{"travel_time":0,"stop_id":"120947"}},{"index":17,"name":"Estr Paço Arcos 80","id":"120715","lat":"38.712512","lon":"-9.296715","lines":["1119","1123","1531","1610","1611","1616","1617"],"schedule":{"travel_time":2,"stop_id":"120715"}},{"index":18,"name":"Estr Paço Arcos (Serviços CM Oeiras)","id":"120717","lat":"38.708642","lon":"-9.296235","lines":["1119","1122","1123","1531","1610","1611","1616","1617"],"schedule":{"travel_time":2,"stop_id":"120717"}},{"index":19,"name":"Estr Paço Arcos 52","id":"120719","lat":"38.707393","lon":"-9.295500","lines":["1119","1122","1123","1531","1610","1611","1616","1617"],"schedule":{"travel_time":0,"stop_id":"120719"}},{"index":20,"name":"Estr Paço Arcos 42","id":"120610","lat":"38.704300","lon":"-9.295180","lines":["1115","1117","1119","1122","1123","1531","1610","1611","1616","1617"],"schedule":{"travel_time":1,"stop_id":"120610"}},{"index":21,"name":"Estr Paço Arcos (Lj Solid Seg Social)","id":"120608","lat":"38.701725","lon":"-9.294095","lines":["1115","1117","1119","1122","1123","1531","1610","1611","1616","1617"],"schedule":{"travel_time":0,"stop_id":"120608"}},{"index":22,"name":"Paço De Arcos (Estação Norte)","id":"120605","lat":"38.698727","lon":"-9.291167","lines":["1115","1117","1123","1610","1611","1616"],"schedule":{"travel_time":2,"stop_id":"120605"}}]}