{"color":"#C61D23","headsign":"Agualva - Cacém (Estação)","id":"1612_1_2","long_name":"Agualva Cacém (Estação) - Carcavelos (Estação)","line_id":"1612","shape_id":"171_4X7ZR","path":[{"index":1,"name":"Carcavelos (Estação)","id":"050418","lat":"38.687574","lon":"-9.336967","lines":["1604","1612","1614","1615"],"schedule":{"travel_time":0,"stop_id":"050418"}},{"index":2,"name":"Carcavelos (SBE)","id":"050421","lat":"38.679662","lon":"-9.327764","lines":["1605","1606","1612","1613","1614","1615"],"schedule":{"travel_time":5,"stop_id":"050421"}},{"index":3,"name":"Oeiras (Estação) P10 Entrada Sul","id":"121188","lat":"38.687870","lon":"-9.317792","lines":["1605","1606","1612","1613","1614","1615"],"schedule":{"travel_time":6,"stop_id":"121188"}},{"index":4,"name":"Santo Amaro (Estação)","id":"120837","lat":"38.686929","lon":"-9.311349","lines":["1121","1612"],"schedule":{"travel_time":2,"stop_id":"120837"}},{"index":5,"name":"Biblioteca de Oeiras","id":"120841","lat":"38.691634","lon":"-9.304794","lines":["1121","1612"],"schedule":{"travel_time":2,"stop_id":"120841"}},{"index":6,"name":"R Figueirinha 26","id":"120747","lat":"38.697254","lon":"-9.306189","lines":["1120","1121","1523","1529","1530","1601","1612","1725"],"schedule":{"travel_time":2,"stop_id":"120747"}},{"index":7,"name":"Oeiras Parque","id":"120897","lat":"38.703571","lon":"-9.303886","lines":["1121","1122","1125","1601","1612"],"schedule":{"travel_time":2,"stop_id":"120897"}},{"index":8,"name":"Porto Salvo (Qta Fonte)","id":"120723","lat":"38.711983","lon":"-9.297724","lines":["1119","1123","1531","1610","1611","1612","1616","1617","1733"],"schedule":{"travel_time":2,"stop_id":"120723"}},{"index":9,"name":"Lagoas Park (Teixeira Duarte)","id":"120938","lat":"38.714120","lon":"-9.310781","lines":["1523","1529","1612","1733"],"schedule":{"travel_time":4,"stop_id":"120938"}},{"index":10,"name":"Taguspark (Rotunda SEF)","id":"121106","lat":"38.736033","lon":"-9.299921","lines":["1523","1529","1531","1608","1612","1616","1617","1733"],"schedule":{"travel_time":10,"stop_id":"121106"}},{"index":11,"name":"Av Prof Dr Cavaco Silva 19","id":"121104","lat":"38.739124","lon":"-9.304781","lines":["1523","1529","1531","1608","1612","1616","1617","1733"],"schedule":{"travel_time":2,"stop_id":"121104"}},{"index":12,"name":"Taguspark (Núcleo Central)","id":"121102","lat":"38.741584","lon":"-9.305086","lines":["1523","1529","1531","1608","1612","1616","1617","1733"],"schedule":{"travel_time":1,"stop_id":"121102"}},{"index":13,"name":"Taguspark (BCP)","id":"121091","lat":"38.744940","lon":"-9.304304","lines":["1520","1521","1523","1524","1529","1612","1616","1731","1733"],"schedule":{"travel_time":1,"stop_id":"121091"}},{"index":14,"name":"S Marcos (X)","id":"170774","lat":"38.751497","lon":"-9.306024","lines":["1215","1225","1520","1521","1523","1612","1731"],"schedule":{"travel_time":2,"stop_id":"170774"}},{"index":15,"name":"Agualva-Cacém (Estação) P1","id":"172486","lat":"38.766975","lon":"-9.298571","lines":["1523","1612"],"schedule":{"travel_time":6,"stop_id":"172486"}}]}