{"color":"#C61D23","headsign":"Oeiras (Estação Sul)","id":"1613_0_1","long_name":"Agualva-Cacém (Estação) - Oeiras (Estação Sul) via Trajouce","line_id":"1613","shape_id":"172_4X7ZR","path":[{"index":1,"name":"Agualva-Cacém (Estação) P4","id":"170457","lat":"38.766603","lon":"-9.298414","lines":["1209","1613","1622"],"schedule":{"travel_time":0,"stop_id":"170457"}},{"index":2,"name":"R Elias Garcia (Supermercado)","id":"170491","lat":"38.768486","lon":"-9.300971","lines":["1209","1215","1220","1222","1223","1225","1233","1236","1520","1521","1523","1613","1622","1731"],"schedule":{"travel_time":2,"stop_id":"170491"}},{"index":3,"name":"R Elias Garcia 107","id":"170493","lat":"38.769592","lon":"-9.302719","lines":["1209","1215","1220","1222","1223","1225","1233","1236","1520","1521","1523","1613","1622","1731"],"schedule":{"travel_time":0,"stop_id":"170493"}},{"index":4,"name":"R Elias Garcia 122","id":"170655","lat":"38.770984","lon":"-9.304132","lines":["1209","1222","1223","1236","1613","1622"],"schedule":{"travel_time":1,"stop_id":"170655"}},{"index":5,"name":"R Elias Garcia 138","id":"170495","lat":"38.770263","lon":"-9.305929","lines":["1209","1222","1223","1236","1613","1622"],"schedule":{"travel_time":1,"stop_id":"170495"}},{"index":6,"name":"Av Elias Garcia 172 A","id":"170452","lat":"38.769123","lon":"-9.307412","lines":["1209","1222","1223","1236","1613","1622"],"schedule":{"travel_time":0,"stop_id":"170452"}},{"index":7,"name":"R Elias Garcia 181","id":"170657","lat":"38.768535","lon":"-9.310289","lines":["1222","1223","1236","1613","1622"],"schedule":{"travel_time":1,"stop_id":"170657"}},{"index":8,"name":"R Elias Garcia 199 (Supermercado)","id":"170676","lat":"38.768161","lon":"-9.312943","lines":["1223","1613","1622"],"schedule":{"travel_time":1,"stop_id":"170676"}},{"index":9,"name":"R Máximo Silva (Sobreira e Serras)","id":"172203","lat":"38.768585","lon":"-9.317354","lines":["1613","1615","1622"],"schedule":{"travel_time":2,"stop_id":"172203"}},{"index":10,"name":"R Padre Francisco Cruz 7","id":"172205","lat":"38.769310","lon":"-9.317956","lines":["1613","1615","1622"],"schedule":{"travel_time":0,"stop_id":"172205"}},{"index":11,"name":"R António José da Luz 8","id":"172207","lat":"38.769962","lon":"-9.320153","lines":["1613","1615","1622"],"schedule":{"travel_time":1,"stop_id":"172207"}},{"index":12,"name":"Largo 1º Dezembro 2","id":"172209","lat":"38.771986","lon":"-9.325162","lines":["1613","1615","1622"],"schedule":{"travel_time":1,"stop_id":"172209"}},{"index":13,"name":"R José Cupertino Ribeiro 38","id":"172211","lat":"38.773465","lon":"-9.326815","lines":["1613","1615","1622"],"schedule":{"travel_time":1,"stop_id":"172211"}},{"index":14,"name":"R das Flores 66 (Espelho)","id":"172213","lat":"38.773981","lon":"-9.329289","lines":["1613","1622"],"schedule":{"travel_time":1,"stop_id":"172213"}},{"index":15,"name":"R das Flores (X) R Retiro Pacatos","id":"172215","lat":"38.771488","lon":"-9.332304","lines":["1613","1622"],"schedule":{"travel_time":1,"stop_id":"172215"}},{"index":16,"name":"R Álv A R Vilela 142 (Qta Serra)","id":"172217","lat":"38.769192","lon":"-9.336443","lines":["1613","1622"],"schedule":{"travel_time":1,"stop_id":"172217"}},{"index":17,"name":"R Álvaro Augusto Rodr Vilela 99","id":"172219","lat":"38.768580","lon":"-9.337801","lines":["1613","1622"],"schedule":{"travel_time":1,"stop_id":"172219"}},{"index":18,"name":"R Álvaro Aug Rodrigues Vilela (Lgo)","id":"172221","lat":"38.764896","lon":"-9.343875","lines":["1613","1622"],"schedule":{"travel_time":1,"stop_id":"172221"}},{"index":19,"name":"Albarraque (X)","id":"172223","lat":"38.763213","lon":"-9.347895","lines":["1613"],"schedule":{"travel_time":2,"stop_id":"172223"}},{"index":20,"name":"R da Boavista 2","id":"172225","lat":"38.761249","lon":"-9.349288","lines":["1613","1622","1625","1627","1628","1631"],"schedule":{"travel_time":1,"stop_id":"172225"}},{"index":21,"name":"R da Boavista Fte 45","id":"172227","lat":"38.759315","lon":"-9.353413","lines":["1613","1622","1625","1627","1628","1631"],"schedule":{"travel_time":1,"stop_id":"172227"}},{"index":22,"name":"R da Boavista 52","id":"172229","lat":"38.758699","lon":"-9.355516","lines":["1613","1622","1625","1627","1628","1631"],"schedule":{"travel_time":0,"stop_id":"172229"}},{"index":23,"name":"R 1º de Maio (Rotunda)","id":"172231","lat":"38.757247","lon":"-9.358529","lines":["1613","1622","1625","1627","1628","1631"],"schedule":{"travel_time":1,"stop_id":"172231"}},{"index":24,"name":"R da Liberdade Frente Lt 1","id":"172233","lat":"38.753324","lon":"-9.356713","lines":["1613","1622"],"schedule":{"travel_time":2,"stop_id":"172233"}},{"index":25,"name":"R Carlos Lopes (Albiz Parques)","id":"170401","lat":"38.751654","lon":"-9.352136","lines":["1209","1613","1622"],"schedule":{"travel_time":1,"stop_id":"170401"}},{"index":26,"name":"Bairro Tabaqueira (Eb 2 + 3 albarraque)","id":"172235","lat":"38.750863","lon":"-9.351385","lines":["1209","1613","1615","1622"],"schedule":{"travel_time":0,"stop_id":"172235"}},{"index":27,"name":"Bairro Tabaqueira (Mercado)","id":"170403","lat":"38.750847","lon":"-9.349853","lines":["1209","1613","1615","1622"],"schedule":{"travel_time":1,"stop_id":"170403"}},{"index":28,"name":"Bairro Tabaqueira (Usf)","id":"172265","lat":"38.751677","lon":"-9.347868","lines":["1209","1613","1615","1622"],"schedule":{"travel_time":0,"stop_id":"172265"}},{"index":29,"name":"Av Alfredo Silva (Estátua)","id":"170405","lat":"38.752140","lon":"-9.346405","lines":["1209","1613","1615","1622"],"schedule":{"travel_time":1,"stop_id":"170405"}},{"index":30,"name":"Av Alfredo da Silva (X) Tabaqueira","id":"172237","lat":"38.753490","lon":"-9.344200","lines":["1209","1613","1614","1615","1622"],"schedule":{"travel_time":1,"stop_id":"172237"}},{"index":31,"name":"Av Santa Isabel (X) Cabra Figa","id":"172239","lat":"38.748582","lon":"-9.342868","lines":["1613","1614","1622"],"schedule":{"travel_time":2,"stop_id":"172239"}},{"index":32,"name":"Av Santa Isabel 1","id":"172241","lat":"38.746264","lon":"-9.342245","lines":["1613","1614","1615","1622"],"schedule":{"travel_time":1,"stop_id":"172241"}},{"index":33,"name":"EN 249 (X) R do Fojo","id":"050115","lat":"38.744386","lon":"-9.341795","lines":["1613","1614","1615","1622"],"schedule":{"travel_time":0,"stop_id":"050115"}},{"index":34,"name":"EN 249 (Posto Abast)","id":"050117","lat":"38.741706","lon":"-9.341377","lines":["1613","1614","1615"],"schedule":{"travel_time":1,"stop_id":"050117"}},{"index":35,"name":"EN 249 (Lgo)","id":"050119","lat":"38.736995","lon":"-9.339364","lines":["1613","1614","1615"],"schedule":{"travel_time":2,"stop_id":"050119"}},{"index":36,"name":"EN 249-2 59","id":"050121","lat":"38.733707","lon":"-9.338492","lines":["1613","1614","1615"],"schedule":{"travel_time":1,"stop_id":"050121"}},{"index":37,"name":"EN 249-4 6","id":"050123","lat":"38.730433","lon":"-9.336585","lines":["1613","1614","1615","1622"],"schedule":{"travel_time":1,"stop_id":"050123"}},{"index":38,"name":"EN 249 1","id":"050125","lat":"38.727144","lon":"-9.334634","lines":["1613","1614","1615"],"schedule":{"travel_time":1,"stop_id":"050125"}},{"index":39,"name":"Abóboda","id":"050127","lat":"38.725439","lon":"-9.333885","lines":["1613","1614","1615"],"schedule":{"travel_time":1,"stop_id":"050127"}},{"index":40,"name":"EN 249-4 Km 7 4","id":"050129","lat":"38.723358","lon":"-9.336276","lines":["1613","1614","1615","1622"],"schedule":{"travel_time":1,"stop_id":"050129"}},{"index":41,"name":"EN 249-4 Km 7 4","id":"050131","lat":"38.721669","lon":"-9.338202","lines":["1613","1614","1615"],"schedule":{"travel_time":1,"stop_id":"050131"}},{"index":42,"name":"EN 249-4 (X) R Principal","id":"050133","lat":"38.719366","lon":"-9.339490","lines":["1613","1614","1615","1622"],"schedule":{"travel_time":1,"stop_id":"050133"}},{"index":43,"name":"R de Zambeze (Vivenda Marques)","id":"050135","lat":"38.714839","lon":"-9.339168","lines":["1613","1614","1615"],"schedule":{"travel_time":1,"stop_id":"050135"}},{"index":44,"name":"EN 249 (Cemitério S Domingos de Rana)","id":"050137","lat":"38.712323","lon":"-9.339140","lines":["1613","1614","1615","1622"],"schedule":{"travel_time":1,"stop_id":"050137"}},{"index":45,"name":"Estr de São Domingos (Fte Brisa)","id":"050139","lat":"38.710008","lon":"-9.338789","lines":["1613","1614","1615"],"schedule":{"travel_time":1,"stop_id":"050139"}},{"index":46,"name":"Lgo de São Domingos de Rana (Igreja)","id":"050141","lat":"38.702157","lon":"-9.340834","lines":["1613","1614","1615","1622"],"schedule":{"travel_time":2,"stop_id":"050141"}},{"index":47,"name":"Estr da Rebelva 961","id":"050143","lat":"38.698828","lon":"-9.341359","lines":["1613"],"schedule":{"travel_time":1,"stop_id":"050143"}},{"index":48,"name":"Estr da Rebelva 629","id":"050145","lat":"38.695803","lon":"-9.341767","lines":["1613"],"schedule":{"travel_time":1,"stop_id":"050145"}},{"index":49,"name":"Estr da Rebelva 199","id":"050147","lat":"38.692041","lon":"-9.341713","lines":["1613"],"schedule":{"travel_time":2,"stop_id":"050147"}},{"index":50,"name":"Av República 960","id":"050149","lat":"38.690264","lon":"-9.339357","lines":["1613"],"schedule":{"travel_time":1,"stop_id":"050149"}},{"index":51,"name":"R Dr José Joaquim de Almeida 4","id":"050151","lat":"38.690235","lon":"-9.335218","lines":["1613"],"schedule":{"travel_time":1,"stop_id":"050151"}},{"index":52,"name":"R Dr José Joaquim de Almeida 23","id":"050153","lat":"38.690467","lon":"-9.333889","lines":["1613"],"schedule":{"travel_time":0,"stop_id":"050153"}},{"index":53,"name":"Carcavelos (SBE)","id":"050421","lat":"38.679662","lon":"-9.327764","lines":["1605","1606","1612","1613","1614","1615"],"schedule":{"travel_time":6,"stop_id":"050421"}},{"index":54,"name":"R Inglaterra 233","id":"050004","lat":"38.682389","lon":"-9.329503","lines":["1601","1604","1605","1606","1613","1614","1615"],"schedule":{"travel_time":1,"stop_id":"050004"}},{"index":55,"name":"Estr Torre (X) R Fern Leôncio Mendonça","id":"050422","lat":"38.683470","lon":"-9.330129","lines":["1601","1604","1605","1606","1613","1614"],"schedule":{"travel_time":1,"stop_id":"050422"}},{"index":56,"name":"Av Dr Francisco Lucas Pires (X) R Flora","id":"050002","lat":"38.685013","lon":"-9.328549","lines":["1601","1604","1605","1606","1613","1614","1615"],"schedule":{"travel_time":1,"stop_id":"050002"}},{"index":57,"name":"Av Francisco Lucas Pires 239","id":"050013","lat":"38.684719","lon":"-9.326592","lines":["1601","1604","1605","1606","1613","1614","1615"],"schedule":{"travel_time":0,"stop_id":"050013"}},{"index":58,"name":"Oeiras (Medrosa)","id":"121185","lat":"38.682783","lon":"-9.323223","lines":["1121","1601","1604","1605","1606","1613","1614","1615"],"schedule":{"travel_time":1,"stop_id":"121185"}},{"index":59,"name":"Av Infante D Henrique 12","id":"120801","lat":"38.684078","lon":"-9.321654","lines":["1121","1601","1604","1605","1606","1613","1614","1615"],"schedule":{"travel_time":1,"stop_id":"120801"}},{"index":60,"name":"Oeiras (Estação) P10 Entrada Sul","id":"121188","lat":"38.687870","lon":"-9.317792","lines":["1605","1606","1612","1613","1614","1615"],"schedule":{"travel_time":2,"stop_id":"121188"}},{"index":61,"name":"Oeiras (Estação) P9 Entrada Sul","id":"121187","lat":"38.688143","lon":"-9.317519","lines":["1121","1601","1604","1605","1606","1612","1613","1614","1615"],"schedule":{"travel_time":1,"stop_id":"121187"}}]}