{"color":"#C61D23","headsign":"Portela Sintra (Estação Sul)","id":"1614_0_1","long_name":"Carcavelos (Estação) - Portela Sintra (Estação Sul)","line_id":"1614","shape_id":"177_4X7ZR","path":[{"index":1,"name":"Carcavelos (Estação)","id":"050418","lat":"38.687574","lon":"-9.336967","lines":["1604","1612","1614","1615"],"schedule":{"travel_time":0,"stop_id":"050418"}},{"index":2,"name":"Carcavelos (SBE)","id":"050421","lat":"38.679662","lon":"-9.327764","lines":["1605","1606","1612","1613","1614","1615"],"schedule":{"travel_time":6,"stop_id":"050421"}},{"index":3,"name":"R Inglaterra 233","id":"050004","lat":"38.682389","lon":"-9.329503","lines":["1601","1604","1605","1606","1613","1614","1615"],"schedule":{"travel_time":1,"stop_id":"050004"}},{"index":4,"name":"Av Dr Francisco Lucas Pires (X) R Flora","id":"050002","lat":"38.685013","lon":"-9.328549","lines":["1601","1604","1605","1606","1613","1614","1615"],"schedule":{"travel_time":2,"stop_id":"050002"}},{"index":5,"name":"Av Francisco Lucas Pires 239","id":"050013","lat":"38.684719","lon":"-9.326592","lines":["1601","1604","1605","1606","1613","1614","1615"],"schedule":{"travel_time":0,"stop_id":"050013"}},{"index":6,"name":"Oeiras (Medrosa)","id":"121185","lat":"38.682783","lon":"-9.323223","lines":["1121","1601","1604","1605","1606","1613","1614","1615"],"schedule":{"travel_time":1,"stop_id":"121185"}},{"index":7,"name":"Av Infante D Henrique 12","id":"120801","lat":"38.684078","lon":"-9.321654","lines":["1121","1601","1604","1605","1606","1613","1614","1615"],"schedule":{"travel_time":1,"stop_id":"120801"}},{"index":8,"name":"Oeiras (Estação) P10 Entrada Sul","id":"121188","lat":"38.687870","lon":"-9.317792","lines":["1605","1606","1612","1613","1614","1615"],"schedule":{"travel_time":2,"stop_id":"121188"}},{"index":9,"name":"Oeiras (Estação) P8 Entrada Norte","id":"121270","lat":"38.688615","lon":"-9.316617","lines":["1120","1523","1529","1604","1614","1615"],"schedule":{"travel_time":1,"stop_id":"121270"}},{"index":10,"name":"R Qta Grande 3 - Inst Gulbenkian","id":"120817","lat":"38.690776","lon":"-9.315991","lines":["1120","1121","1529","1604","1608","1609","1614","1615","1638"],"schedule":{"travel_time":1,"stop_id":"120817"}},{"index":11,"name":"Av República (Estação Agronómica)","id":"121203","lat":"38.694029","lon":"-9.318408","lines":["1121","1604","1614","1615"],"schedule":{"travel_time":2,"stop_id":"121203"}},{"index":12,"name":"Av República 15","id":"121197","lat":"38.695070","lon":"-9.324719","lines":["1121","1604","1614","1615"],"schedule":{"travel_time":1,"stop_id":"121197"}},{"index":13,"name":"Rotunda Quinta do Marquês","id":"121201","lat":"38.696484","lon":"-9.326094","lines":["1121","1604","1614"],"schedule":{"travel_time":1,"stop_id":"121201"}},{"index":14,"name":"R Norton de Matos","id":"121241","lat":"38.697834","lon":"-9.326966","lines":["1614"],"schedule":{"travel_time":1,"stop_id":"121241"}},{"index":15,"name":"Av Gonçalves Zarco 1","id":"050019","lat":"38.697828","lon":"-9.329407","lines":["1604","1608","1609","1614","1638"],"schedule":{"travel_time":0,"stop_id":"050019"}},{"index":16,"name":"Av D Franc Sá Carneiro 729A","id":"050021","lat":"38.699329","lon":"-9.335212","lines":["1604","1614","1615"],"schedule":{"travel_time":2,"stop_id":"050021"}},{"index":17,"name":"R Afonso de Albuquerque 104","id":"050023","lat":"38.700942","lon":"-9.338853","lines":["1604","1614","1615"],"schedule":{"travel_time":1,"stop_id":"050023"}},{"index":18,"name":"Lgo de São Domingos de Rana (Igreja)","id":"050163","lat":"38.702785","lon":"-9.340723","lines":["1613","1614","1615","1622"],"schedule":{"travel_time":1,"stop_id":"050163"}},{"index":19,"name":"Estr de São Domingos (Brisa)","id":"050165","lat":"38.710440","lon":"-9.338510","lines":["1613","1614","1615"],"schedule":{"travel_time":3,"stop_id":"050165"}},{"index":20,"name":"EN 247 (Supermercado)","id":"050167","lat":"38.711427","lon":"-9.338170","lines":["1613","1614","1615"],"schedule":{"travel_time":0,"stop_id":"050167"}},{"index":21,"name":"EN 249 (Cemitério S Domingos de Rana)","id":"050169","lat":"38.712898","lon":"-9.338936","lines":["1613","1614","1615","1622"],"schedule":{"travel_time":1,"stop_id":"050169"}},{"index":22,"name":"EN 249-4 (X) R Principal","id":"050134","lat":"38.719800","lon":"-9.339312","lines":["1613","1614","1615","1622"],"schedule":{"travel_time":2,"stop_id":"050134"}},{"index":23,"name":"EN 249-4 Km 7 4","id":"050132","lat":"38.721486","lon":"-9.338269","lines":["1613","1614","1615"],"schedule":{"travel_time":1,"stop_id":"050132"}},{"index":24,"name":"EN 249-4 Km 7 4","id":"050130","lat":"38.723303","lon":"-9.336099","lines":["1613","1614","1615","1622"],"schedule":{"travel_time":0,"stop_id":"050130"}},{"index":25,"name":"Abóboda","id":"050128","lat":"38.724764","lon":"-9.333921","lines":["1613","1614","1615"],"schedule":{"travel_time":1,"stop_id":"050128"}},{"index":26,"name":"EN 249 1","id":"050126","lat":"38.727472","lon":"-9.334693","lines":["1613","1614","1615"],"schedule":{"travel_time":1,"stop_id":"050126"}},{"index":27,"name":"EN 249-2 12","id":"050124","lat":"38.730842","lon":"-9.336681","lines":["1613","1614","1615","1622"],"schedule":{"travel_time":1,"stop_id":"050124"}},{"index":28,"name":"EN 249-2 59","id":"050122","lat":"38.733754","lon":"-9.338375","lines":["1613","1614","1615"],"schedule":{"travel_time":1,"stop_id":"050122"}},{"index":29,"name":"EN 249 (Chafariz)","id":"050120","lat":"38.737029","lon":"-9.339159","lines":["1613","1614","1615"],"schedule":{"travel_time":1,"stop_id":"050120"}},{"index":30,"name":"EN 249 (Sociedade)","id":"050171","lat":"38.738403","lon":"-9.339605","lines":["1613","1614","1615","1622"],"schedule":{"travel_time":1,"stop_id":"050171"}},{"index":31,"name":"EN 249 (Posto Abast)","id":"050118","lat":"38.742066","lon":"-9.341307","lines":["1613","1614","1615"],"schedule":{"travel_time":1,"stop_id":"050118"}},{"index":32,"name":"EN 249 (X) R do Fojo","id":"050116","lat":"38.744236","lon":"-9.341643","lines":["1613","1614","1615","1622"],"schedule":{"travel_time":1,"stop_id":"050116"}},{"index":33,"name":"Av Santa Isabel 1","id":"172242","lat":"38.746984","lon":"-9.342280","lines":["1613","1614","1615","1622"],"schedule":{"travel_time":1,"stop_id":"172242"}},{"index":34,"name":"Av Santa Isabel","id":"172240","lat":"38.748829","lon":"-9.342807","lines":["1613","1614","1622"],"schedule":{"travel_time":0,"stop_id":"172240"}},{"index":35,"name":"Av Alfredo da Silva (X) Tabaqueira","id":"172238","lat":"38.753650","lon":"-9.344247","lines":["1209","1613","1614","1615","1622"],"schedule":{"travel_time":3,"stop_id":"172238"}},{"index":36,"name":"B Tabaqueira (Estat)","id":"170406","lat":"38.752003","lon":"-9.346907","lines":["1209","1613","1614","1615","1622"],"schedule":{"travel_time":1,"stop_id":"170406"}},{"index":37,"name":"Av Alfredo da Silva (X) Tabaqueira","id":"172237","lat":"38.753490","lon":"-9.344200","lines":["1209","1613","1614","1615","1622"],"schedule":{"travel_time":1,"stop_id":"172237"}},{"index":38,"name":"Av Santa Isabel 113","id":"172247","lat":"38.757308","lon":"-9.345122","lines":["1614"],"schedule":{"travel_time":2,"stop_id":"172247"}},{"index":39,"name":"Av Santa Isabel (Casal Santa Maria)","id":"172249","lat":"38.759020","lon":"-9.346672","lines":["1614"],"schedule":{"travel_time":0,"stop_id":"172249"}},{"index":40,"name":"Av Santa Isabel (Estância)","id":"172251","lat":"38.761016","lon":"-9.348539","lines":["1614"],"schedule":{"travel_time":1,"stop_id":"172251"}},{"index":41,"name":"Av Santa Isabel 176","id":"172245","lat":"38.762602","lon":"-9.348092","lines":["1614","1622","1625","1627","1628","1631"],"schedule":{"travel_time":1,"stop_id":"172245"}},{"index":42,"name":"Av Combatentes (Externato Sta Isabel)","id":"172253","lat":"38.766124","lon":"-9.349786","lines":["1614","1625","1627","1628","1631"],"schedule":{"travel_time":1,"stop_id":"172253"}},{"index":43,"name":"Av Combatentes (X) R das Maçarocas","id":"172255","lat":"38.768625","lon":"-9.352105","lines":["1614","1625","1627","1628","1631"],"schedule":{"travel_time":1,"stop_id":"172255"}},{"index":44,"name":"Av Combatentes","id":"172257","lat":"38.771074","lon":"-9.352984","lines":["1614","1625","1627","1628","1631"],"schedule":{"travel_time":1,"stop_id":"172257"}},{"index":45,"name":"Av Combatentes (X) António Vieira","id":"170138","lat":"38.773385","lon":"-9.355776","lines":["1251","1614","1625","1627","1628","1631"],"schedule":{"travel_time":1,"stop_id":"170138"}},{"index":46,"name":"Av Combatentes (X) Rotunda","id":"170136","lat":"38.775626","lon":"-9.355243","lines":["1234","1251","1614","1625","1627","1628","1631"],"schedule":{"travel_time":1,"stop_id":"170136"}},{"index":47,"name":"Av Combatentes (Hipermercado)","id":"170134","lat":"38.778728","lon":"-9.355350","lines":["1234","1251","1614","1625","1627","1628","1631"],"schedule":{"travel_time":1,"stop_id":"170134"}},{"index":48,"name":"Av Raúl Solnado 23","id":"170132","lat":"38.780533","lon":"-9.352684","lines":["1234","1251","1614","1625","1627","1628","1631"],"schedule":{"travel_time":1,"stop_id":"170132"}},{"index":49,"name":"Av R Solnado (X) Av Amália Rodrigues","id":"170311","lat":"38.780077","lon":"-9.350602","lines":["1234","1251","1614","1625","1627","1628","1631"],"schedule":{"travel_time":1,"stop_id":"170311"}},{"index":50,"name":"Estr de Mem Martins (Posto Abast)","id":"170313","lat":"38.781367","lon":"-9.349052","lines":["1223","1232","1234","1251","1614","1625","1627","1628","1631"],"schedule":{"travel_time":1,"stop_id":"170313"}},{"index":51,"name":"Estr Mem Martins (Supermercado)","id":"170128","lat":"38.782662","lon":"-9.347300","lines":["1223","1232","1234","1251","1614","1625","1627","1628","1631"],"schedule":{"travel_time":0,"stop_id":"170128"}},{"index":52,"name":"Estr de Mem Martins 56","id":"171136","lat":"38.783233","lon":"-9.345701","lines":["1232","1234","1614","1625","1627","1628","1631"],"schedule":{"travel_time":1,"stop_id":"171136"}},{"index":53,"name":"Estr de Mem Martins 106","id":"171137","lat":"38.784968","lon":"-9.343826","lines":["1232","1234","1614","1625","1627","1628","1631"],"schedule":{"travel_time":0,"stop_id":"171137"}},{"index":54,"name":"Estr de Mem Martins 140","id":"171139","lat":"38.787558","lon":"-9.343133","lines":["1232","1234","1614","1625","1627","1628","1631"],"schedule":{"travel_time":1,"stop_id":"171139"}},{"index":55,"name":"Estr Mem Martins 164 (Poço Novo)","id":"171141","lat":"38.789581","lon":"-9.345068","lines":["1232","1234","1614","1625","1627","1628","1631"],"schedule":{"travel_time":1,"stop_id":"171141"}},{"index":56,"name":"Estr Mem Martins 184 (Cruzeiro)","id":"171143","lat":"38.790951","lon":"-9.345509","lines":["1232","1234","1614","1625","1627","1628","1631"],"schedule":{"travel_time":1,"stop_id":"171143"}},{"index":57,"name":"R Prof Joaquim Fontes 26 A","id":"170799","lat":"38.794141","lon":"-9.347352","lines":["1223","1614"],"schedule":{"travel_time":1,"stop_id":"170799"}},{"index":58,"name":"Av Alm Gago Coutinho (X)pct Capelo","id":"171870","lat":"38.797099","lon":"-9.348488","lines":["1223","1231","1251","1614"],"schedule":{"travel_time":1,"stop_id":"171870"}},{"index":59,"name":"Av Almirante Gago Coutinho 43","id":"171868","lat":"38.797576","lon":"-9.350114","lines":["1223","1231","1251","1614"],"schedule":{"travel_time":0,"stop_id":"171868"}},{"index":60,"name":"Av Al Gago Cout (X) Pct Paiva Couceiro","id":"170805","lat":"38.798031","lon":"-9.351680","lines":["1223","1231","1251","1614"],"schedule":{"travel_time":1,"stop_id":"170805"}},{"index":61,"name":"R D Francisco de Sá Carneiro 10","id":"170807","lat":"38.798084","lon":"-9.353548","lines":["1223","1251","1614"],"schedule":{"travel_time":0,"stop_id":"170807"}},{"index":62,"name":"R D Francisco de Sá Carneiro 14","id":"170809","lat":"38.798547","lon":"-9.355184","lines":["1223","1251","1614"],"schedule":{"travel_time":1,"stop_id":"170809"}},{"index":63,"name":"Av Alm Gago Coutinho (Bombas)","id":"170811","lat":"38.799732","lon":"-9.356818","lines":["1223","1251","1614"],"schedule":{"travel_time":1,"stop_id":"170811"}},{"index":64,"name":"Av Alm Gago Coutinho (Polícia Munic)","id":"170813","lat":"38.800841","lon":"-9.360375","lines":["1223","1251","1614"],"schedule":{"travel_time":0,"stop_id":"170813"}},{"index":65,"name":"Av Almirante Gago Coutinho 5","id":"170815","lat":"38.800590","lon":"-9.367335","lines":["1223","1251","1614"],"schedule":{"travel_time":2,"stop_id":"170815"}},{"index":66,"name":"Av Mov Forças Armadas (Smas)","id":"170817","lat":"38.801305","lon":"-9.371052","lines":["1223","1251","1614"],"schedule":{"travel_time":1,"stop_id":"170817"}},{"index":67,"name":"Av Movimento das Forças Armadas","id":"170819","lat":"38.801794","lon":"-9.374343","lines":["1223","1251","1614"],"schedule":{"travel_time":1,"stop_id":"170819"}},{"index":68,"name":"Portela de Sintra (Estação) P11 Entrada Sul","id":"170821","lat":"38.802129","lon":"-9.376987","lines":["1223","1251","1614"],"schedule":{"travel_time":1,"stop_id":"170821"}}]}