{"color":"#C61D23","headsign":"Rio De Mouro (Estação Sul)","id":"1615_0_1","long_name":"Carcavelos (Estação) - Rio De Mouro (Estação Sul)","line_id":"1615","shape_id":"185_4X7ZR","path":[{"index":1,"name":"Carcavelos (Estação)","id":"050418","lat":"38.687574","lon":"-9.336967","lines":["1604","1612","1614","1615"],"schedule":{"travel_time":0,"stop_id":"050418"}},{"index":2,"name":"Carcavelos (SBE)","id":"050421","lat":"38.679662","lon":"-9.327764","lines":["1605","1606","1612","1613","1614","1615"],"schedule":{"travel_time":4,"stop_id":"050421"}},{"index":3,"name":"R Inglaterra 233","id":"050004","lat":"38.682389","lon":"-9.329503","lines":["1601","1604","1605","1606","1613","1614","1615"],"schedule":{"travel_time":1,"stop_id":"050004"}},{"index":4,"name":"Av Dr Francisco Lucas Pires (X) R Flora","id":"050002","lat":"38.685013","lon":"-9.328549","lines":["1601","1604","1605","1606","1613","1614","1615"],"schedule":{"travel_time":1,"stop_id":"050002"}},{"index":5,"name":"Av Francisco Lucas Pires 239","id":"050013","lat":"38.684719","lon":"-9.326592","lines":["1601","1604","1605","1606","1613","1614","1615"],"schedule":{"travel_time":0,"stop_id":"050013"}},{"index":6,"name":"Oeiras (Medrosa)","id":"121185","lat":"38.682783","lon":"-9.323223","lines":["1121","1601","1604","1605","1606","1613","1614","1615"],"schedule":{"travel_time":1,"stop_id":"121185"}},{"index":7,"name":"Av Infante D Henrique 12","id":"120801","lat":"38.684078","lon":"-9.321654","lines":["1121","1601","1604","1605","1606","1613","1614","1615"],"schedule":{"travel_time":0,"stop_id":"120801"}},{"index":8,"name":"Oeiras (Estação) P10 Entrada Sul","id":"121188","lat":"38.687870","lon":"-9.317792","lines":["1605","1606","1612","1613","1614","1615"],"schedule":{"travel_time":1,"stop_id":"121188"}},{"index":9,"name":"Oeiras (Estação) P8 Entrada Norte","id":"121270","lat":"38.688615","lon":"-9.316617","lines":["1120","1523","1529","1604","1614","1615"],"schedule":{"travel_time":1,"stop_id":"121270"}},{"index":10,"name":"R Qta Grande 3 - Inst Gulbenkian","id":"120817","lat":"38.690776","lon":"-9.315991","lines":["1120","1121","1529","1604","1608","1609","1614","1615","1638"],"schedule":{"travel_time":1,"stop_id":"120817"}},{"index":11,"name":"Av República (Estação Agronómica)","id":"121203","lat":"38.694029","lon":"-9.318408","lines":["1121","1604","1614","1615"],"schedule":{"travel_time":1,"stop_id":"121203"}},{"index":12,"name":"Av República 15","id":"121197","lat":"38.695070","lon":"-9.324719","lines":["1121","1604","1614","1615"],"schedule":{"travel_time":1,"stop_id":"121197"}},{"index":13,"name":"Av República (Supermercado)","id":"121226","lat":"38.695781","lon":"-9.329059","lines":["1608","1609","1615","1638"],"schedule":{"travel_time":1,"stop_id":"121226"}},{"index":14,"name":"Rotunda de Sassoeiros 19","id":"050175","lat":"38.697460","lon":"-9.329612","lines":["1615"],"schedule":{"travel_time":0,"stop_id":"050175"}},{"index":15,"name":"Av D Franc Sá Carneiro 729A","id":"050021","lat":"38.699329","lon":"-9.335212","lines":["1604","1614","1615"],"schedule":{"travel_time":2,"stop_id":"050021"}},{"index":16,"name":"R Afonso de Albuquerque 104","id":"050023","lat":"38.700942","lon":"-9.338853","lines":["1604","1614","1615"],"schedule":{"travel_time":0,"stop_id":"050023"}},{"index":17,"name":"Lgo de São Domingos de Rana (Igreja)","id":"050163","lat":"38.702785","lon":"-9.340723","lines":["1613","1614","1615","1622"],"schedule":{"travel_time":1,"stop_id":"050163"}},{"index":18,"name":"Estr de São Domingos (Brisa)","id":"050165","lat":"38.710440","lon":"-9.338510","lines":["1613","1614","1615"],"schedule":{"travel_time":2,"stop_id":"050165"}},{"index":19,"name":"EN 247 (Supermercado)","id":"050167","lat":"38.711427","lon":"-9.338170","lines":["1613","1614","1615"],"schedule":{"travel_time":0,"stop_id":"050167"}},{"index":20,"name":"EN 249 (Cemitério S Domingos de Rana)","id":"050169","lat":"38.712898","lon":"-9.338936","lines":["1613","1614","1615","1622"],"schedule":{"travel_time":0,"stop_id":"050169"}},{"index":21,"name":"EN 249-4 (X) R Principal","id":"050134","lat":"38.719800","lon":"-9.339312","lines":["1613","1614","1615","1622"],"schedule":{"travel_time":2,"stop_id":"050134"}},{"index":22,"name":"EN 249-4 Km 7 4","id":"050132","lat":"38.721486","lon":"-9.338269","lines":["1613","1614","1615"],"schedule":{"travel_time":0,"stop_id":"050132"}},{"index":23,"name":"EN 249-4 Km 7 4","id":"050130","lat":"38.723303","lon":"-9.336099","lines":["1613","1614","1615","1622"],"schedule":{"travel_time":1,"stop_id":"050130"}},{"index":24,"name":"Abóboda","id":"050128","lat":"38.724764","lon":"-9.333921","lines":["1613","1614","1615"],"schedule":{"travel_time":0,"stop_id":"050128"}},{"index":25,"name":"EN 249 1","id":"050126","lat":"38.727472","lon":"-9.334693","lines":["1613","1614","1615"],"schedule":{"travel_time":1,"stop_id":"050126"}},{"index":26,"name":"EN 249-2 12","id":"050124","lat":"38.730842","lon":"-9.336681","lines":["1613","1614","1615","1622"],"schedule":{"travel_time":1,"stop_id":"050124"}},{"index":27,"name":"EN 249-2 59","id":"050122","lat":"38.733754","lon":"-9.338375","lines":["1613","1614","1615"],"schedule":{"travel_time":1,"stop_id":"050122"}},{"index":28,"name":"EN 249 (Chafariz)","id":"050120","lat":"38.737029","lon":"-9.339159","lines":["1613","1614","1615"],"schedule":{"travel_time":0,"stop_id":"050120"}},{"index":29,"name":"EN 249 (Sociedade)","id":"050171","lat":"38.738403","lon":"-9.339605","lines":["1613","1614","1615","1622"],"schedule":{"travel_time":1,"stop_id":"050171"}},{"index":30,"name":"EN 249 (Posto Abast)","id":"050118","lat":"38.742066","lon":"-9.341307","lines":["1613","1614","1615"],"schedule":{"travel_time":0,"stop_id":"050118"}},{"index":31,"name":"EN 249 (X) R do Fojo","id":"050116","lat":"38.744236","lon":"-9.341643","lines":["1613","1614","1615","1622"],"schedule":{"travel_time":1,"stop_id":"050116"}},{"index":32,"name":"Av Santa Isabel 1","id":"172242","lat":"38.746984","lon":"-9.342280","lines":["1613","1614","1615","1622"],"schedule":{"travel_time":1,"stop_id":"172242"}},{"index":33,"name":"R Principal (Oficina)","id":"172259","lat":"38.749172","lon":"-9.342574","lines":["1615"],"schedule":{"travel_time":0,"stop_id":"172259"}},{"index":34,"name":"R Principal Frente Vivenda Silva","id":"172261","lat":"38.750114","lon":"-9.338717","lines":["1615"],"schedule":{"travel_time":1,"stop_id":"172261"}},{"index":35,"name":"R Principal (X) R Câmara","id":"172263","lat":"38.752156","lon":"-9.336037","lines":["1615"],"schedule":{"travel_time":1,"stop_id":"172263"}},{"index":36,"name":"R Principal Frente Vivenda Silva","id":"172262","lat":"38.750345","lon":"-9.338744","lines":["1615"],"schedule":{"travel_time":1,"stop_id":"172262"}},{"index":37,"name":"R Principal (X) R 5 de Outubro","id":"172260","lat":"38.749238","lon":"-9.342095","lines":["1615"],"schedule":{"travel_time":0,"stop_id":"172260"}},{"index":38,"name":"Av Alfredo da Silva (X) Tabaqueira","id":"172238","lat":"38.753650","lon":"-9.344247","lines":["1209","1613","1614","1615","1622"],"schedule":{"travel_time":2,"stop_id":"172238"}},{"index":39,"name":"B Tabaqueira (Estat)","id":"170406","lat":"38.752003","lon":"-9.346907","lines":["1209","1613","1614","1615","1622"],"schedule":{"travel_time":1,"stop_id":"170406"}},{"index":40,"name":"Bairro da Tabaqueira 44","id":"170503","lat":"38.752724","lon":"-9.349868","lines":["1209","1613","1615","1622"],"schedule":{"travel_time":0,"stop_id":"170503"}},{"index":41,"name":"Bairro Tabaqueira (Eb 2 + 3 albarraque)","id":"172235","lat":"38.750863","lon":"-9.351385","lines":["1209","1613","1615","1622"],"schedule":{"travel_time":1,"stop_id":"172235"}},{"index":42,"name":"Bairro Tabaqueira (Mercado)","id":"170403","lat":"38.750847","lon":"-9.349853","lines":["1209","1613","1615","1622"],"schedule":{"travel_time":0,"stop_id":"170403"}},{"index":43,"name":"Bairro Tabaqueira (Usf)","id":"172265","lat":"38.751677","lon":"-9.347868","lines":["1209","1613","1615","1622"],"schedule":{"travel_time":1,"stop_id":"172265"}},{"index":44,"name":"Av Alfredo Silva (Estátua)","id":"170405","lat":"38.752140","lon":"-9.346405","lines":["1209","1613","1615","1622"],"schedule":{"travel_time":0,"stop_id":"170405"}},{"index":45,"name":"Av Alfredo da Silva (X) Tabaqueira","id":"172237","lat":"38.753490","lon":"-9.344200","lines":["1209","1613","1614","1615","1622"],"schedule":{"travel_time":0,"stop_id":"172237"}},{"index":46,"name":"R do Moinho 14","id":"172267","lat":"38.755162","lon":"-9.341544","lines":["1615"],"schedule":{"travel_time":1,"stop_id":"172267"}},{"index":47,"name":"R do Moinho 30","id":"172269","lat":"38.756180","lon":"-9.340424","lines":["1615"],"schedule":{"travel_time":0,"stop_id":"172269"}},{"index":48,"name":"R Anastácio Pinto Soares (X) Serra","id":"170411","lat":"38.756983","lon":"-9.335928","lines":["1209","1615"],"schedule":{"travel_time":1,"stop_id":"170411"}},{"index":49,"name":"R Anastácio Pinto Soares (X) Covões","id":"170413","lat":"38.758004","lon":"-9.332286","lines":["1209","1615"],"schedule":{"travel_time":1,"stop_id":"170413"}},{"index":50,"name":"Á-dos-Francos","id":"170415","lat":"38.759655","lon":"-9.329589","lines":["1209","1615"],"schedule":{"travel_time":1,"stop_id":"170415"}},{"index":51,"name":"R dos Castelinhos 31","id":"170417","lat":"38.762394","lon":"-9.328933","lines":["1209","1615"],"schedule":{"travel_time":0,"stop_id":"170417"}},{"index":52,"name":"R Castelinhos (X) Cova Coelho","id":"170419","lat":"38.763995","lon":"-9.326992","lines":["1209","1615"],"schedule":{"travel_time":1,"stop_id":"170419"}},{"index":53,"name":"Paiões (Cast)","id":"170421","lat":"38.765460","lon":"-9.324399","lines":["1209","1615"],"schedule":{"travel_time":1,"stop_id":"170421"}},{"index":54,"name":"Paiões (R M Silva)","id":"170423","lat":"38.765929","lon":"-9.322242","lines":["1209","1615"],"schedule":{"travel_time":0,"stop_id":"170423"}},{"index":55,"name":"R Natalia Correia Fte 16","id":"170425","lat":"38.765609","lon":"-9.319991","lines":["1209","1615"],"schedule":{"travel_time":1,"stop_id":"170425"}},{"index":56,"name":"R Manuel Fonseca (X) Pcta M Judite Carv","id":"170427","lat":"38.765112","lon":"-9.318342","lines":["1209","1615"],"schedule":{"travel_time":0,"stop_id":"170427"}},{"index":57,"name":"R Manuel Fonseca (Fte X) R Ant Boto","id":"170429","lat":"38.763835","lon":"-9.318948","lines":["1209","1615"],"schedule":{"travel_time":0,"stop_id":"170429"}},{"index":58,"name":"R José Gomes Ferreira Fte 3","id":"170433","lat":"38.763788","lon":"-9.316122","lines":["1209","1615"],"schedule":{"travel_time":1,"stop_id":"170433"}},{"index":59,"name":"R José Gomes Ferreira Fte 19","id":"170435","lat":"38.765222","lon":"-9.316677","lines":["1209","1615"],"schedule":{"travel_time":0,"stop_id":"170435"}},{"index":60,"name":"R José Gomes Ferreira Fte 33","id":"170437","lat":"38.766595","lon":"-9.317283","lines":["1209","1615"],"schedule":{"travel_time":1,"stop_id":"170437"}},{"index":61,"name":"R Máximo Silva (Sobreira e Serras)","id":"172203","lat":"38.768585","lon":"-9.317354","lines":["1613","1615","1622"],"schedule":{"travel_time":2,"stop_id":"172203"}},{"index":62,"name":"R Padre Francisco Cruz 7","id":"172205","lat":"38.769310","lon":"-9.317956","lines":["1613","1615","1622"],"schedule":{"travel_time":0,"stop_id":"172205"}},{"index":63,"name":"R António José da Luz 8","id":"172207","lat":"38.769962","lon":"-9.320153","lines":["1613","1615","1622"],"schedule":{"travel_time":1,"stop_id":"172207"}},{"index":64,"name":"Largo 1º Dezembro 2","id":"172209","lat":"38.771986","lon":"-9.325162","lines":["1613","1615","1622"],"schedule":{"travel_time":1,"stop_id":"172209"}},{"index":65,"name":"R José Cupertino Ribeiro 38","id":"172211","lat":"38.773465","lon":"-9.326815","lines":["1613","1615","1622"],"schedule":{"travel_time":0,"stop_id":"172211"}},{"index":66,"name":"R António Cardoso 7 (Espelho)","id":"172271","lat":"38.774711","lon":"-9.329594","lines":["1615"],"schedule":{"travel_time":1,"stop_id":"172271"}},{"index":67,"name":"R António Cardoso (Rotunda)","id":"172273","lat":"38.775995","lon":"-9.331986","lines":["1615"],"schedule":{"travel_time":0,"stop_id":"172273"}},{"index":68,"name":"R Elias Garcia (Centro Comercial)","id":"170161","lat":"38.777443","lon":"-9.335626","lines":["1204","1223","1236","1251","1615"],"schedule":{"travel_time":1,"stop_id":"170161"}},{"index":69,"name":"EN 249 Km13 5","id":"170054","lat":"38.778038","lon":"-9.338058","lines":["1204","1223","1236","1251","1615"],"schedule":{"travel_time":0,"stop_id":"170054"}},{"index":70,"name":"Estr Terras da Lagoa (Rotunda)","id":"170163","lat":"38.778214","lon":"-9.342400","lines":["1204","1223","1236","1251","1615"],"schedule":{"travel_time":1,"stop_id":"170163"}},{"index":71,"name":"Cam Serradinho (Cimo Centro Comercial)","id":"170151","lat":"38.774224","lon":"-9.342538","lines":["1204","1223","1232","1234","1236","1251","1615"],"schedule":{"travel_time":1,"stop_id":"170151"}},{"index":72,"name":"Alto do Forte (Centro Comercial)","id":"170048","lat":"38.775740","lon":"-9.342026","lines":["1223","1232","1234","1251","1615"],"schedule":{"travel_time":0,"stop_id":"170048"}},{"index":73,"name":"Estr Terras Lagoa (Centro Comercial)","id":"170049","lat":"38.774883","lon":"-9.343144","lines":["1204","1223","1232","1234","1236","1251","1615"],"schedule":{"travel_time":1,"stop_id":"170049"}},{"index":74,"name":"Estr Terras da Lagoa (Rotunda)","id":"170051","lat":"38.778259","lon":"-9.342161","lines":["1204","1223","1232","1234","1236","1251","1615"],"schedule":{"travel_time":1,"stop_id":"170051"}},{"index":75,"name":"EN 249 Km13 5","id":"170053","lat":"38.778262","lon":"-9.339355","lines":["1204","1223","1236","1251","1615"],"schedule":{"travel_time":0,"stop_id":"170053"}},{"index":76,"name":"R Elias Garcia (Zona Comercial)","id":"170055","lat":"38.776975","lon":"-9.335048","lines":["1204","1223","1236","1251","1615"],"schedule":{"travel_time":1,"stop_id":"170055"}},{"index":77,"name":"Alto do Forte - Av Irene Lisboa","id":"170057","lat":"38.779982","lon":"-9.334555","lines":["1223","1251","1615"],"schedule":{"travel_time":1,"stop_id":"170057"}},{"index":78,"name":"Av Irene Lisboa (Armazém A)","id":"170059","lat":"38.780623","lon":"-9.331254","lines":["1223","1251","1615"],"schedule":{"travel_time":1,"stop_id":"170059"}},{"index":79,"name":"Av João de Deus 102","id":"170079","lat":"38.782243","lon":"-9.331238","lines":["1205","1210","1232","1251","1615","1625","1627","1628","1631"],"schedule":{"travel_time":1,"stop_id":"170079"}},{"index":80,"name":"Av Fernando Pessoa 51","id":"172275","lat":"38.783541","lon":"-9.331774","lines":["1615"],"schedule":{"travel_time":0,"stop_id":"172275"}},{"index":81,"name":"Av Fernando Pessoa 8","id":"172277","lat":"38.784170","lon":"-9.330597","lines":["1615"],"schedule":{"travel_time":1,"stop_id":"172277"}},{"index":82,"name":"Av Maria Lamas 48","id":"170063","lat":"38.786038","lon":"-9.329946","lines":["1205","1210","1223","1232","1251","1615","1625","1627","1628","1631"],"schedule":{"travel_time":0,"stop_id":"170063"}},{"index":83,"name":"R da Ponte","id":"170065","lat":"38.786801","lon":"-9.328678","lines":["1223","1232","1251","1615","1625","1627","1628","1631"],"schedule":{"travel_time":1,"stop_id":"170065"}},{"index":84,"name":"Av D João II 45","id":"170067","lat":"38.784410","lon":"-9.326308","lines":["1223","1232","1251","1615","1625","1627","1628","1631"],"schedule":{"travel_time":0,"stop_id":"170067"}},{"index":85,"name":"Av D João II 3","id":"170069","lat":"38.781571","lon":"-9.324488","lines":["1223","1232","1251","1615","1625","1627","1628","1631"],"schedule":{"travel_time":1,"stop_id":"170069"}},{"index":86,"name":"Av Gago Coutinho 54","id":"170071","lat":"38.782223","lon":"-9.323319","lines":["1232","1251","1615","1625","1627","1628","1631"],"schedule":{"travel_time":0,"stop_id":"170071"}},{"index":87,"name":"Rio De Mouro (Estação Sul)","id":"172492","lat":"38.783680","lon":"-9.321989","lines":["1615"],"schedule":{"travel_time":1,"stop_id":"172492"}}]}