{"color":"#C61D23","headsign":"Carcavelos (Estação)","id":"1615_0_2","long_name":"Carcavelos (Estação) - Rio De Mouro (Estação Sul)","line_id":"1615","shape_id":"189_4X7ZR","path":[{"index":1,"name":"Rio De Mouro (Estação Sul)","id":"172492","lat":"38.783680","lon":"-9.321989","lines":["1615"],"schedule":{"travel_time":0,"stop_id":"172492"}},{"index":2,"name":"Av Inf D Henrique 28 A","id":"170075","lat":"38.785108","lon":"-9.324528","lines":["1232","1251","1615","1625","1627","1628","1631"],"schedule":{"travel_time":1,"stop_id":"170075"}},{"index":3,"name":"Av D João II 55 A","id":"170077","lat":"38.785398","lon":"-9.326147","lines":["1232","1251","1615","1625","1627","1628","1631"],"schedule":{"travel_time":0,"stop_id":"170077"}},{"index":4,"name":"R da Ponte","id":"170066","lat":"38.787091","lon":"-9.328683","lines":["1223","1232","1251","1615","1625","1627","1628","1631"],"schedule":{"travel_time":1,"stop_id":"170066"}},{"index":5,"name":"Av Maria Lamas 49","id":"170064","lat":"38.785933","lon":"-9.330131","lines":["1205","1210","1223","1232","1251","1615","1625","1627","1628","1631"],"schedule":{"travel_time":1,"stop_id":"170064"}},{"index":6,"name":"Av Fernando Pessoa 8","id":"172278","lat":"38.784142","lon":"-9.330816","lines":["1615"],"schedule":{"travel_time":0,"stop_id":"172278"}},{"index":7,"name":"Av Fernando Pessoa 1","id":"172276","lat":"38.783577","lon":"-9.331922","lines":["1615"],"schedule":{"travel_time":0,"stop_id":"172276"}},{"index":8,"name":"Av João de Deus 104 (Lg Alves Redol)","id":"170080","lat":"38.782111","lon":"-9.331263","lines":["1205","1210","1232","1251","1615","1625","1627","1628","1631"],"schedule":{"travel_time":1,"stop_id":"170080"}},{"index":9,"name":"Av Irene Lisboa (Armazém A)","id":"170060","lat":"38.780615","lon":"-9.331362","lines":["1223","1615"],"schedule":{"travel_time":0,"stop_id":"170060"}},{"index":10,"name":"Alto do Forte - Av Irene Lisboa","id":"170058","lat":"38.780001","lon":"-9.334426","lines":["1223","1615"],"schedule":{"travel_time":1,"stop_id":"170058"}},{"index":11,"name":"R Maj Gen Machado de Sousa 28","id":"170153","lat":"38.781918","lon":"-9.336623","lines":["1223","1251","1615"],"schedule":{"travel_time":1,"stop_id":"170153"}},{"index":12,"name":"R Maj Gen Machado de Sousa 28","id":"170154","lat":"38.781607","lon":"-9.336633","lines":["1223","1251","1615"],"schedule":{"travel_time":0,"stop_id":"170154"}},{"index":13,"name":"R Elias Garcia (Centro Comercial)","id":"170161","lat":"38.777443","lon":"-9.335626","lines":["1204","1223","1236","1251","1615"],"schedule":{"travel_time":2,"stop_id":"170161"}},{"index":14,"name":"EN 249 Km13 5","id":"170054","lat":"38.778038","lon":"-9.338058","lines":["1204","1223","1236","1251","1615"],"schedule":{"travel_time":0,"stop_id":"170054"}},{"index":15,"name":"Estr Terras da Lagoa (Rotunda)","id":"170163","lat":"38.778214","lon":"-9.342400","lines":["1204","1223","1236","1251","1615"],"schedule":{"travel_time":1,"stop_id":"170163"}},{"index":16,"name":"Cam Serradinho (Cimo Centro Comercial)","id":"170151","lat":"38.774224","lon":"-9.342538","lines":["1204","1223","1232","1234","1236","1251","1615"],"schedule":{"travel_time":1,"stop_id":"170151"}},{"index":17,"name":"Alto do Forte (Centro Comercial)","id":"170048","lat":"38.775740","lon":"-9.342026","lines":["1223","1232","1234","1251","1615"],"schedule":{"travel_time":0,"stop_id":"170048"}},{"index":18,"name":"Estr Terras Lagoa (Centro Comercial)","id":"170049","lat":"38.774883","lon":"-9.343144","lines":["1204","1223","1232","1234","1236","1251","1615"],"schedule":{"travel_time":1,"stop_id":"170049"}},{"index":19,"name":"Estr Terras da Lagoa (Rotunda)","id":"170051","lat":"38.778259","lon":"-9.342161","lines":["1204","1223","1232","1234","1236","1251","1615"],"schedule":{"travel_time":1,"stop_id":"170051"}},{"index":20,"name":"EN 249 Km13 5","id":"170053","lat":"38.778262","lon":"-9.339355","lines":["1204","1223","1236","1251","1615"],"schedule":{"travel_time":0,"stop_id":"170053"}},{"index":21,"name":"R Elias Garcia (Zona Comercial)","id":"170055","lat":"38.776975","lon":"-9.335048","lines":["1204","1223","1236","1251","1615"],"schedule":{"travel_time":1,"stop_id":"170055"}},{"index":22,"name":"R António Cardoso 5","id":"172279","lat":"38.776178","lon":"-9.333107","lines":["1615"],"schedule":{"travel_time":1,"stop_id":"172279"}},{"index":23,"name":"R António Cardoso 1","id":"172272","lat":"38.774478","lon":"-9.329519","lines":["1615"],"schedule":{"travel_time":0,"stop_id":"172272"}},{"index":24,"name":"R José Cupertino Ribeiro 34","id":"172212","lat":"38.773348","lon":"-9.326777","lines":["1613","1615","1622"],"schedule":{"travel_time":1,"stop_id":"172212"}},{"index":25,"name":"Lgo 1º Dezembro 2 (Sociedade)","id":"172210","lat":"38.771842","lon":"-9.325124","lines":["1613","1615","1622"],"schedule":{"travel_time":0,"stop_id":"172210"}},{"index":26,"name":"R António José da Luz 9","id":"172208","lat":"38.769600","lon":"-9.319661","lines":["1613","1615","1622"],"schedule":{"travel_time":1,"stop_id":"172208"}},{"index":27,"name":"R Padre Francisco Cruz 7","id":"172206","lat":"38.769219","lon":"-9.317809","lines":["1613","1615","1622"],"schedule":{"travel_time":1,"stop_id":"172206"}},{"index":28,"name":"R Máximo Silva (X) Prcta Miguel Torga","id":"172204","lat":"38.768446","lon":"-9.318153","lines":["1613","1615","1622"],"schedule":{"travel_time":0,"stop_id":"172204"}},{"index":29,"name":"R J G Ferreira (X) R Sidónio Muralha","id":"170497","lat":"38.766975","lon":"-9.318108","lines":["1209","1615"],"schedule":{"travel_time":1,"stop_id":"170497"}},{"index":30,"name":"R José Gomes Ferreira 25","id":"170499","lat":"38.765887","lon":"-9.317200","lines":["1209","1615"],"schedule":{"travel_time":0,"stop_id":"170499"}},{"index":31,"name":"R José Gomes Ferreira 13","id":"170436","lat":"38.764632","lon":"-9.316690","lines":["1209","1615"],"schedule":{"travel_time":0,"stop_id":"170436"}},{"index":32,"name":"R J Gomes Ferreira (X) Estr Vale Mourão","id":"170434","lat":"38.763449","lon":"-9.316170","lines":["1209","1615"],"schedule":{"travel_time":1,"stop_id":"170434"}},{"index":33,"name":"R Manuel Fonseca (Fte X) R Ant Boto","id":"170430","lat":"38.763635","lon":"-9.318853","lines":["1209","1615"],"schedule":{"travel_time":0,"stop_id":"170430"}},{"index":34,"name":"R Manuel Fonseca (X) pcta M Judite Carv","id":"170428","lat":"38.765213","lon":"-9.318070","lines":["1209","1615"],"schedule":{"travel_time":1,"stop_id":"170428"}},{"index":35,"name":"R Natalia Correia Fte 16","id":"170501","lat":"38.765665","lon":"-9.320187","lines":["1209","1615"],"schedule":{"travel_time":0,"stop_id":"170501"}},{"index":36,"name":"Paiões (R M Silva)","id":"170424","lat":"38.765915","lon":"-9.321955","lines":["1209","1615"],"schedule":{"travel_time":1,"stop_id":"170424"}},{"index":37,"name":"R Castelinhos 5 (Lg Paiões)","id":"170422","lat":"38.765709","lon":"-9.324381","lines":["1209","1615"],"schedule":{"travel_time":0,"stop_id":"170422"}},{"index":38,"name":"R Castelinhos 41","id":"170420","lat":"38.763915","lon":"-9.327249","lines":["1209","1615"],"schedule":{"travel_time":1,"stop_id":"170420"}},{"index":39,"name":"R dos Castelinhos 70","id":"170418","lat":"38.762274","lon":"-9.329166","lines":["1209","1615"],"schedule":{"travel_time":0,"stop_id":"170418"}},{"index":40,"name":"Á-dos-Francos","id":"170416","lat":"38.759836","lon":"-9.329578","lines":["1209","1615"],"schedule":{"travel_time":1,"stop_id":"170416"}},{"index":41,"name":"Av Anast Pinto Soares (Vv Joaq / Madal)","id":"170414","lat":"38.758014","lon":"-9.332520","lines":["1209","1615"],"schedule":{"travel_time":1,"stop_id":"170414"}},{"index":42,"name":"Av Anastácio Pinto Soares 13","id":"170412","lat":"38.756933","lon":"-9.336351","lines":["1209","1615"],"schedule":{"travel_time":0,"stop_id":"170412"}},{"index":43,"name":"R do Moinho 27","id":"172270","lat":"38.756233","lon":"-9.340616","lines":["1615"],"schedule":{"travel_time":1,"stop_id":"172270"}},{"index":44,"name":"R do Moinho 14","id":"172268","lat":"38.755110","lon":"-9.341742","lines":["1615"],"schedule":{"travel_time":1,"stop_id":"172268"}},{"index":45,"name":"Av Alfredo da Silva (X) Tabaqueira","id":"172238","lat":"38.753650","lon":"-9.344247","lines":["1209","1613","1614","1615","1622"],"schedule":{"travel_time":0,"stop_id":"172238"}},{"index":46,"name":"B Tabaqueira (Estat)","id":"170406","lat":"38.752003","lon":"-9.346907","lines":["1209","1613","1614","1615","1622"],"schedule":{"travel_time":1,"stop_id":"170406"}},{"index":47,"name":"Bairro da Tabaqueira 44","id":"170503","lat":"38.752724","lon":"-9.349868","lines":["1209","1613","1615","1622"],"schedule":{"travel_time":1,"stop_id":"170503"}},{"index":48,"name":"Bairro Tabaqueira (Eb 2 + 3 albarraque)","id":"172235","lat":"38.750863","lon":"-9.351385","lines":["1209","1613","1615","1622"],"schedule":{"travel_time":0,"stop_id":"172235"}},{"index":49,"name":"Bairro Tabaqueira (Mercado)","id":"170403","lat":"38.750847","lon":"-9.349853","lines":["1209","1613","1615","1622"],"schedule":{"travel_time":1,"stop_id":"170403"}},{"index":50,"name":"Bairro Tabaqueira (Usf)","id":"172265","lat":"38.751677","lon":"-9.347868","lines":["1209","1613","1615","1622"],"schedule":{"travel_time":0,"stop_id":"172265"}},{"index":51,"name":"Av Alfredo Silva (Estátua)","id":"170405","lat":"38.752140","lon":"-9.346405","lines":["1209","1613","1615","1622"],"schedule":{"travel_time":0,"stop_id":"170405"}},{"index":52,"name":"Av Alfredo da Silva (X) Tabaqueira","id":"172237","lat":"38.753490","lon":"-9.344200","lines":["1209","1613","1614","1615","1622"],"schedule":{"travel_time":1,"stop_id":"172237"}},{"index":53,"name":"R Principal (Oficina)","id":"172259","lat":"38.749172","lon":"-9.342574","lines":["1615"],"schedule":{"travel_time":1,"stop_id":"172259"}},{"index":54,"name":"R Principal Frente Vivenda Silva","id":"172261","lat":"38.750114","lon":"-9.338717","lines":["1615"],"schedule":{"travel_time":1,"stop_id":"172261"}},{"index":55,"name":"R Principal (X) R Câmara","id":"172263","lat":"38.752156","lon":"-9.336037","lines":["1615"],"schedule":{"travel_time":1,"stop_id":"172263"}},{"index":56,"name":"R Principal Frente Vivenda Silva","id":"172262","lat":"38.750345","lon":"-9.338744","lines":["1615"],"schedule":{"travel_time":1,"stop_id":"172262"}},{"index":57,"name":"R Principal (X) R 5 de Outubro","id":"172260","lat":"38.749238","lon":"-9.342095","lines":["1615"],"schedule":{"travel_time":1,"stop_id":"172260"}},{"index":58,"name":"Av Santa Isabel 1","id":"172241","lat":"38.746264","lon":"-9.342245","lines":["1613","1614","1615","1622"],"schedule":{"travel_time":1,"stop_id":"172241"}},{"index":59,"name":"EN 249 (X) R do Fojo","id":"050115","lat":"38.744386","lon":"-9.341795","lines":["1613","1614","1615","1622"],"schedule":{"travel_time":0,"stop_id":"050115"}},{"index":60,"name":"EN 249 (Posto Abast)","id":"050117","lat":"38.741706","lon":"-9.341377","lines":["1613","1614","1615"],"schedule":{"travel_time":1,"stop_id":"050117"}},{"index":61,"name":"EN 249 391","id":"050172","lat":"38.738314","lon":"-9.339761","lines":["1614","1615","1622"],"schedule":{"travel_time":0,"stop_id":"050172"}},{"index":62,"name":"EN 249 (Lgo)","id":"050119","lat":"38.736995","lon":"-9.339364","lines":["1613","1614","1615"],"schedule":{"travel_time":1,"stop_id":"050119"}},{"index":63,"name":"EN 249-2 59","id":"050121","lat":"38.733707","lon":"-9.338492","lines":["1613","1614","1615"],"schedule":{"travel_time":1,"stop_id":"050121"}},{"index":64,"name":"EN 249-4 6","id":"050123","lat":"38.730433","lon":"-9.336585","lines":["1613","1614","1615","1622"],"schedule":{"travel_time":0,"stop_id":"050123"}},{"index":65,"name":"EN 249 1","id":"050125","lat":"38.727144","lon":"-9.334634","lines":["1613","1614","1615"],"schedule":{"travel_time":1,"stop_id":"050125"}},{"index":66,"name":"Abóboda","id":"050127","lat":"38.725439","lon":"-9.333885","lines":["1613","1614","1615"],"schedule":{"travel_time":1,"stop_id":"050127"}},{"index":67,"name":"EN 249-4 Km 7 4","id":"050129","lat":"38.723358","lon":"-9.336276","lines":["1613","1614","1615","1622"],"schedule":{"travel_time":0,"stop_id":"050129"}},{"index":68,"name":"EN 249-4 Km 7 4","id":"050131","lat":"38.721669","lon":"-9.338202","lines":["1613","1614","1615"],"schedule":{"travel_time":1,"stop_id":"050131"}},{"index":69,"name":"EN 249-4 (X) R Principal","id":"050133","lat":"38.719366","lon":"-9.339490","lines":["1613","1614","1615","1622"],"schedule":{"travel_time":1,"stop_id":"050133"}},{"index":70,"name":"R de Zambeze (Vivenda Marques)","id":"050135","lat":"38.714839","lon":"-9.339168","lines":["1613","1614","1615"],"schedule":{"travel_time":1,"stop_id":"050135"}},{"index":71,"name":"EN 249 (Cemitério S Domingos de Rana)","id":"050137","lat":"38.712323","lon":"-9.339140","lines":["1613","1614","1615","1622"],"schedule":{"travel_time":0,"stop_id":"050137"}},{"index":72,"name":"Estr de São Domingos (Fte Brisa)","id":"050139","lat":"38.710008","lon":"-9.338789","lines":["1613","1614","1615"],"schedule":{"travel_time":1,"stop_id":"050139"}},{"index":73,"name":"Lgo de São Domingos de Rana (Igreja)","id":"050141","lat":"38.702157","lon":"-9.340834","lines":["1613","1614","1615","1622"],"schedule":{"travel_time":1,"stop_id":"050141"}},{"index":74,"name":"R Afonso de Albuquerque 104","id":"050024","lat":"38.700837","lon":"-9.338914","lines":["1604","1614","1615"],"schedule":{"travel_time":1,"stop_id":"050024"}},{"index":75,"name":"Av D F Sá Carneiro 858 (Escola)","id":"050055","lat":"38.699448","lon":"-9.336175","lines":["1604","1614","1615"],"schedule":{"travel_time":1,"stop_id":"050055"}},{"index":76,"name":"Av Francisco Sá Carneiro 17","id":"050173","lat":"38.697739","lon":"-9.330262","lines":["1614","1615"],"schedule":{"travel_time":1,"stop_id":"050173"}},{"index":77,"name":"Av República (Pingo Doce)","id":"121225","lat":"38.695515","lon":"-9.328683","lines":["1608","1609","1615","1638"],"schedule":{"travel_time":0,"stop_id":"121225"}},{"index":78,"name":"Av República 15","id":"121198","lat":"38.694900","lon":"-9.324844","lines":["1604","1614","1615"],"schedule":{"travel_time":1,"stop_id":"121198"}},{"index":79,"name":"Av Salvador Allende 35 (C Saúde)","id":"120877","lat":"38.692825","lon":"-9.318352","lines":["1120","1529","1604","1614","1615"],"schedule":{"travel_time":2,"stop_id":"120877"}},{"index":80,"name":"Oeiras (Estação) P1 Entrada Norte","id":"120787","lat":"38.688535","lon":"-9.317854","lines":["1120","1529","1604","1608","1609","1614","1615","1638"],"schedule":{"travel_time":1,"stop_id":"120787"}},{"index":81,"name":"Oeiras (Estação) P9 Entrada Sul","id":"121187","lat":"38.688143","lon":"-9.317519","lines":["1121","1601","1604","1605","1606","1612","1613","1614","1615"],"schedule":{"travel_time":0,"stop_id":"121187"}},{"index":82,"name":"Av Inf D Henrique (Clínica)","id":"121207","lat":"38.687033","lon":"-9.318752","lines":["1601","1604","1605","1606","1613","1614","1615"],"schedule":{"travel_time":1,"stop_id":"121207"}},{"index":83,"name":"Av Infante D Henrique (Quartel)","id":"120879","lat":"38.686308","lon":"-9.319189","lines":["1601","1604","1605","1606","1613","1614","1615"],"schedule":{"travel_time":0,"stop_id":"120879"}},{"index":84,"name":"Av Inf D Henrique 6","id":"121209","lat":"38.683511","lon":"-9.321899","lines":["1601","1604","1605","1606","1613","1614","1615"],"schedule":{"travel_time":1,"stop_id":"121209"}},{"index":85,"name":"Oeiras (Medrosa)","id":"121186","lat":"38.682865","lon":"-9.323132","lines":["1601","1604","1605","1606","1613","1614","1615"],"schedule":{"travel_time":0,"stop_id":"121186"}},{"index":86,"name":"Av Francisco Lucas Pires 239","id":"050014","lat":"38.684817","lon":"-9.326569","lines":["1601","1604","1605","1606","1613","1614","1615"],"schedule":{"travel_time":1,"stop_id":"050014"}},{"index":87,"name":"Av Dr Francisco Lucas Pires (X) R Flora","id":"050001","lat":"38.685118","lon":"-9.328584","lines":["1601","1604","1605","1606","1613","1614","1615"],"schedule":{"travel_time":0,"stop_id":"050001"}},{"index":88,"name":"Estr Torre Fte 626","id":"050423","lat":"38.683579","lon":"-9.330281","lines":["1601","1604","1605","1606","1614","1615"],"schedule":{"travel_time":1,"stop_id":"050423"}},{"index":89,"name":"R Inglaterra 233","id":"050003","lat":"38.682401","lon":"-9.329654","lines":["1601","1604","1605","1606","1613","1614","1615"],"schedule":{"travel_time":0,"stop_id":"050003"}},{"index":90,"name":"Carcavelos (SBE)","id":"050421","lat":"38.679662","lon":"-9.327764","lines":["1605","1606","1612","1613","1614","1615"],"schedule":{"travel_time":2,"stop_id":"050421"}},{"index":91,"name":"Carcavelos (Estação)","id":"050418","lat":"38.687574","lon":"-9.336967","lines":["1604","1612","1614","1615"],"schedule":{"travel_time":3,"stop_id":"050418"}}]}