{"color":"#C61D23","headsign":"Taguspark (Rotunda SEF)","id":"1616_1_1","long_name":"Paço de Arcos (Estação Norte) – Taguspark (Rotunda SEF) via Esc. Prep. Paço de Arcos e Leião (X Talaíde)","line_id":"1616","shape_id":"291_4X7ZR","path":[{"index":1,"name":"Paço De Arcos (Estação Norte)","id":"120605","lat":"38.698727","lon":"-9.291167","lines":["1115","1117","1123","1610","1611","1616"],"schedule":{"travel_time":0,"stop_id":"120605"}},{"index":2,"name":"Paço Arcos (X) Tap Mocho","id":"120891","lat":"38.699913","lon":"-9.295530","lines":["1115","1117","1122","1123","1616","1617","1725"],"schedule":{"travel_time":2,"stop_id":"120891"}},{"index":3,"name":"Paço Arcos (Esc Preparatória)","id":"120689","lat":"38.697603","lon":"-9.296357","lines":["1115","1117","1122","1123","1616","1617","1725"],"schedule":{"travel_time":1,"stop_id":"120689"}},{"index":4,"name":"Av Elvira Velez (Esc Preparatória)","id":"121243","lat":"38.698251","lon":"-9.296763","lines":["1115","1117","1123","1616","1617"],"schedule":{"travel_time":0,"stop_id":"121243"}},{"index":5,"name":"Paço Arcos (X) Tap Mocho","id":"120687","lat":"38.699894","lon":"-9.295375","lines":["1115","1117","1123","1616","1617","1725"],"schedule":{"travel_time":1,"stop_id":"120687"}},{"index":6,"name":"Estr Paço Arcos (CC)","id":"120607","lat":"38.700852","lon":"-9.293546","lines":["1115","1117","1119","1123","1531","1610","1611","1616","1617"],"schedule":{"travel_time":1,"stop_id":"120607"}},{"index":7,"name":"Estr Paço Arcos (Veolia)","id":"120609","lat":"38.704222","lon":"-9.295042","lines":["1115","1117","1119","1122","1123","1531","1610","1611","1616","1617"],"schedule":{"travel_time":1,"stop_id":"120609"}},{"index":8,"name":"Estr Paço Arcos (Supermercado)","id":"120611","lat":"38.705965","lon":"-9.295184","lines":["1115","1117","1119","1122","1123","1531","1610","1611","1616","1617"],"schedule":{"travel_time":0,"stop_id":"120611"}},{"index":9,"name":"Estr Paço Arcos (Serviços CM Oeiras)","id":"120721","lat":"38.709850","lon":"-9.295453","lines":["1119","1122","1123","1125","1531","1610","1611","1616","1617"],"schedule":{"travel_time":1,"stop_id":"120721"}},{"index":10,"name":"Porto Salvo (Qta Fonte)","id":"120723","lat":"38.711983","lon":"-9.297724","lines":["1119","1123","1531","1610","1611","1612","1616","1617","1733"],"schedule":{"travel_time":3,"stop_id":"120723"}},{"index":11,"name":"Porto Salvo (Centro)","id":"120919","lat":"38.716223","lon":"-9.301603","lines":["1123","1520","1521","1523","1530","1601","1610","1616","1731","1733"],"schedule":{"travel_time":2,"stop_id":"120919"}},{"index":12,"name":"R C Rio Maior (Igreja)","id":"120921","lat":"38.719011","lon":"-9.302212","lines":["1123","1125","1520","1521","1523","1530","1601","1610","1611","1616","1731","1733"],"schedule":{"travel_time":1,"stop_id":"120921"}},{"index":13,"name":"Av Eng Arantes Oliveira 27","id":"120923","lat":"38.722744","lon":"-9.304546","lines":["1123","1610","1611","1616"],"schedule":{"travel_time":2,"stop_id":"120923"}},{"index":14,"name":"Porto Salvo (B Auto Construção)","id":"120925","lat":"38.722580","lon":"-9.307794","lines":["1123","1529","1610","1611","1616"],"schedule":{"travel_time":1,"stop_id":"120925"}},{"index":15,"name":"Av D Pedro V 66","id":"120979","lat":"38.723100","lon":"-9.309673","lines":["1529","1610","1611","1616"],"schedule":{"travel_time":0,"stop_id":"120979"}},{"index":16,"name":"R Augusta (X) Pct José Afonso","id":"120981","lat":"38.725072","lon":"-9.309866","lines":["1529","1610","1611","1616"],"schedule":{"travel_time":1,"stop_id":"120981"}},{"index":17,"name":"R Augusta Fte 220","id":"121173","lat":"38.727330","lon":"-9.310052","lines":["1529","1610","1611","1616"],"schedule":{"travel_time":1,"stop_id":"121173"}},{"index":18,"name":"Av Lopo Soares Albergaria 40","id":"121175","lat":"38.729229","lon":"-9.309897","lines":["1529","1610","1611","1616"],"schedule":{"travel_time":0,"stop_id":"121175"}},{"index":19,"name":"Estr Talaíde 53","id":"121015","lat":"38.732736","lon":"-9.304276","lines":["1520","1521","1531","1610","1616","1617","1731"],"schedule":{"travel_time":3,"stop_id":"121015"}},{"index":20,"name":"Estr Talaíde (Igreja)","id":"121017","lat":"38.730318","lon":"-9.302095","lines":["1520","1521","1531","1610","1616","1617","1731"],"schedule":{"travel_time":1,"stop_id":"121017"}},{"index":21,"name":"Leião (X) Talaíde","id":"121019","lat":"38.729376","lon":"-9.301270","lines":["1125","1523","1530","1531","1601","1616","1617","1733"],"schedule":{"travel_time":0,"stop_id":"121019"}},{"index":22,"name":"Talaíde (Esc Secundária)","id":"121125","lat":"38.734484","lon":"-9.305622","lines":["1524","1529","1616"],"schedule":{"travel_time":3,"stop_id":"121125"}},{"index":23,"name":"Estr Talaíde 92","id":"121001","lat":"38.734535","lon":"-9.307169","lines":["1608","1610","1611","1616"],"schedule":{"travel_time":1,"stop_id":"121001"}},{"index":24,"name":"Estr Talaíde 2 (Chafariz)","id":"050110","lat":"38.736668","lon":"-9.310234","lines":["1608","1610","1611","1616"],"schedule":{"travel_time":1,"stop_id":"050110"}},{"index":25,"name":"Talaíde (Igreja)","id":"050106","lat":"38.737691","lon":"-9.313056","lines":["1608","1609","1610","1611","1616","1617"],"schedule":{"travel_time":1,"stop_id":"050106"}},{"index":26,"name":"Talaíde (Campo Futebol)","id":"050114","lat":"38.739738","lon":"-9.314555","lines":["1616","1617"],"schedule":{"travel_time":0,"stop_id":"050114"}},{"index":27,"name":"Estr Octávio Pato (C Empres Talaíde)","id":"050177","lat":"38.742647","lon":"-9.316107","lines":["1616","1617"],"schedule":{"travel_time":1,"stop_id":"050177"}},{"index":28,"name":"Nova Urbanização (X) Estr Octávio Pato","id":"172283","lat":"38.747786","lon":"-9.313250","lines":["1616","1617"],"schedule":{"travel_time":2,"stop_id":"172283"}},{"index":29,"name":"Univ Católica","id":"170785","lat":"38.750430","lon":"-9.311895","lines":["1616","1617"],"schedule":{"travel_time":1,"stop_id":"170785"}},{"index":30,"name":"Taguspark (Novo Banco)","id":"121039","lat":"38.750726","lon":"-9.308186","lines":["1216","1225","1233","1529","1612","1616","1617","1733"],"schedule":{"travel_time":1,"stop_id":"121039"}},{"index":31,"name":"São Marcos (Rotunda)","id":"170775","lat":"38.750991","lon":"-9.302750","lines":["1215","1216","1220","1225","1233","1523","1529","1531","1616","1617","1733"],"schedule":{"travel_time":2,"stop_id":"170775"}},{"index":32,"name":"Av Brasil (Fte Esc Primária)","id":"170729","lat":"38.748013","lon":"-9.302130","lines":["1215","1216","1220","1225","1233","1523","1524","1529","1531","1616","1617","1733"],"schedule":{"travel_time":1,"stop_id":"170729"}},{"index":33,"name":"Taguspark (BCP)","id":"121092","lat":"38.745463","lon":"-9.304837","lines":["1520","1521","1523","1524","1529","1612","1616","1731","1733"],"schedule":{"travel_time":1,"stop_id":"121092"}},{"index":34,"name":"Av Prof Dr Cavaco Silva (Seg Social)","id":"121101","lat":"38.741587","lon":"-9.305388","lines":["1523","1524","1529","1531","1608","1612","1616","1617","1733"],"schedule":{"travel_time":1,"stop_id":"121101"}},{"index":35,"name":"Av Prof Dr Cavaco Silva (IST)","id":"121103","lat":"38.737975","lon":"-9.304164","lines":["1523","1524","1529","1531","1608","1612","1616","1617","1733"],"schedule":{"travel_time":2,"stop_id":"121103"}},{"index":36,"name":"Taguspark (Rotunda SEF)","id":"121106","lat":"38.736033","lon":"-9.299921","lines":["1523","1529","1531","1608","1612","1616","1617","1733"],"schedule":{"travel_time":2,"stop_id":"121106"}}]}