{"color":"#C61D23","headsign":"Paço De Arcos (Estação Norte)","id":"1617_0_2","long_name":"Paço De Arcos (Estação Norte) - Talaíde (Igreja)","line_id":"1617","shape_id":"301_4X7ZR","path":[{"index":1,"name":"Talaíde (Igreja)","id":"050106","lat":"38.737691","lon":"-9.313056","lines":["1608","1609","1610","1611","1616","1617"],"schedule":{"travel_time":0,"stop_id":"050106"}},{"index":2,"name":"Talaíde (Campo Futebol)","id":"050114","lat":"38.739738","lon":"-9.314555","lines":["1616","1617"],"schedule":{"travel_time":1,"stop_id":"050114"}},{"index":3,"name":"Estr Octávio Pato (C Empres Talaíde)","id":"050177","lat":"38.742647","lon":"-9.316107","lines":["1616","1617"],"schedule":{"travel_time":0,"stop_id":"050177"}},{"index":4,"name":"Nova Urbanização (X) Estr Octávio Pato","id":"172283","lat":"38.747786","lon":"-9.313250","lines":["1616","1617"],"schedule":{"travel_time":2,"stop_id":"172283"}},{"index":5,"name":"Univ Católica","id":"170785","lat":"38.750430","lon":"-9.311895","lines":["1616","1617"],"schedule":{"travel_time":0,"stop_id":"170785"}},{"index":6,"name":"Taguspark (Novo Banco)","id":"121039","lat":"38.750726","lon":"-9.308186","lines":["1216","1225","1233","1529","1612","1616","1617","1733"],"schedule":{"travel_time":1,"stop_id":"121039"}},{"index":7,"name":"São Marcos (Rotunda)","id":"170775","lat":"38.750991","lon":"-9.302750","lines":["1215","1216","1220","1225","1233","1523","1529","1531","1616","1617","1733"],"schedule":{"travel_time":1,"stop_id":"170775"}},{"index":8,"name":"Av Brasil (Fte Esc Primária)","id":"170729","lat":"38.748013","lon":"-9.302130","lines":["1215","1216","1220","1225","1233","1523","1524","1529","1531","1616","1617","1733"],"schedule":{"travel_time":1,"stop_id":"170729"}},{"index":9,"name":"Taguspark (Rotunda SEF)","id":"121106","lat":"38.736033","lon":"-9.299921","lines":["1523","1529","1531","1608","1612","1616","1617","1733"],"schedule":{"travel_time":3,"stop_id":"121106"}},{"index":10,"name":"Av Prof Dr Cavaco Silva 19","id":"121104","lat":"38.739124","lon":"-9.304781","lines":["1523","1529","1531","1608","1612","1616","1617","1733"],"schedule":{"travel_time":1,"stop_id":"121104"}},{"index":11,"name":"Taguspark (Núcleo Central)","id":"121102","lat":"38.741584","lon":"-9.305086","lines":["1523","1529","1531","1608","1612","1616","1617","1733"],"schedule":{"travel_time":0,"stop_id":"121102"}},{"index":12,"name":"Taguspark (BCP)","id":"121178","lat":"38.743867","lon":"-9.303810","lines":["1531","1608","1617"],"schedule":{"travel_time":1,"stop_id":"121178"}},{"index":13,"name":"Av Eng Valente Oliv(x)Av Dr M Soares","id":"121089","lat":"38.743646","lon":"-9.306520","lines":["1520","1521","1531","1608","1617","1731"],"schedule":{"travel_time":1,"stop_id":"121089"}},{"index":14,"name":"Av Eng Valente Oliveira (Jardim)","id":"121006","lat":"38.737818","lon":"-9.308891","lines":["1125","1520","1521","1531","1608","1617","1731"],"schedule":{"travel_time":1,"stop_id":"121006"}},{"index":15,"name":"R Fern Sabido (X) Av Doming Vandelli","id":"121011","lat":"38.734564","lon":"-9.306363","lines":["1520","1521","1531","1608","1617","1731"],"schedule":{"travel_time":1,"stop_id":"121011"}},{"index":16,"name":"Estr Talaíde 53","id":"121015","lat":"38.732736","lon":"-9.304276","lines":["1520","1521","1531","1610","1616","1617","1731"],"schedule":{"travel_time":0,"stop_id":"121015"}},{"index":17,"name":"Estr Talaíde (Igreja)","id":"121017","lat":"38.730318","lon":"-9.302095","lines":["1520","1521","1531","1610","1616","1617","1731"],"schedule":{"travel_time":1,"stop_id":"121017"}},{"index":18,"name":"Leião (X) Talaíde","id":"121019","lat":"38.729376","lon":"-9.301270","lines":["1125","1523","1530","1531","1601","1616","1617","1733"],"schedule":{"travel_time":0,"stop_id":"121019"}},{"index":19,"name":"Estr Leceia (X) Estr Leião","id":"121123","lat":"38.732273","lon":"-9.298034","lines":["1523","1529","1530","1531","1601","1617","1733"],"schedule":{"travel_time":1,"stop_id":"121123"}},{"index":20,"name":"Estr Leceia Viv Terranova","id":"121183","lat":"38.731467","lon":"-9.292038","lines":["1530","1531","1601","1617"],"schedule":{"travel_time":1,"stop_id":"121183"}},{"index":21,"name":"Estr Leceia (Fte X) Caminho Serra","id":"120576","lat":"38.730577","lon":"-9.288452","lines":["1111","1530","1531","1601","1617"],"schedule":{"travel_time":1,"stop_id":"120576"}},{"index":22,"name":"Leceia (Rotunda Idade Cobre)","id":"120567","lat":"38.728437","lon":"-9.285651","lines":["1111","1119","1520","1531","1617","1731"],"schedule":{"travel_time":1,"stop_id":"120567"}},{"index":23,"name":"Vila Fria (Largo)","id":"120705","lat":"38.720821","lon":"-9.292668","lines":["1119","1125","1520","1531","1617","1731"],"schedule":{"travel_time":2,"stop_id":"120705"}},{"index":24,"name":"R Carlos Paião 30A","id":"120707","lat":"38.720014","lon":"-9.293529","lines":["1119","1520","1531","1611","1617","1731"],"schedule":{"travel_time":0,"stop_id":"120707"}},{"index":25,"name":"Av 25 de Abril (X) R Carlos Paião","id":"120709","lat":"38.717636","lon":"-9.292793","lines":["1119","1520","1531","1611","1617","1731"],"schedule":{"travel_time":1,"stop_id":"120709"}},{"index":26,"name":"Av 25 de Abril 2B","id":"120711","lat":"38.715905","lon":"-9.293891","lines":["1119","1520","1531","1611","1617","1731"],"schedule":{"travel_time":0,"stop_id":"120711"}},{"index":27,"name":"R Actor Pinheiro 27","id":"120713","lat":"38.714087","lon":"-9.295545","lines":["1119","1520","1531","1611","1617","1731"],"schedule":{"travel_time":1,"stop_id":"120713"}},{"index":28,"name":"Estr Paço Arcos 80","id":"120715","lat":"38.712512","lon":"-9.296715","lines":["1119","1123","1531","1610","1611","1616","1617"],"schedule":{"travel_time":0,"stop_id":"120715"}},{"index":29,"name":"Estr Paço Arcos (Serviços CM Oeiras)","id":"120717","lat":"38.708642","lon":"-9.296235","lines":["1119","1122","1123","1531","1610","1611","1616","1617"],"schedule":{"travel_time":1,"stop_id":"120717"}},{"index":30,"name":"Estr Paço Arcos 52","id":"120719","lat":"38.707393","lon":"-9.295500","lines":["1119","1122","1123","1531","1610","1611","1616","1617"],"schedule":{"travel_time":1,"stop_id":"120719"}},{"index":31,"name":"Estr Paço Arcos 42","id":"120610","lat":"38.704300","lon":"-9.295180","lines":["1115","1117","1119","1122","1123","1531","1610","1611","1616","1617"],"schedule":{"travel_time":0,"stop_id":"120610"}},{"index":32,"name":"Estr Paço Arcos (Lj Solid Seg Social)","id":"120608","lat":"38.701725","lon":"-9.294095","lines":["1115","1117","1119","1122","1123","1531","1610","1611","1616","1617"],"schedule":{"travel_time":1,"stop_id":"120608"}},{"index":33,"name":"Paço De Arcos (Estação Norte)","id":"120627","lat":"38.698542","lon":"-9.291074","lines":["1119","1531","1617","1725"],"schedule":{"travel_time":1,"stop_id":"120627"}}]}