{"color":"#C61D23","headsign":"Portela Sintra (Estação Norte)","id":"1624_0_1","long_name":"Cascais (Terminal) - Portela de Sintra (Estação Norte) via Azóia e Almoçageme","line_id":"1624","shape_id":"472_4X7ZR","path":[{"index":1,"name":"Cascais (Terminal)","id":"056531","lat":"38.701872","lon":"-9.419045","lines":["1623","1624","1625"],"schedule":{"travel_time":0,"stop_id":"056531"}},{"index":2,"name":"R Henrique Seixas 203","id":"050207","lat":"38.703442","lon":"-9.418302","lines":["1623","1624","1625"],"schedule":{"travel_time":1,"stop_id":"050207"}},{"index":3,"name":"Av Sintra Fte Jumbo","id":"050247","lat":"38.702214","lon":"-9.417865","lines":["1623","1624","1625"],"schedule":{"travel_time":0,"stop_id":"050247"}},{"index":4,"name":"Av D Pedro I (Mercado)","id":"050249","lat":"38.702072","lon":"-9.420999","lines":["1624"],"schedule":{"travel_time":1,"stop_id":"050249"}},{"index":5,"name":"Av Eng Adelino Amaro Costa (Cidadela)","id":"050251","lat":"38.700980","lon":"-9.425793","lines":["1624"],"schedule":{"travel_time":1,"stop_id":"050251"}},{"index":6,"name":"Av Eng Adelino Amaro Costa 310","id":"050253","lat":"38.702659","lon":"-9.427834","lines":["1624"],"schedule":{"travel_time":0,"stop_id":"050253"}},{"index":7,"name":"Av Eng Adelino Amaro Costa 1A","id":"050255","lat":"38.703851","lon":"-9.429239","lines":["1624"],"schedule":{"travel_time":0,"stop_id":"050255"}},{"index":8,"name":"Av Eng Adelino Amaro Costa (Bombeiros)","id":"050257","lat":"38.706280","lon":"-9.432528","lines":["1624"],"schedule":{"travel_time":1,"stop_id":"050257"}},{"index":9,"name":"Av Eng Adelino Amaro Costa 1156","id":"050259","lat":"38.708281","lon":"-9.434269","lines":["1624"],"schedule":{"travel_time":1,"stop_id":"050259"}},{"index":10,"name":"Av Eng Adelino Amaro Costa (Barraca Pau)","id":"050261","lat":"38.709678","lon":"-9.435483","lines":["1624"],"schedule":{"travel_time":0,"stop_id":"050261"}},{"index":11,"name":"Av Eng Adelino Amaro D Costa (X) Cobre","id":"050263","lat":"38.710850","lon":"-9.436485","lines":["1624"],"schedule":{"travel_time":0,"stop_id":"050263"}},{"index":12,"name":"Av Eng Adel Amaro Costa (Suave Milagre)","id":"050265","lat":"38.713530","lon":"-9.438259","lines":["1624"],"schedule":{"travel_time":1,"stop_id":"050265"}},{"index":13,"name":"R de Birre","id":"050267","lat":"38.716644","lon":"-9.440004","lines":["1624"],"schedule":{"travel_time":1,"stop_id":"050267"}},{"index":14,"name":"Estr da Malveira Serra (Supermercado)","id":"050269","lat":"38.718673","lon":"-9.441229","lines":["1624"],"schedule":{"travel_time":0,"stop_id":"050269"}},{"index":15,"name":"Estr Malveira da Serra 900","id":"050271","lat":"38.723546","lon":"-9.442463","lines":["1624"],"schedule":{"travel_time":1,"stop_id":"050271"}},{"index":16,"name":"Estr da Malveira da Serra (Rotunda)","id":"050273","lat":"38.726358","lon":"-9.443462","lines":["1624"],"schedule":{"travel_time":1,"stop_id":"050273"}},{"index":17,"name":"Estr da Malveira da Serra 492","id":"050275","lat":"38.728970","lon":"-9.444293","lines":["1624"],"schedule":{"travel_time":0,"stop_id":"050275"}},{"index":18,"name":"Estr Malveira Serra (X) Aldeia de Juso","id":"050277","lat":"38.730333","lon":"-9.444877","lines":["1624"],"schedule":{"travel_time":1,"stop_id":"050277"}},{"index":19,"name":"Estr Malveira (X) Qta Caeira (Charneca)","id":"050279","lat":"38.734349","lon":"-9.447540","lines":["1624"],"schedule":{"travel_time":1,"stop_id":"050279"}},{"index":20,"name":"Estr Malveira (X) Estr Boavista","id":"050281","lat":"38.737340","lon":"-9.448740","lines":["1624"],"schedule":{"travel_time":0,"stop_id":"050281"}},{"index":21,"name":"Alcorvim de Baixo","id":"050283","lat":"38.741212","lon":"-9.451210","lines":["1624"],"schedule":{"travel_time":1,"stop_id":"050283"}},{"index":22,"name":"Alcorvim de Cima","id":"050285","lat":"38.748527","lon":"-9.449220","lines":["1624"],"schedule":{"travel_time":2,"stop_id":"050285"}},{"index":23,"name":"R de Cascais 210","id":"050287","lat":"38.751620","lon":"-9.448766","lines":["1624"],"schedule":{"travel_time":1,"stop_id":"050287"}},{"index":24,"name":"EN 247 (Chafariz)","id":"050289","lat":"38.752888","lon":"-9.452607","lines":["1624"],"schedule":{"travel_time":1,"stop_id":"050289"}},{"index":25,"name":"EN 247 572 (Almoinhas Velhas)","id":"050291","lat":"38.752292","lon":"-9.456148","lines":["1624"],"schedule":{"travel_time":0,"stop_id":"050291"}},{"index":26,"name":"Estr do Cabo Km 65","id":"050293","lat":"38.757966","lon":"-9.462229","lines":["1624"],"schedule":{"travel_time":3,"stop_id":"050293"}},{"index":27,"name":"Estr do Cabo km 90","id":"050295","lat":"38.760418","lon":"-9.465063","lines":["1624"],"schedule":{"travel_time":1,"stop_id":"050295"}},{"index":28,"name":"Estr do Cabo (X) Biscaia","id":"050297","lat":"38.762337","lon":"-9.468733","lines":["1624"],"schedule":{"travel_time":0,"stop_id":"050297"}},{"index":29,"name":"Estr do Cabo (Quinta dos Netos)","id":"050299","lat":"38.764437","lon":"-9.470896","lines":["1624"],"schedule":{"travel_time":1,"stop_id":"050299"}},{"index":30,"name":"Estr do Cabo da Roca (X) Azóia","id":"171941","lat":"38.772770","lon":"-9.476452","lines":["1253","1624"],"schedule":{"travel_time":4,"stop_id":"171941"}},{"index":31,"name":"Estr Cabo da Roca (Casa do Moinho)","id":"171943","lat":"38.774308","lon":"-9.479910","lines":["1253","1624"],"schedule":{"travel_time":1,"stop_id":"171943"}},{"index":32,"name":"Estr Nova - N2A","id":"172313","lat":"38.776308","lon":"-9.480898","lines":["1624"],"schedule":{"travel_time":0,"stop_id":"172313"}},{"index":33,"name":"Estr Nova 102 (Cerrado da Cruz)","id":"172315","lat":"38.776282","lon":"-9.478386","lines":["1624"],"schedule":{"travel_time":0,"stop_id":"172315"}},{"index":34,"name":"Estr Nova (X) Caminho das Atalaias","id":"172317","lat":"38.779832","lon":"-9.476658","lines":["1624"],"schedule":{"travel_time":1,"stop_id":"172317"}},{"index":35,"name":"Estr Nova (Quinta da Eira)","id":"172319","lat":"38.782920","lon":"-9.477139","lines":["1624"],"schedule":{"travel_time":1,"stop_id":"172319"}},{"index":36,"name":"Estr Nova (Chafariz)","id":"172321","lat":"38.785030","lon":"-9.475693","lines":["1624"],"schedule":{"travel_time":1,"stop_id":"172321"}},{"index":37,"name":"Estr da Ulgueira (X)","id":"172323","lat":"38.782614","lon":"-9.470151","lines":["1624"],"schedule":{"travel_time":1,"stop_id":"172323"}},{"index":38,"name":"Av Dr Brandão Vasconcelos (Pé da Serra)","id":"171940","lat":"38.788769","lon":"-9.460967","lines":["1253","1624"],"schedule":{"travel_time":2,"stop_id":"171940"}},{"index":39,"name":"Av Dr Brandão Vasconcelos (Qta Alto)","id":"171938","lat":"38.790831","lon":"-9.459870","lines":["1253","1624"],"schedule":{"travel_time":1,"stop_id":"171938"}},{"index":40,"name":"Av Dr Brandão Vasconcelos (Casas Novas)","id":"171936","lat":"38.793232","lon":"-9.464582","lines":["1253","1624"],"schedule":{"travel_time":1,"stop_id":"171936"}},{"index":41,"name":"Av Dr Brandão Vasconcelos 135","id":"171329","lat":"38.794010","lon":"-9.465466","lines":["1241","1242","1250","1624"],"schedule":{"travel_time":0,"stop_id":"171329"}},{"index":42,"name":"Av Dr Brandão Vasconcelos (Lgo)","id":"171331","lat":"38.796186","lon":"-9.470208","lines":["1241","1242","1250","1624"],"schedule":{"travel_time":1,"stop_id":"171331"}},{"index":43,"name":"Av Dr Brandão Vasconcelos (Toca Júlio)","id":"171333","lat":"38.799014","lon":"-9.466127","lines":["1241","1242","1250","1624"],"schedule":{"travel_time":1,"stop_id":"171333"}},{"index":44,"name":"Almoçageme (Mercado)","id":"171335","lat":"38.798283","lon":"-9.465696","lines":["1241","1242","1250","1624"],"schedule":{"travel_time":1,"stop_id":"171335"}},{"index":45,"name":"Av Dr Brandão Vasc 232 (C Pisões)","id":"171337","lat":"38.798199","lon":"-9.462968","lines":["1241","1242","1250","1253","1624"],"schedule":{"travel_time":0,"stop_id":"171337"}},{"index":46,"name":"Av Dr Brandão Vasconcelos (X) Sarrazola","id":"171339","lat":"38.802492","lon":"-9.456460","lines":["1241","1242","1250","1253","1624"],"schedule":{"travel_time":3,"stop_id":"171339"}},{"index":47,"name":"Av Dr Brandão Vasconcelos","id":"171341","lat":"38.803284","lon":"-9.450998","lines":["1241","1242","1250","1253","1624"],"schedule":{"travel_time":1,"stop_id":"171341"}},{"index":48,"name":"Av Dr Brandão Vasconcelos (X) R 1 Maio","id":"171343","lat":"38.802762","lon":"-9.448816","lines":["1241","1253","1254","1624"],"schedule":{"travel_time":0,"stop_id":"171343"}},{"index":49,"name":"Av Bombeiros Voluntários 40","id":"171345","lat":"38.801170","lon":"-9.447783","lines":["1241","1253","1254","1624"],"schedule":{"travel_time":0,"stop_id":"171345"}},{"index":50,"name":"Av Bombeiros Voluntários (Correios)","id":"171347","lat":"38.799809","lon":"-9.445451","lines":["1241","1253","1254","1624"],"schedule":{"travel_time":1,"stop_id":"171347"}},{"index":51,"name":"N247 129","id":"171349","lat":"38.800670","lon":"-9.443131","lines":["1241","1253","1254","1624"],"schedule":{"travel_time":0,"stop_id":"171349"}},{"index":52,"name":"Av Amílcar Augusto Gil 82A","id":"171351","lat":"38.800042","lon":"-9.437519","lines":["1241","1253","1254","1624"],"schedule":{"travel_time":1,"stop_id":"171351"}},{"index":53,"name":"Av Amílcar Augusto Gil (X) R da Nora","id":"171353","lat":"38.802873","lon":"-9.433632","lines":["1241","1253","1254","1624"],"schedule":{"travel_time":1,"stop_id":"171353"}},{"index":54,"name":"Av Amílcar Augusto Gil (256)","id":"171355","lat":"38.803874","lon":"-9.431701","lines":["1241","1253","1254","1624"],"schedule":{"travel_time":1,"stop_id":"171355"}},{"index":55,"name":"Av Amílcar Augusto Gil 220","id":"171357","lat":"38.803618","lon":"-9.427243","lines":["1241","1253","1254","1624"],"schedule":{"travel_time":1,"stop_id":"171357"}},{"index":56,"name":"Av Amílcar Augusto Gil (X) R Acácias","id":"171359","lat":"38.802195","lon":"-9.425263","lines":["1241","1253","1254","1624"],"schedule":{"travel_time":0,"stop_id":"171359"}},{"index":57,"name":"Av Amílcar Aug Gil Casa da Rampa","id":"171361","lat":"38.800413","lon":"-9.422536","lines":["1241","1253","1254","1624"],"schedule":{"travel_time":1,"stop_id":"171361"}},{"index":58,"name":"Av Amílcar Augusto Gil 149","id":"171388","lat":"38.799252","lon":"-9.419596","lines":["1241","1253","1254","1624"],"schedule":{"travel_time":0,"stop_id":"171388"}},{"index":59,"name":"Av Amílcar Augusto Gil 119","id":"171363","lat":"38.799582","lon":"-9.417231","lines":["1241","1253","1254","1624"],"schedule":{"travel_time":1,"stop_id":"171363"}},{"index":60,"name":"Av Amílcar Augusto Gil 81","id":"171365","lat":"38.799678","lon":"-9.414871","lines":["1241","1253","1254","1624"],"schedule":{"travel_time":0,"stop_id":"171365"}},{"index":61,"name":"Av Amílcar Augusto Gil 60","id":"171367","lat":"38.800094","lon":"-9.411530","lines":["1241","1253","1254","1624"],"schedule":{"travel_time":1,"stop_id":"171367"}},{"index":62,"name":"EN 247 (X) R Carlos Mazetti","id":"171369","lat":"38.801722","lon":"-9.406873","lines":["1241","1253","1254","1624"],"schedule":{"travel_time":1,"stop_id":"171369"}},{"index":63,"name":"Av Nunes de Carvalho (Ciência Viva)","id":"171371","lat":"38.802365","lon":"-9.395262","lines":["1241","1253","1254","1624"],"schedule":{"travel_time":2,"stop_id":"171371"}},{"index":64,"name":"Av Nunes de Carvalho Km73 9","id":"171373","lat":"38.804078","lon":"-9.394602","lines":["1241","1253","1254","1624"],"schedule":{"travel_time":0,"stop_id":"171373"}},{"index":65,"name":"Av Nunes de Carvalho (Qta do Poço)","id":"171375","lat":"38.805763","lon":"-9.392465","lines":["1241","1253","1254","1624"],"schedule":{"travel_time":1,"stop_id":"171375"}},{"index":66,"name":"Av N Carval 92 (Monte Santos)","id":"171377","lat":"38.805224","lon":"-9.388775","lines":["1241","1247","1253","1254","1624"],"schedule":{"travel_time":1,"stop_id":"171377"}},{"index":67,"name":"Av Nunes de Carvalho 60","id":"171379","lat":"38.805692","lon":"-9.386159","lines":["1241","1247","1254","1624"],"schedule":{"travel_time":1,"stop_id":"171379"}},{"index":68,"name":"Av Nunes de Carvalho -term Electrico","id":"171381","lat":"38.803988","lon":"-9.381861","lines":["1241","1247","1254","1624"],"schedule":{"travel_time":1,"stop_id":"171381"}},{"index":69,"name":"Av Desidério Cambournac (J Freguesia)","id":"171383","lat":"38.802353","lon":"-9.380944","lines":["1240","1241","1245","1247","1248","1249","1250","1254","1255","1624","1632","1633"],"schedule":{"travel_time":0,"stop_id":"171383"}},{"index":70,"name":"Portela de Sintra (Estação) P2 Entrada Norte","id":"172482","lat":"38.802402","lon":"-9.376989","lines":["1241","1624"],"schedule":{"travel_time":1,"stop_id":"172482"}}]}