{"color":"#C61D23","headsign":"Rio De Mouro (Estação Sul)","id":"1627_0_1","long_name":"CascaiShopping (Terminal) - Rio De Mouro (Estação Sul)","line_id":"1627","shape_id":"484_4X7ZR","path":[{"index":1,"name":"Alcoitão (Rotunda)","id":"050203","lat":"38.737627","lon":"-9.395442","lines":["1623","1625","1626","1627","1628","1629","1630","1631"],"schedule":{"travel_time":0,"stop_id":"050203"}},{"index":2,"name":"Av República (Supermercado)","id":"050196","lat":"38.735240","lon":"-9.396547","lines":["1623","1625","1626","1627","1628","1630"],"schedule":{"travel_time":0,"stop_id":"050196"}},{"index":3,"name":"R Conde Barão 24A","id":"050194","lat":"38.733215","lon":"-9.397739","lines":["1623","1625","1626","1627","1628","1630"],"schedule":{"travel_time":1,"stop_id":"050194"}},{"index":4,"name":"R Conde Barão (Hospital)","id":"050192","lat":"38.732090","lon":"-9.400884","lines":["1623","1625","1626","1627","1628","1629","1630","1631"],"schedule":{"travel_time":0,"stop_id":"050192"}},{"index":5,"name":"R Conde Barão (Escola)","id":"050190","lat":"38.731275","lon":"-9.403403","lines":["1623","1625","1626","1627","1628","1629","1630"],"schedule":{"travel_time":1,"stop_id":"050190"}},{"index":6,"name":"R João Pires Correia 153","id":"050185","lat":"38.731607","lon":"-9.408526","lines":["1623","1625","1626","1627","1628","1630","1631"],"schedule":{"travel_time":0,"stop_id":"050185"}},{"index":7,"name":"R de Cascais (Lgo)","id":"050239","lat":"38.732562","lon":"-9.410231","lines":["1623","1625","1626","1627","1628","1629","1630","1631"],"schedule":{"travel_time":1,"stop_id":"050239"}},{"index":8,"name":"R de Cascais 392 (Fte GNR)","id":"050184","lat":"38.729823","lon":"-9.411096","lines":["1623","1625","1626","1627","1628","1630"],"schedule":{"travel_time":0,"stop_id":"050184"}},{"index":9,"name":"Hospital de Cascais","id":"050233","lat":"38.728701","lon":"-9.418474","lines":["1623","1625","1626","1627","1628","1629","1630","1631"],"schedule":{"travel_time":1,"stop_id":"050233"}},{"index":10,"name":"Alcabideche (GNR)","id":"050183","lat":"38.729938","lon":"-9.410962","lines":["1623","1625","1626","1627","1628","1630"],"schedule":{"travel_time":2,"stop_id":"050183"}},{"index":11,"name":"R João Pires Correia 153","id":"050185","lat":"38.731607","lon":"-9.408526","lines":["1623","1625","1626","1627","1628","1630","1631"],"schedule":{"travel_time":0,"stop_id":"050185"}},{"index":12,"name":"R Cesaltina Fialho Gouveia 304","id":"050351","lat":"38.735160","lon":"-9.407734","lines":["1626","1627"],"schedule":{"travel_time":1,"stop_id":"050351"}},{"index":13,"name":"R Cesaltina Fialho Gouveia 713","id":"050353","lat":"38.737742","lon":"-9.404148","lines":["1626","1627"],"schedule":{"travel_time":1,"stop_id":"050353"}},{"index":14,"name":"Cascaishopping","id":"050355","lat":"38.739468","lon":"-9.399824","lines":["1626","1627"],"schedule":{"travel_time":0,"stop_id":"050355"}},{"index":15,"name":"R das Fisgas (Fte Hiper Cascais)","id":"050201","lat":"38.741938","lon":"-9.393303","lines":["1623","1625","1626","1627","1628","1629","1630"],"schedule":{"travel_time":1,"stop_id":"050201"}},{"index":16,"name":"Bº Cruz Vermelha","id":"050179","lat":"38.744850","lon":"-9.391835","lines":["1623","1625","1626","1627","1628","1630"],"schedule":{"travel_time":1,"stop_id":"050179"}},{"index":17,"name":"Av Alfredo César Torres (Rotunda)","id":"050181","lat":"38.755310","lon":"-9.388492","lines":["1623","1625","1626","1627","1628","1629","1630","1631"],"schedule":{"travel_time":2,"stop_id":"050181"}},{"index":18,"name":"Av Pedro Álv Cabral (Est Prisional)","id":"050343","lat":"38.757080","lon":"-9.384352","lines":["1625","1627","1628","1631"],"schedule":{"travel_time":0,"stop_id":"050343"}},{"index":19,"name":"Av P Álv Cabral (Fte Bowling)","id":"172325","lat":"38.758061","lon":"-9.380891","lines":["1625","1627","1628","1631"],"schedule":{"travel_time":1,"stop_id":"172325"}},{"index":20,"name":"Av Pedro Álvares Cabral 209","id":"172327","lat":"38.758541","lon":"-9.378081","lines":["1625","1627","1628","1631"],"schedule":{"travel_time":0,"stop_id":"172327"}},{"index":21,"name":"Av Pedro Álvares Cabral (Pneulogic)","id":"172329","lat":"38.758955","lon":"-9.376313","lines":["1625","1627","1628","1631"],"schedule":{"travel_time":0,"stop_id":"172329"}},{"index":22,"name":"Av Pedro Álvares Cabral 1","id":"172331","lat":"38.759385","lon":"-9.374010","lines":["1625","1627","1628","1631"],"schedule":{"travel_time":1,"stop_id":"172331"}},{"index":23,"name":"Av Pedro Álvares Cabral Ft Novopca","id":"172333","lat":"38.759886","lon":"-9.371369","lines":["1625","1627","1628","1631"],"schedule":{"travel_time":0,"stop_id":"172333"}},{"index":24,"name":"Av P Álvares Cabral 199 (Triquímica)","id":"172335","lat":"38.760644","lon":"-9.367352","lines":["1625","1627","1628","1631"],"schedule":{"travel_time":0,"stop_id":"172335"}},{"index":25,"name":"Av Pedro Álvares Cabral (Atecnic)","id":"172337","lat":"38.760876","lon":"-9.364893","lines":["1625","1627","1628","1631"],"schedule":{"travel_time":1,"stop_id":"172337"}},{"index":26,"name":"R Fernando Pessoa Frente 64","id":"172339","lat":"38.757184","lon":"-9.362490","lines":["1625","1627","1628","1631"],"schedule":{"travel_time":0,"stop_id":"172339"}},{"index":27,"name":"R Fernando Pessoa (Escola)","id":"172341","lat":"38.756680","lon":"-9.360209","lines":["1625","1627","1628","1631"],"schedule":{"travel_time":1,"stop_id":"172341"}},{"index":28,"name":"R 1º de Maio (Lgo)","id":"172243","lat":"38.756964","lon":"-9.358289","lines":["1613","1622","1625","1627","1628","1631"],"schedule":{"travel_time":0,"stop_id":"172243"}},{"index":29,"name":"R da Boavista 52","id":"172230","lat":"38.758649","lon":"-9.355343","lines":["1613","1622","1625","1627","1628","1631"],"schedule":{"travel_time":1,"stop_id":"172230"}},{"index":30,"name":"R da Boavista 45","id":"172228","lat":"38.759213","lon":"-9.353432","lines":["1613","1622","1625","1627","1628","1631"],"schedule":{"travel_time":0,"stop_id":"172228"}},{"index":31,"name":"R da Boavista 2","id":"172226","lat":"38.761166","lon":"-9.349255","lines":["1613","1622","1625","1627","1628","1631"],"schedule":{"travel_time":1,"stop_id":"172226"}},{"index":32,"name":"Av Santa Isabel 176","id":"172245","lat":"38.762602","lon":"-9.348092","lines":["1614","1622","1625","1627","1628","1631"],"schedule":{"travel_time":0,"stop_id":"172245"}},{"index":33,"name":"Av Combatentes (Externato Sta Isabel)","id":"172253","lat":"38.766124","lon":"-9.349786","lines":["1614","1625","1627","1628","1631"],"schedule":{"travel_time":0,"stop_id":"172253"}},{"index":34,"name":"Av Combatentes (X) R das Maçarocas","id":"172255","lat":"38.768625","lon":"-9.352105","lines":["1614","1625","1627","1628","1631"],"schedule":{"travel_time":1,"stop_id":"172255"}},{"index":35,"name":"Av Combatentes","id":"172257","lat":"38.771074","lon":"-9.352984","lines":["1614","1625","1627","1628","1631"],"schedule":{"travel_time":0,"stop_id":"172257"}},{"index":36,"name":"Av Combatentes (X) António Vieira","id":"170138","lat":"38.773385","lon":"-9.355776","lines":["1251","1614","1625","1627","1628","1631"],"schedule":{"travel_time":1,"stop_id":"170138"}},{"index":37,"name":"Av Combatentes (X) Rotunda","id":"170136","lat":"38.775626","lon":"-9.355243","lines":["1234","1251","1614","1625","1627","1628","1631"],"schedule":{"travel_time":0,"stop_id":"170136"}},{"index":38,"name":"Av Combatentes (Hipermercado)","id":"170134","lat":"38.778728","lon":"-9.355350","lines":["1234","1251","1614","1625","1627","1628","1631"],"schedule":{"travel_time":1,"stop_id":"170134"}},{"index":39,"name":"Av Raúl Solnado 23","id":"170132","lat":"38.780533","lon":"-9.352684","lines":["1234","1251","1614","1625","1627","1628","1631"],"schedule":{"travel_time":1,"stop_id":"170132"}},{"index":40,"name":"Av R Solnado (X) Av Amália Rodrigues","id":"170311","lat":"38.780077","lon":"-9.350602","lines":["1234","1251","1614","1625","1627","1628","1631"],"schedule":{"travel_time":0,"stop_id":"170311"}},{"index":41,"name":"Estr de Mem Martins (Posto Abast)","id":"170313","lat":"38.781367","lon":"-9.349052","lines":["1223","1232","1234","1251","1614","1625","1627","1628","1631"],"schedule":{"travel_time":0,"stop_id":"170313"}},{"index":42,"name":"Estr Mem Martins (Supermercado)","id":"170128","lat":"38.782662","lon":"-9.347300","lines":["1223","1232","1234","1251","1614","1625","1627","1628","1631"],"schedule":{"travel_time":1,"stop_id":"170128"}},{"index":43,"name":"Estr de Mem Martins 56","id":"171136","lat":"38.783233","lon":"-9.345701","lines":["1232","1234","1614","1625","1627","1628","1631"],"schedule":{"travel_time":0,"stop_id":"171136"}},{"index":44,"name":"Estr de Mem Martins 106","id":"171137","lat":"38.784968","lon":"-9.343826","lines":["1232","1234","1614","1625","1627","1628","1631"],"schedule":{"travel_time":0,"stop_id":"171137"}},{"index":45,"name":"Estr de Mem Martins 140","id":"171139","lat":"38.787558","lon":"-9.343133","lines":["1232","1234","1614","1625","1627","1628","1631"],"schedule":{"travel_time":1,"stop_id":"171139"}},{"index":46,"name":"Estr Mem Martins 164 (Poço Novo)","id":"171141","lat":"38.789581","lon":"-9.345068","lines":["1232","1234","1614","1625","1627","1628","1631"],"schedule":{"travel_time":0,"stop_id":"171141"}},{"index":47,"name":"Estr Mem Martins 184 (Cruzeiro)","id":"171143","lat":"38.790951","lon":"-9.345509","lines":["1232","1234","1614","1625","1627","1628","1631"],"schedule":{"travel_time":0,"stop_id":"171143"}},{"index":48,"name":"Estr Mem Martins 197","id":"170104","lat":"38.792234","lon":"-9.344801","lines":["1232","1234","1251","1625","1627","1628","1631"],"schedule":{"travel_time":1,"stop_id":"170104"}},{"index":49,"name":"R de Angola 19","id":"170317","lat":"38.793586","lon":"-9.342913","lines":["1232","1234","1251","1625","1627","1628","1631"],"schedule":{"travel_time":0,"stop_id":"170317"}},{"index":50,"name":"R P Moçambique (X) R Eça De Queirós","id":"170319","lat":"38.794945","lon":"-9.340247","lines":["1232","1234","1251","1625","1627","1628","1631"],"schedule":{"travel_time":0,"stop_id":"170319"}},{"index":51,"name":"R Horta de Fanares 8","id":"170093","lat":"38.796007","lon":"-9.339180","lines":["1232","1234","1251","1625","1627","1628","1631"],"schedule":{"travel_time":1,"stop_id":"170093"}},{"index":52,"name":"Algueirão - Mem Martins (Estação) P2","id":"170095","lat":"38.797592","lon":"-9.341122","lines":["1625","1627","1628","1631"],"schedule":{"travel_time":0,"stop_id":"170095"}},{"index":53,"name":"R Azenha (X) R República P Moçambique","id":"171177","lat":"38.795475","lon":"-9.339141","lines":["1234","1625","1627","1628","1631"],"schedule":{"travel_time":0,"stop_id":"171177"}},{"index":54,"name":"Av Bela Vista 38","id":"170092","lat":"38.792761","lon":"-9.334879","lines":["1625","1627","1628","1631"],"schedule":{"travel_time":1,"stop_id":"170092"}},{"index":55,"name":"Av Bela Vista 52","id":"170090","lat":"38.791214","lon":"-9.333637","lines":["1625","1627","1628","1631"],"schedule":{"travel_time":0,"stop_id":"170090"}},{"index":56,"name":"Av Bela Vista 65A","id":"170088","lat":"38.789864","lon":"-9.332567","lines":["1625","1627","1628","1631"],"schedule":{"travel_time":1,"stop_id":"170088"}},{"index":57,"name":"Av João de Deus (Escola Primária)","id":"170086","lat":"38.786948","lon":"-9.332934","lines":["1205","1210","1232","1251","1625","1627","1628","1631"],"schedule":{"travel_time":0,"stop_id":"170086"}},{"index":58,"name":"Av João de Deus 58","id":"170084","lat":"38.785057","lon":"-9.333005","lines":["1205","1210","1232","1251","1625","1627","1628","1631"],"schedule":{"travel_time":0,"stop_id":"170084"}},{"index":59,"name":"Av João de Deus 78","id":"170082","lat":"38.783683","lon":"-9.332555","lines":["1205","1210","1232","1251","1625","1627","1628","1631"],"schedule":{"travel_time":1,"stop_id":"170082"}},{"index":60,"name":"Av João de Deus 104 (Lg Alves Redol)","id":"170080","lat":"38.782111","lon":"-9.331263","lines":["1205","1210","1232","1251","1615","1625","1627","1628","1631"],"schedule":{"travel_time":0,"stop_id":"170080"}},{"index":61,"name":"Av Maria Lamas 5 (Farmácia)","id":"170061","lat":"38.783771","lon":"-9.330154","lines":["1205","1210","1223","1232","1251","1625","1627","1628","1631"],"schedule":{"travel_time":0,"stop_id":"170061"}},{"index":62,"name":"Av Maria Lamas 48","id":"170063","lat":"38.786038","lon":"-9.329946","lines":["1205","1210","1223","1232","1251","1615","1625","1627","1628","1631"],"schedule":{"travel_time":1,"stop_id":"170063"}},{"index":63,"name":"R da Ponte","id":"170065","lat":"38.786801","lon":"-9.328678","lines":["1223","1232","1251","1615","1625","1627","1628","1631"],"schedule":{"travel_time":0,"stop_id":"170065"}},{"index":64,"name":"Av D João II 45","id":"170067","lat":"38.784410","lon":"-9.326308","lines":["1223","1232","1251","1615","1625","1627","1628","1631"],"schedule":{"travel_time":1,"stop_id":"170067"}},{"index":65,"name":"Av D João II 3","id":"170069","lat":"38.781571","lon":"-9.324488","lines":["1223","1232","1251","1615","1625","1627","1628","1631"],"schedule":{"travel_time":0,"stop_id":"170069"}},{"index":66,"name":"Av Gago Coutinho 54","id":"170071","lat":"38.782223","lon":"-9.323319","lines":["1232","1251","1615","1625","1627","1628","1631"],"schedule":{"travel_time":1,"stop_id":"170071"}},{"index":67,"name":"Rio De Mouro (Estação Sul)","id":"170073","lat":"38.783924","lon":"-9.321861","lines":["1627","1628","1631"],"schedule":{"travel_time":0,"stop_id":"170073"}}]}