{"color":"#C61D23","headsign":"Alcoitão (Rotunda)","id":"1627_0_2","long_name":"CascaiShopping (Terminal) - Rio De Mouro (Estação Sul)","line_id":"1627","shape_id":"485_4X7ZR","path":[{"index":1,"name":"Rio De Mouro (Estação Sul)","id":"170073","lat":"38.783924","lon":"-9.321861","lines":["1627","1628","1631"],"schedule":{"travel_time":0,"stop_id":"170073"}},{"index":2,"name":"Av Inf D Henrique 28 A","id":"170075","lat":"38.785108","lon":"-9.324528","lines":["1232","1251","1615","1625","1627","1628","1631"],"schedule":{"travel_time":1,"stop_id":"170075"}},{"index":3,"name":"Av D João II 55 A","id":"170077","lat":"38.785398","lon":"-9.326147","lines":["1232","1251","1615","1625","1627","1628","1631"],"schedule":{"travel_time":0,"stop_id":"170077"}},{"index":4,"name":"R da Ponte","id":"170066","lat":"38.787091","lon":"-9.328683","lines":["1223","1232","1251","1615","1625","1627","1628","1631"],"schedule":{"travel_time":1,"stop_id":"170066"}},{"index":5,"name":"Av Maria Lamas 49","id":"170064","lat":"38.785933","lon":"-9.330131","lines":["1205","1210","1223","1232","1251","1615","1625","1627","1628","1631"],"schedule":{"travel_time":1,"stop_id":"170064"}},{"index":6,"name":"Av Maria Lamas 29","id":"170062","lat":"38.783979","lon":"-9.330323","lines":["1205","1210","1223","1232","1251","1625","1627","1628","1631"],"schedule":{"travel_time":0,"stop_id":"170062"}},{"index":7,"name":"Av João de Deus 102","id":"170079","lat":"38.782243","lon":"-9.331238","lines":["1205","1210","1232","1251","1615","1625","1627","1628","1631"],"schedule":{"travel_time":1,"stop_id":"170079"}},{"index":8,"name":"Av João de Deus 82","id":"170081","lat":"38.783539","lon":"-9.332335","lines":["1205","1210","1232","1251","1625","1627","1628","1631"],"schedule":{"travel_time":0,"stop_id":"170081"}},{"index":9,"name":"Av João de Deus 27","id":"170083","lat":"38.785054","lon":"-9.332824","lines":["1205","1210","1232","1251","1625","1627","1628","1631"],"schedule":{"travel_time":0,"stop_id":"170083"}},{"index":10,"name":"Av João de Deus (Escola Primária)","id":"170085","lat":"38.786919","lon":"-9.332781","lines":["1205","1210","1232","1251","1625","1627","1628","1631"],"schedule":{"travel_time":1,"stop_id":"170085"}},{"index":11,"name":"Av Bela Vista 65A","id":"170087","lat":"38.789356","lon":"-9.332234","lines":["1232","1251","1625","1627","1628","1631"],"schedule":{"travel_time":0,"stop_id":"170087"}},{"index":12,"name":"Av Bela Vista 47","id":"170089","lat":"38.791298","lon":"-9.333583","lines":["1232","1251","1625","1627","1628","1631"],"schedule":{"travel_time":1,"stop_id":"170089"}},{"index":13,"name":"Av Bela Vista 32","id":"170091","lat":"38.793160","lon":"-9.335056","lines":["1232","1251","1625","1627","1628","1631"],"schedule":{"travel_time":0,"stop_id":"170091"}},{"index":14,"name":"R Horta de Fanares 8","id":"170093","lat":"38.796007","lon":"-9.339180","lines":["1232","1234","1251","1625","1627","1628","1631"],"schedule":{"travel_time":2,"stop_id":"170093"}},{"index":15,"name":"Algueirão - Mem Martins (Estação) P2","id":"170095","lat":"38.797592","lon":"-9.341122","lines":["1625","1627","1628","1631"],"schedule":{"travel_time":0,"stop_id":"170095"}},{"index":16,"name":"Estr Mem Martins (Centro Saúde)","id":"170099","lat":"38.795236","lon":"-9.343745","lines":["1232","1234","1251","1625","1627","1628","1631"],"schedule":{"travel_time":1,"stop_id":"170099"}},{"index":17,"name":"Estr Mem Martins (X) Pct Gen H Delgado","id":"170101","lat":"38.793533","lon":"-9.344145","lines":["1232","1234","1251","1625","1627","1628","1631"],"schedule":{"travel_time":0,"stop_id":"170101"}},{"index":18,"name":"Estr Mem Martins 201","id":"170103","lat":"38.792360","lon":"-9.344778","lines":["1232","1234","1251","1625","1627","1628","1631"],"schedule":{"travel_time":1,"stop_id":"170103"}},{"index":19,"name":"R do Coudel 6 (Cruzeiro)","id":"171127","lat":"38.790382","lon":"-9.346457","lines":["1232","1234","1614","1625","1627","1628","1631"],"schedule":{"travel_time":0,"stop_id":"171127"}},{"index":20,"name":"R do Coudel 24","id":"171129","lat":"38.788895","lon":"-9.346711","lines":["1232","1234","1614","1625","1627","1628","1631"],"schedule":{"travel_time":0,"stop_id":"171129"}},{"index":21,"name":"R do Coudel 42 (Posto Abast)","id":"171131","lat":"38.787550","lon":"-9.346024","lines":["1232","1234","1614","1625","1627","1628","1631"],"schedule":{"travel_time":1,"stop_id":"171131"}},{"index":22,"name":"R do Coudel 106","id":"171133","lat":"38.784464","lon":"-9.344698","lines":["1232","1234","1614","1625","1627","1628","1631"],"schedule":{"travel_time":1,"stop_id":"171133"}},{"index":23,"name":"Estr de Mem Martins 66","id":"171135","lat":"38.783319","lon":"-9.345842","lines":["1232","1234","1614","1625","1627","1628","1631"],"schedule":{"travel_time":0,"stop_id":"171135"}},{"index":24,"name":"Estr Mem Martins (Supermercado)","id":"170127","lat":"38.782749","lon":"-9.347439","lines":["1223","1232","1234","1251","1614","1625","1627","1628","1631"],"schedule":{"travel_time":0,"stop_id":"170127"}},{"index":25,"name":"Mem Martins (Farmácia)","id":"170129","lat":"38.780471","lon":"-9.349460","lines":["1223","1232","1234","1251","1614","1625","1627","1628","1631"],"schedule":{"travel_time":1,"stop_id":"170129"}},{"index":26,"name":"Av Elias Garcia (Hospital cuf)","id":"170131","lat":"38.780832","lon":"-9.353245","lines":["1232","1234","1251","1614","1625","1627","1628","1631"],"schedule":{"travel_time":1,"stop_id":"170131"}},{"index":27,"name":"Av Combatentes (Hipermercado)","id":"170133","lat":"38.778866","lon":"-9.355613","lines":["1232","1234","1251","1614","1625","1627","1628","1631"],"schedule":{"travel_time":1,"stop_id":"170133"}},{"index":28,"name":"Av Combatentes (Entreposto)","id":"170135","lat":"38.775212","lon":"-9.355744","lines":["1232","1234","1251","1614","1625","1627","1628","1631"],"schedule":{"travel_time":1,"stop_id":"170135"}},{"index":29,"name":"Av Combatentes (X) António Vieira","id":"170137","lat":"38.773407","lon":"-9.356085","lines":["1232","1251","1614","1625","1627","1628","1631"],"schedule":{"travel_time":0,"stop_id":"170137"}},{"index":30,"name":"Av Combatentes (Bombas)","id":"170139","lat":"38.772485","lon":"-9.354692","lines":["1232","1234","1251","1614","1625","1627","1628","1631"],"schedule":{"travel_time":0,"stop_id":"170139"}},{"index":31,"name":"Av Combatentes (Abrunheira Park)","id":"172256","lat":"38.768748","lon":"-9.352312","lines":["1614","1625","1627","1628","1631"],"schedule":{"travel_time":1,"stop_id":"172256"}},{"index":32,"name":"Av Combatentes (Externato Sta Isabel)","id":"172254","lat":"38.766062","lon":"-9.349874","lines":["1614","1625","1627","1628","1631"],"schedule":{"travel_time":1,"stop_id":"172254"}},{"index":33,"name":"Av Combatentes (X) Albarraque","id":"172246","lat":"38.762546","lon":"-9.348253","lines":["1614","1622","1625","1627","1628","1631"],"schedule":{"travel_time":1,"stop_id":"172246"}},{"index":34,"name":"R da Boavista 2","id":"172225","lat":"38.761249","lon":"-9.349288","lines":["1613","1622","1625","1627","1628","1631"],"schedule":{"travel_time":0,"stop_id":"172225"}},{"index":35,"name":"R da Boavista Fte 45","id":"172227","lat":"38.759315","lon":"-9.353413","lines":["1613","1622","1625","1627","1628","1631"],"schedule":{"travel_time":1,"stop_id":"172227"}},{"index":36,"name":"R da Boavista 52","id":"172229","lat":"38.758699","lon":"-9.355516","lines":["1613","1622","1625","1627","1628","1631"],"schedule":{"travel_time":1,"stop_id":"172229"}},{"index":37,"name":"R 1º de Maio (Rotunda)","id":"172231","lat":"38.757247","lon":"-9.358529","lines":["1613","1622","1625","1627","1628","1631"],"schedule":{"travel_time":0,"stop_id":"172231"}},{"index":38,"name":"R Fernando Pessoa (Escola)","id":"172342","lat":"38.756518","lon":"-9.359889","lines":["1625","1627","1628","1631"],"schedule":{"travel_time":1,"stop_id":"172342"}},{"index":39,"name":"R Fernando Pessoa Frente 64","id":"172340","lat":"38.757157","lon":"-9.362377","lines":["1625","1627","1628","1631"],"schedule":{"travel_time":1,"stop_id":"172340"}},{"index":40,"name":"Av Pedro Álvares Cabral (Atecnic)","id":"172338","lat":"38.761020","lon":"-9.364992","lines":["1625","1627","1628","1631"],"schedule":{"travel_time":1,"stop_id":"172338"}},{"index":41,"name":"Av P Álvares Cabral 199 (Triquímica)","id":"172336","lat":"38.760756","lon":"-9.367210","lines":["1625","1627","1628","1631"],"schedule":{"travel_time":0,"stop_id":"172336"}},{"index":42,"name":"Av Pedro Álvares Cabral Ft Novopca","id":"172334","lat":"38.759985","lon":"-9.371382","lines":["1625","1627","1628","1631"],"schedule":{"travel_time":1,"stop_id":"172334"}},{"index":43,"name":"Av Pedro Álvares Cabral Fte Fonte Viva","id":"172332","lat":"38.759473","lon":"-9.374180","lines":["1625","1627","1628","1631"],"schedule":{"travel_time":0,"stop_id":"172332"}},{"index":44,"name":"Av Pedro Álvares Cabral (Pneulogic)","id":"172330","lat":"38.759094","lon":"-9.376072","lines":["1625","1627","1628","1631"],"schedule":{"travel_time":1,"stop_id":"172330"}},{"index":45,"name":"Av Pedro Álvares Cabral 209","id":"172328","lat":"38.758530","lon":"-9.379144","lines":["1625","1627","1628","1631"],"schedule":{"travel_time":0,"stop_id":"172328"}},{"index":46,"name":"Av P Álv Cabral N º 232 (Bowling)","id":"172326","lat":"38.758105","lon":"-9.381361","lines":["1625","1627","1628","1631"],"schedule":{"travel_time":1,"stop_id":"172326"}},{"index":47,"name":"Av Pedro Álv Cabral (Est Prisional)","id":"172343","lat":"38.757106","lon":"-9.384648","lines":["1625","1627","1628","1631"],"schedule":{"travel_time":0,"stop_id":"172343"}},{"index":48,"name":"Av Pedro Álvares Cabral (Rotunda)","id":"172345","lat":"38.755975","lon":"-9.387896","lines":["1625","1627","1628","1631"],"schedule":{"travel_time":1,"stop_id":"172345"}},{"index":49,"name":"Bº Cruz Vermelha","id":"050180","lat":"38.744235","lon":"-9.392277","lines":["1623","1625","1626","1627","1628","1630"],"schedule":{"travel_time":3,"stop_id":"050180"}},{"index":50,"name":"R das Fisgas (Fte Hiper Cascais)","id":"050202","lat":"38.742106","lon":"-9.393406","lines":["1623","1625","1626","1627","1628","1629","1630"],"schedule":{"travel_time":1,"stop_id":"050202"}},{"index":51,"name":"Cascaishopping (Frente)","id":"050357","lat":"38.741064","lon":"-9.398767","lines":["1626","1627"],"schedule":{"travel_time":1,"stop_id":"050357"}},{"index":52,"name":"R Cesaltina Fialho Gouveia 713","id":"050354","lat":"38.737784","lon":"-9.404308","lines":["1626","1627"],"schedule":{"travel_time":2,"stop_id":"050354"}},{"index":53,"name":"R Cesaltina Fialho Gouveia 304","id":"050352","lat":"38.735379","lon":"-9.407598","lines":["1626","1627"],"schedule":{"travel_time":1,"stop_id":"050352"}},{"index":54,"name":"R de Cascais (Lgo)","id":"050239","lat":"38.732562","lon":"-9.410231","lines":["1623","1625","1626","1627","1628","1629","1630","1631"],"schedule":{"travel_time":0,"stop_id":"050239"}},{"index":55,"name":"R de Cascais 392 (Fte GNR)","id":"050184","lat":"38.729823","lon":"-9.411096","lines":["1623","1625","1626","1627","1628","1630"],"schedule":{"travel_time":1,"stop_id":"050184"}},{"index":56,"name":"Hospital de Cascais","id":"050233","lat":"38.728701","lon":"-9.418474","lines":["1623","1625","1626","1627","1628","1629","1630","1631"],"schedule":{"travel_time":2,"stop_id":"050233"}},{"index":57,"name":"Alcabideche (GNR)","id":"050183","lat":"38.729938","lon":"-9.410962","lines":["1623","1625","1626","1627","1628","1630"],"schedule":{"travel_time":2,"stop_id":"050183"}},{"index":58,"name":"R Conde Barão (Escola)","id":"050189","lat":"38.731317","lon":"-9.402999","lines":["1623","1625","1626","1627","1628","1629","1630"],"schedule":{"travel_time":1,"stop_id":"050189"}},{"index":59,"name":"R Conde Barão (Hospital)","id":"050191","lat":"38.732033","lon":"-9.400332","lines":["1623","1625","1626","1627","1628","1629","1630","1631"],"schedule":{"travel_time":1,"stop_id":"050191"}},{"index":60,"name":"R Conde Barão 55","id":"050193","lat":"38.733136","lon":"-9.397561","lines":["1623","1625","1626","1627","1628","1630"],"schedule":{"travel_time":1,"stop_id":"050193"}},{"index":61,"name":"Av República (Supermercado)","id":"050195","lat":"38.735030","lon":"-9.396473","lines":["1623","1625","1626","1627","1628","1630"],"schedule":{"travel_time":0,"stop_id":"050195"}},{"index":62,"name":"Alcoitão (Rotunda)","id":"050203","lat":"38.737627","lon":"-9.395442","lines":["1623","1625","1626","1627","1628","1629","1630","1631"],"schedule":{"travel_time":1,"stop_id":"050203"}}]}