{"color":"#C61D23","headsign":"Portela Sintra (Estação Sul)","id":"1630_3_1","long_name":"Alcabideche (GNR) - Portela Sintra (Estação Sul)","line_id":"1630","shape_id":"492_4X7ZR","path":[{"index":1,"name":"Alcabideche (GNR)","id":"050183","lat":"38.729938","lon":"-9.410962","lines":["1623","1625","1626","1627","1628","1630"],"schedule":{"travel_time":0,"stop_id":"050183"}},{"index":2,"name":"R João Pires Correia 153","id":"050185","lat":"38.731607","lon":"-9.408526","lines":["1623","1625","1626","1627","1628","1630","1631"],"schedule":{"travel_time":1,"stop_id":"050185"}},{"index":3,"name":"R de Cascais (Lgo)","id":"050239","lat":"38.732562","lon":"-9.410231","lines":["1623","1625","1626","1627","1628","1629","1630","1631"],"schedule":{"travel_time":0,"stop_id":"050239"}},{"index":4,"name":"R João Pires Correia 29","id":"050186","lat":"38.731586","lon":"-9.408677","lines":["1623","1625","1628","1630","1631"],"schedule":{"travel_time":1,"stop_id":"050186"}},{"index":5,"name":"R Conde Barão (Escola)","id":"050189","lat":"38.731317","lon":"-9.402999","lines":["1623","1625","1626","1627","1628","1629","1630"],"schedule":{"travel_time":1,"stop_id":"050189"}},{"index":6,"name":"R Conde Barão (Hospital)","id":"050191","lat":"38.732033","lon":"-9.400332","lines":["1623","1625","1626","1627","1628","1629","1630","1631"],"schedule":{"travel_time":1,"stop_id":"050191"}},{"index":7,"name":"R Conde Barão 55","id":"050193","lat":"38.733136","lon":"-9.397561","lines":["1623","1625","1626","1627","1628","1630"],"schedule":{"travel_time":0,"stop_id":"050193"}},{"index":8,"name":"Av República (Supermercado)","id":"050195","lat":"38.735030","lon":"-9.396473","lines":["1623","1625","1626","1627","1628","1630"],"schedule":{"travel_time":1,"stop_id":"050195"}},{"index":9,"name":"Alcoitão (Rotunda)","id":"050197","lat":"38.737747","lon":"-9.394915","lines":["1623","1625","1628","1629","1630","1631"],"schedule":{"travel_time":0,"stop_id":"050197"}},{"index":10,"name":"R das Fisgas (X) R de São Francisco","id":"050199","lat":"38.739859","lon":"-9.392469","lines":["1625","1630"],"schedule":{"travel_time":1,"stop_id":"050199"}},{"index":11,"name":"R das Fisgas (Fte Hiper Cascais)","id":"050201","lat":"38.741938","lon":"-9.393303","lines":["1623","1625","1626","1627","1628","1629","1630"],"schedule":{"travel_time":1,"stop_id":"050201"}},{"index":12,"name":"Bº Cruz Vermelha","id":"050179","lat":"38.744850","lon":"-9.391835","lines":["1623","1625","1626","1627","1628","1630"],"schedule":{"travel_time":1,"stop_id":"050179"}},{"index":13,"name":"Av Alfredo César Torres (Rotunda)","id":"050181","lat":"38.755310","lon":"-9.388492","lines":["1623","1625","1626","1627","1628","1629","1630","1631"],"schedule":{"travel_time":2,"stop_id":"050181"}},{"index":14,"name":"Alam do Linhó (Beloura Shopping)","id":"172285","lat":"38.759270","lon":"-9.386164","lines":["1623","1626","1629","1630"],"schedule":{"travel_time":2,"stop_id":"172285"}},{"index":15,"name":"Alam do Linhó (Rotunda)","id":"172287","lat":"38.761484","lon":"-9.385677","lines":["1623","1626","1629","1630"],"schedule":{"travel_time":0,"stop_id":"172287"}},{"index":16,"name":"R António dos Reis 172","id":"172289","lat":"38.763631","lon":"-9.383462","lines":["1623","1626","1629","1630"],"schedule":{"travel_time":1,"stop_id":"172289"}},{"index":17,"name":"R António dos Reis 124","id":"172291","lat":"38.766813","lon":"-9.382743","lines":["1623","1626","1629","1630"],"schedule":{"travel_time":1,"stop_id":"172291"}},{"index":18,"name":"R António dos Reis (Colégio Americano)","id":"172293","lat":"38.769276","lon":"-9.380810","lines":["1623","1626","1629","1630"],"schedule":{"travel_time":1,"stop_id":"172293"}},{"index":19,"name":"R António dos Reis 62","id":"172295","lat":"38.770329","lon":"-9.379951","lines":["1623","1626","1629","1630"],"schedule":{"travel_time":0,"stop_id":"172295"}},{"index":20,"name":"R António dos Reis 5","id":"172297","lat":"38.772643","lon":"-9.380253","lines":["1623","1626","1629","1630"],"schedule":{"travel_time":1,"stop_id":"172297"}},{"index":21,"name":"Av Alfredo César Torres","id":"172299","lat":"38.775236","lon":"-9.379986","lines":["1623","1626","1629","1630"],"schedule":{"travel_time":0,"stop_id":"172299"}},{"index":22,"name":"Av Alfredo César Torres (Bombeiros)","id":"172301","lat":"38.782553","lon":"-9.375977","lines":["1623","1626","1629","1630"],"schedule":{"travel_time":2,"stop_id":"172301"}},{"index":23,"name":"Av Alfredo César Torres (X) R Cevadinhas","id":"172303","lat":"38.784758","lon":"-9.374753","lines":["1623","1626","1629","1630"],"schedule":{"travel_time":1,"stop_id":"172303"}},{"index":24,"name":"Av Alfredo César Torres (Col Ramalhão)","id":"171893","lat":"38.786820","lon":"-9.373416","lines":["1252","1623","1626","1629","1630"],"schedule":{"travel_time":0,"stop_id":"171893"}},{"index":25,"name":"Estr Chão de Meninos (C Jardinagem)","id":"171205","lat":"38.787883","lon":"-9.373293","lines":["1234","1252","1623","1626","1629","1630"],"schedule":{"travel_time":1,"stop_id":"171205"}},{"index":26,"name":"Estr Chão de Meninos Ft Adega Saloio","id":"172305","lat":"38.791655","lon":"-9.373583","lines":["1623","1626","1629","1630"],"schedule":{"travel_time":0,"stop_id":"172305"}},{"index":27,"name":"Estr de Chão de Meninos 9","id":"171886","lat":"38.793168","lon":"-9.373791","lines":["1623","1626","1629","1630"],"schedule":{"travel_time":1,"stop_id":"171886"}},{"index":28,"name":"Estr Chão de Meninos (X) R 5 de Outubro","id":"171884","lat":"38.795165","lon":"-9.374914","lines":["1623","1626","1629","1630"],"schedule":{"travel_time":0,"stop_id":"171884"}},{"index":29,"name":"Estr Ch Meninos 10 (Bonsai)","id":"171882","lat":"38.795859","lon":"-9.376788","lines":["1623","1626","1629","1630"],"schedule":{"travel_time":1,"stop_id":"171882"}},{"index":30,"name":"Av Francisco Almeida (X) Largo Morais","id":"171880","lat":"38.798762","lon":"-9.381290","lines":["1623","1626","1629","1630"],"schedule":{"travel_time":1,"stop_id":"171880"}},{"index":31,"name":"Av Mov Forças Armadas frente Smas","id":"171878","lat":"38.800186","lon":"-9.380611","lines":["1252","1623","1626","1629","1630"],"schedule":{"travel_time":1,"stop_id":"171878"}},{"index":32,"name":"Av Movimento das Forças Armadas 48","id":"171919","lat":"38.800391","lon":"-9.379111","lines":["1252","1623","1626","1629","1630"],"schedule":{"travel_time":0,"stop_id":"171919"}},{"index":33,"name":"Av Mov F Armadas (Pcta 25 Abril)","id":"171921","lat":"38.800973","lon":"-9.376591","lines":["1252","1623","1626","1629","1630"],"schedule":{"travel_time":1,"stop_id":"171921"}},{"index":34,"name":"Portela de Sintra (Estação) P9 Entrada Sul","id":"172534","lat":"38.802140","lon":"-9.376626","lines":["1623","1626","1629","1630"],"schedule":{"travel_time":0,"stop_id":"172534"}}]}