{"color":"#C61D23","headsign":"Portela Sintra (Estação Norte)","id":"1632_3_1","long_name":"Casais Cabrela (Largo) - Portela Sintra (Estação Norte)","line_id":"1632","shape_id":"502_4X7ZR","path":[{"index":1,"name":"Casais Cabrela (Largo)","id":"171496","lat":"38.859861","lon":"-9.355354","lines":["1242","1632"],"schedule":{"travel_time":0,"stop_id":"171496"}},{"index":2,"name":"R dos Casais 227","id":"171497","lat":"38.862301","lon":"-9.356134","lines":["1242","1632"],"schedule":{"travel_time":1,"stop_id":"171497"}},{"index":3,"name":"Av General Humberto Delgado 4","id":"171499","lat":"38.865490","lon":"-9.355768","lines":["1242","1632"],"schedule":{"travel_time":0,"stop_id":"171499"}},{"index":4,"name":"Av 19 Maio 8","id":"171501","lat":"38.867351","lon":"-9.354423","lines":["1242","1632"],"schedule":{"travel_time":1,"stop_id":"171501"}},{"index":5,"name":"R 1º de Maio 4","id":"171503","lat":"38.870317","lon":"-9.354304","lines":["1632"],"schedule":{"travel_time":1,"stop_id":"171503"}},{"index":6,"name":"R 1º de Maio 26","id":"171505","lat":"38.871587","lon":"-9.354159","lines":["1632"],"schedule":{"travel_time":0,"stop_id":"171505"}},{"index":7,"name":"R Luís de Camões 8","id":"171507","lat":"38.872982","lon":"-9.353893","lines":["1632"],"schedule":{"travel_time":0,"stop_id":"171507"}},{"index":8,"name":"R da Escola 2 (X) Tv 5 Outubro","id":"171509","lat":"38.874626","lon":"-9.355940","lines":["1632"],"schedule":{"travel_time":1,"stop_id":"171509"}},{"index":9,"name":"Estr 19 de Maio 22","id":"171393","lat":"38.872578","lon":"-9.358279","lines":["1242","1632"],"schedule":{"travel_time":1,"stop_id":"171393"}},{"index":10,"name":"Estr 19 de Maio 56","id":"171395","lat":"38.874387","lon":"-9.360279","lines":["1242","1632"],"schedule":{"travel_time":0,"stop_id":"171395"}},{"index":11,"name":"Estr 19 de Maio 78 (X)","id":"171397","lat":"38.876612","lon":"-9.363550","lines":["1242","1632"],"schedule":{"travel_time":1,"stop_id":"171397"}},{"index":12,"name":"Estr do Barro Velho 15","id":"171399","lat":"38.875960","lon":"-9.365559","lines":["1242","1632"],"schedule":{"travel_time":0,"stop_id":"171399"}},{"index":13,"name":"EN 247 17","id":"171401","lat":"38.872703","lon":"-9.370620","lines":["1242","1632","1633","2625"],"schedule":{"travel_time":1,"stop_id":"171401"}},{"index":14,"name":"EN 247 (X) Estr. Carne Assada","id":"171403","lat":"38.866785","lon":"-9.374271","lines":["1242","1632","1633","2625"],"schedule":{"travel_time":2,"stop_id":"171403"}},{"index":15,"name":"EN 247 (Condomínio Casa Encarnada)","id":"171405","lat":"38.861454","lon":"-9.377291","lines":["1242","1632","1633","2625"],"schedule":{"travel_time":1,"stop_id":"171405"}},{"index":16,"name":"EN 247 Fte Terrugem Park","id":"172506","lat":"38.858341","lon":"-9.379518","lines":["1242","1632","1633"],"schedule":{"travel_time":1,"stop_id":"172506"}},{"index":17,"name":"EN 247 339","id":"171407","lat":"38.855857","lon":"-9.380124","lines":["1242","1632","1633","2625"],"schedule":{"travel_time":0,"stop_id":"171407"}},{"index":18,"name":"Av 29 Agosto (Cemitério)","id":"170026","lat":"38.850905","lon":"-9.380576","lines":["1201","1245","1249","1632","1633"],"schedule":{"travel_time":1,"stop_id":"170026"}},{"index":19,"name":"Terrugem (Igreja)","id":"170024","lat":"38.847029","lon":"-9.378195","lines":["1201","1245","1249","1632","1633"],"schedule":{"travel_time":1,"stop_id":"170024"}},{"index":20,"name":"Av 29 Agosto (Hipermercado)","id":"171511","lat":"38.844020","lon":"-9.376724","lines":["1245","1249","1632","1633"],"schedule":{"travel_time":1,"stop_id":"171511"}},{"index":21,"name":"Av 29 Agosto 60","id":"171513","lat":"38.842106","lon":"-9.375935","lines":["1245","1249","1632","1633"],"schedule":{"travel_time":0,"stop_id":"171513"}},{"index":22,"name":"Av 29 Agosto (Bombas)","id":"171515","lat":"38.840004","lon":"-9.373726","lines":["1245","1249","1632","1633"],"schedule":{"travel_time":1,"stop_id":"171515"}},{"index":23,"name":"Av Gen Humberto Delgado(x) R Infancia","id":"171517","lat":"38.835481","lon":"-9.369526","lines":["1245","1249","1632","1633"],"schedule":{"travel_time":1,"stop_id":"171517"}},{"index":24,"name":"Av General Humberto Delgado 62","id":"171519","lat":"38.833836","lon":"-9.369707","lines":["1245","1249","1632","1633"],"schedule":{"travel_time":1,"stop_id":"171519"}},{"index":25,"name":"Av General Humberto Delgado 1","id":"171521","lat":"38.830274","lon":"-9.370601","lines":["1245","1249","1632","1633"],"schedule":{"travel_time":0,"stop_id":"171521"}},{"index":26,"name":"EN 247 (X) Ral","id":"171523","lat":"38.827170","lon":"-9.368669","lines":["1245","1249","1632","1633"],"schedule":{"travel_time":1,"stop_id":"171523"}},{"index":27,"name":"EN 247 112","id":"171525","lat":"38.823772","lon":"-9.368245","lines":["1245","1249","1632","1633"],"schedule":{"travel_time":1,"stop_id":"171525"}},{"index":28,"name":"EN 247 (X) R Lugar do Mouro","id":"171527","lat":"38.821155","lon":"-9.368246","lines":["1245","1249","1632","1633"],"schedule":{"travel_time":0,"stop_id":"171527"}},{"index":29,"name":"EN 247 4 (Alto do Chão Frio)","id":"171529","lat":"38.817786","lon":"-9.366921","lines":["1245","1249","1632","1633"],"schedule":{"travel_time":1,"stop_id":"171529"}},{"index":30,"name":"R dos Bizos 10","id":"171531","lat":"38.816813","lon":"-9.366410","lines":["1632"],"schedule":{"travel_time":0,"stop_id":"171531"}},{"index":31,"name":"Estr de Mafra (Supermercado)","id":"171533","lat":"38.813845","lon":"-9.363950","lines":["1240","1255","1632"],"schedule":{"travel_time":1,"stop_id":"171533"}},{"index":32,"name":"Estr de Mafra Fte 42","id":"171535","lat":"38.812958","lon":"-9.365031","lines":["1240","1255","1632"],"schedule":{"travel_time":1,"stop_id":"171535"}},{"index":33,"name":"R Almeida Garrett 29","id":"171537","lat":"38.812477","lon":"-9.367031","lines":["1632"],"schedule":{"travel_time":0,"stop_id":"171537"}},{"index":34,"name":"R Almeida Garrett 7","id":"171539","lat":"38.813408","lon":"-9.367867","lines":["1632"],"schedule":{"travel_time":0,"stop_id":"171539"}},{"index":35,"name":"R Eça De Queirós 6","id":"171541","lat":"38.812559","lon":"-9.369365","lines":["1245","1249","1632"],"schedule":{"travel_time":1,"stop_id":"171541"}},{"index":36,"name":"Av Aviação Portuguesa (Escola)","id":"171305","lat":"38.811529","lon":"-9.371172","lines":["1240","1245","1248","1249","1250","1255","1632","1633","2626"],"schedule":{"travel_time":0,"stop_id":"171305"}},{"index":37,"name":"Av Aviação Portuguesa (Cemitério)","id":"171543","lat":"38.809672","lon":"-9.375207","lines":["1240","1245","1248","1249","1250","1255","1632","1633"],"schedule":{"travel_time":1,"stop_id":"171543"}},{"index":38,"name":"Av Aviação Portuguesa (Bombeiros)","id":"171309","lat":"38.807933","lon":"-9.377951","lines":["1240","1245","1248","1249","1250","1255","1632","1633","2626"],"schedule":{"travel_time":1,"stop_id":"171309"}},{"index":39,"name":"Av Aviação Portuguesa Frente 33","id":"171316","lat":"38.806436","lon":"-9.379495","lines":["1245","1248","1249","1250","1255","1632"],"schedule":{"travel_time":0,"stop_id":"171316"}},{"index":40,"name":"Av Aviação Portuguesa 3","id":"171311","lat":"38.805307","lon":"-9.380382","lines":["1240","1245","1248","1249","1250","1255","1632","1633","2626"],"schedule":{"travel_time":0,"stop_id":"171311"}},{"index":41,"name":"Av Desidério Cambournac (J Freguesia)","id":"171383","lat":"38.802353","lon":"-9.380944","lines":["1240","1241","1245","1247","1248","1249","1250","1254","1255","1624","1632","1633"],"schedule":{"travel_time":1,"stop_id":"171383"}},{"index":42,"name":"Portela de Sintra (Estação) P6 Entrada Norte","id":"170307","lat":"38.802426","lon":"-9.376240","lines":["1245","1249","1632"],"schedule":{"travel_time":1,"stop_id":"170307"}}]}