{"color":"#C61D23","headsign":"D Maria (Igreja)","id":"1636_0_1","long_name":"Caneças (B Maria Teresa) - D Maria (Igreja)","line_id":"1636","shape_id":"58_4X7ZR","path":[{"index":1,"name":"Caneças (Bº Maria Teresa)","id":"110019","lat":"38.816141","lon":"-9.236256","lines":["1636"],"schedule":{"travel_time":0,"stop_id":"110019"}},{"index":2,"name":"R Pinhal Castelo Vide (X) R Aqueduto","id":"111021","lat":"38.815403","lon":"-9.235194","lines":["1636"],"schedule":{"travel_time":0,"stop_id":"111021"}},{"index":3,"name":"Caneças (Largo Vieira Caldas)","id":"110007","lat":"38.812895","lon":"-9.228419","lines":["1603","1635","1636","2204"],"schedule":{"travel_time":3,"stop_id":"110007"}},{"index":4,"name":"R Major Rosa Bastos (Supermercado)","id":"110009","lat":"38.811045","lon":"-9.231409","lines":["1603","1636","1637","2204","2205","2206","2207","2513","2605","2812"],"schedule":{"travel_time":2,"stop_id":"110009"}},{"index":5,"name":"R M Rosa Bastos (P Combust)","id":"110004","lat":"38.810309","lon":"-9.234355","lines":["1603","1636","1637","1711","2605"],"schedule":{"travel_time":0,"stop_id":"110004"}},{"index":6,"name":"R Major Rosa Bastos 134 (Caneças)","id":"110021","lat":"38.809910","lon":"-9.237675","lines":["1603","1636","1637","1711","2605"],"schedule":{"travel_time":1,"stop_id":"110021"}},{"index":7,"name":"R Gen Barnabé (X) R Maj Sousa Bastos","id":"171571","lat":"38.808245","lon":"-9.239740","lines":["1244","1603","1636","1637","2605"],"schedule":{"travel_time":1,"stop_id":"171571"}},{"index":8,"name":"Dona Maria (X-Entr)","id":"171573","lat":"38.806621","lon":"-9.242712","lines":["1244","1508","1603","1636","1637"],"schedule":{"travel_time":1,"stop_id":"171573"}},{"index":9,"name":"R Principal 104","id":"171575","lat":"38.812855","lon":"-9.249177","lines":["1244","1508","1603","1636","1637"],"schedule":{"travel_time":2,"stop_id":"171575"}},{"index":10,"name":"R Principal 146","id":"171577","lat":"38.813377","lon":"-9.251942","lines":["1244","1508","1603","1636","1637"],"schedule":{"travel_time":1,"stop_id":"171577"}},{"index":11,"name":"R Principal 157 (Dona Maria)","id":"171579","lat":"38.814598","lon":"-9.254581","lines":["1244","1508","1603","1636","1637"],"schedule":{"travel_time":1,"stop_id":"171579"}},{"index":12,"name":"D Maria (Igreja)","id":"171581","lat":"38.815937","lon":"-9.254521","lines":["1244","1508","1603","1636","1637"],"schedule":{"travel_time":0,"stop_id":"171581"}}]}