{"color":"#C61D23","headsign":"Caneças (Largo Vieira Caldas)","id":"1636_1_2","long_name":"Caneças (Largo Vieira Caldas) - D Maria (Igreja)","line_id":"1636","shape_id":"61_4X7ZR","path":[{"index":1,"name":"D Maria (Igreja)","id":"171582","lat":"38.815807","lon":"-9.254716","lines":["1244","1508","1603","1636","1637"],"schedule":{"travel_time":0,"stop_id":"171582"}},{"index":2,"name":"R Principal 157 (Dona Maria)","id":"171580","lat":"38.814551","lon":"-9.254719","lines":["1244","1508","1603","1636","1637"],"schedule":{"travel_time":0,"stop_id":"171580"}},{"index":3,"name":"R Principal 121- Dona Maria","id":"171578","lat":"38.813047","lon":"-9.251500","lines":["1244","1508","1603","1636","1637"],"schedule":{"travel_time":1,"stop_id":"171578"}},{"index":4,"name":"R Principal 106","id":"171576","lat":"38.812819","lon":"-9.249436","lines":["1244","1508","1603","1636","1637"],"schedule":{"travel_time":1,"stop_id":"171576"}},{"index":5,"name":"Dona Maria (X-Saída)","id":"171574","lat":"38.806432","lon":"-9.242771","lines":["1244","1508","1603","1636","1637"],"schedule":{"travel_time":2,"stop_id":"171574"}},{"index":6,"name":"R Gen Barnabé (X) R Maj Sousa Bastos","id":"171572","lat":"38.808269","lon":"-9.239530","lines":["1244","1603","1636","1637","2605"],"schedule":{"travel_time":1,"stop_id":"171572"}},{"index":7,"name":"R Major Rosa Bastos 134 (Caneças)","id":"110022","lat":"38.809766","lon":"-9.237038","lines":["1603","1636","1637","1711","2605"],"schedule":{"travel_time":1,"stop_id":"110022"}},{"index":8,"name":"R Major Rosa Bastos (X) R Vitor Hugo","id":"110003","lat":"38.810308","lon":"-9.233770","lines":["1603","1636","1637","1711","2605"],"schedule":{"travel_time":1,"stop_id":"110003"}},{"index":9,"name":"Azinhaga Canhamato 7A (Qta Bretão)","id":"110005","lat":"38.812877","lon":"-9.234252","lines":["1603","1636"],"schedule":{"travel_time":0,"stop_id":"110005"}},{"index":10,"name":"Caneças (Largo Vieira Caldas)","id":"110007","lat":"38.812895","lon":"-9.228419","lines":["1603","1635","1636","2204"],"schedule":{"travel_time":2,"stop_id":"110007"}}]}