{"color":"#C61D23","headsign":"Casal Cambra","id":"1637_0_2","long_name":"Casal Cambra - Vale Lobos (Largo)","line_id":"1637","shape_id":"63_4X7ZR","path":[{"index":1,"name":"Vale Lobos (Largo)","id":"170357","lat":"38.818221","lon":"-9.285364","lines":["1208","1235","1244","1512","1637"],"schedule":{"travel_time":0,"stop_id":"170357"}},{"index":2,"name":"Vale Lobos (R Bernardim Ribeiro 21)","id":"171596","lat":"38.819370","lon":"-9.283736","lines":["1244","1637"],"schedule":{"travel_time":0,"stop_id":"171596"}},{"index":3,"name":"Vale Lobos (R Bernardino Ribeiro 42)","id":"171594","lat":"38.819535","lon":"-9.281077","lines":["1244","1637"],"schedule":{"travel_time":1,"stop_id":"171594"}},{"index":4,"name":"Tapada Vale Lobos (R Tapada 3)","id":"172465","lat":"38.824145","lon":"-9.274297","lines":["1637"],"schedule":{"travel_time":1,"stop_id":"172465"}},{"index":5,"name":"R Fonte Aranha (X) R das Sargaceiras","id":"172022","lat":"38.826925","lon":"-9.277653","lines":["1637"],"schedule":{"travel_time":1,"stop_id":"172022"}},{"index":6,"name":"R Fonte da Aranha 4","id":"170344","lat":"38.827920","lon":"-9.277534","lines":["1208","1235","1637"],"schedule":{"travel_time":0,"stop_id":"170344"}},{"index":7,"name":"Estr Principal (X) R J Deus (Mancebas)","id":"170342","lat":"38.829830","lon":"-9.274824","lines":["1208","1235","1508","1634","1637"],"schedule":{"travel_time":1,"stop_id":"170342"}},{"index":8,"name":"Estr Principal 2","id":"170340","lat":"38.831414","lon":"-9.271566","lines":["1208","1235","1508","1634","1637"],"schedule":{"travel_time":1,"stop_id":"170340"}},{"index":9,"name":"Estr Parque 17 (Chafariz)","id":"172464","lat":"38.831766","lon":"-9.270215","lines":["1508","1637"],"schedule":{"travel_time":0,"stop_id":"172464"}},{"index":10,"name":"Estr Parque 40","id":"172025","lat":"38.830581","lon":"-9.268339","lines":["1508","1637"],"schedule":{"travel_time":1,"stop_id":"172025"}},{"index":11,"name":"Estr Parque (Parque Campismo)","id":"172027","lat":"38.826254","lon":"-9.264852","lines":["1508","1637"],"schedule":{"travel_time":1,"stop_id":"172027"}},{"index":12,"name":"Estr Parque (Qta Lago)","id":"171592","lat":"38.825022","lon":"-9.263063","lines":["1244","1508","1637"],"schedule":{"travel_time":0,"stop_id":"171592"}},{"index":13,"name":"Estr Parque (Casal Brejo)","id":"172029","lat":"38.821705","lon":"-9.256201","lines":["1508","1637"],"schedule":{"travel_time":2,"stop_id":"172029"}},{"index":14,"name":"Estr Parque (X) Aruil","id":"171586","lat":"38.819843","lon":"-9.252990","lines":["1244","1508","1637"],"schedule":{"travel_time":0,"stop_id":"171586"}},{"index":15,"name":"R Principal 189","id":"171584","lat":"38.817518","lon":"-9.253775","lines":["1244","1508","1637"],"schedule":{"travel_time":1,"stop_id":"171584"}},{"index":16,"name":"D Maria (Igreja)","id":"171582","lat":"38.815807","lon":"-9.254716","lines":["1244","1508","1603","1636","1637"],"schedule":{"travel_time":0,"stop_id":"171582"}},{"index":17,"name":"R Principal 157 (Dona Maria)","id":"171580","lat":"38.814551","lon":"-9.254719","lines":["1244","1508","1603","1636","1637"],"schedule":{"travel_time":1,"stop_id":"171580"}},{"index":18,"name":"R Principal 121- Dona Maria","id":"171578","lat":"38.813047","lon":"-9.251500","lines":["1244","1508","1603","1636","1637"],"schedule":{"travel_time":0,"stop_id":"171578"}},{"index":19,"name":"R Principal 106","id":"171576","lat":"38.812819","lon":"-9.249436","lines":["1244","1508","1603","1636","1637"],"schedule":{"travel_time":0,"stop_id":"171576"}},{"index":20,"name":"Dona Maria (X-Saída)","id":"171574","lat":"38.806432","lon":"-9.242771","lines":["1244","1508","1603","1636","1637"],"schedule":{"travel_time":2,"stop_id":"171574"}},{"index":21,"name":"R Gen Barnabé (X) R Maj Sousa Bastos","id":"171572","lat":"38.808269","lon":"-9.239530","lines":["1244","1603","1636","1637","2605"],"schedule":{"travel_time":1,"stop_id":"171572"}},{"index":22,"name":"R Major Rosa Bastos 134 (Caneças)","id":"110022","lat":"38.809766","lon":"-9.237038","lines":["1603","1636","1637","1711","2605"],"schedule":{"travel_time":0,"stop_id":"110022"}},{"index":23,"name":"R Major Rosa Bastos (X) R Vitor Hugo","id":"110003","lat":"38.810308","lon":"-9.233770","lines":["1603","1636","1637","1711","2605"],"schedule":{"travel_time":1,"stop_id":"110003"}},{"index":24,"name":"R Major Rosa Bastos (Supermercado)","id":"110010","lat":"38.810982","lon":"-9.231312","lines":["1637","2204","2205","2206","2207","2513","2605","2630","2812"],"schedule":{"travel_time":0,"stop_id":"110010"}},{"index":25,"name":"CASA DA CULTURA","id":"110169","lat":"38.812565","lon":"-9.227168","lines":["1637","2204","2205","2206","2207","2208","2513","2605","2630","2812"],"schedule":{"travel_time":1,"stop_id":"110169"}},{"index":26,"name":"R Coronel Braz Oliveira 19","id":"110024","lat":"38.811935","lon":"-9.227071","lines":["1637","1709","1710","2630","2702"],"schedule":{"travel_time":0,"stop_id":"110024"}},{"index":27,"name":"Av Lisboa 129","id":"172467","lat":"38.805826","lon":"-9.227903","lines":["1637","1709","1710","2702"],"schedule":{"travel_time":2,"stop_id":"172467"}},{"index":28,"name":"Av Dinamarca 169","id":"172129","lat":"38.804343","lon":"-9.229256","lines":["1516","1517","1637","1709","1710","1719","2702"],"schedule":{"travel_time":0,"stop_id":"172129"}},{"index":29,"name":"Av Dinamarca 124","id":"171617","lat":"38.801664","lon":"-9.229798","lines":["1244","1516","1517","1637","1709","1710","1719","2702"],"schedule":{"travel_time":0,"stop_id":"171617"}},{"index":30,"name":"Estr Várzea (Qta Desafio Jovem)","id":"171619","lat":"38.799940","lon":"-9.229868","lines":["1244","1516","1517","1637","1709","1710","1719","2702"],"schedule":{"travel_time":1,"stop_id":"171619"}},{"index":31,"name":"Casal Cambra (Centro saúde)","id":"171553","lat":"38.800311","lon":"-9.228422","lines":["1244","1509","1515","1516","1517","1637","1709","1710","1719","1720","2702"],"schedule":{"travel_time":1,"stop_id":"171553"}},{"index":32,"name":"Av Lisboa 80","id":"171555","lat":"38.801813","lon":"-9.228414","lines":["1244","1509","1515","1516","1517","1637","1709","1710","1719","1720","2702"],"schedule":{"travel_time":0,"stop_id":"171555"}}]}