{"color":"#C61D23","headsign":"Amadora (Estação Norte)","id":"1703_0_2","long_name":"Amadora (Estação Norte) - Pontinha (Metro)","line_id":"1703","shape_id":"65_4X7ZR","path":[{"index":1,"name":"Pontinha (Metro) P11","id":"060057","lat":"38.761297","lon":"-9.197274","lines":["1703","1708"],"schedule":{"travel_time":0,"stop_id":"060057"}},{"index":2,"name":"Prç Teófilo Braga (Alfornelos Metro)","id":"030409","lat":"38.760225","lon":"-9.204037","lines":["1011","1514","1703","1706","1708","2601"],"schedule":{"travel_time":4,"stop_id":"030409"}},{"index":3,"name":"R Damião Góis 10","id":"030398","lat":"38.762164","lon":"-9.204475","lines":["1011","1012","1514","1703","1706","1708","2601"],"schedule":{"travel_time":1,"stop_id":"030398"}},{"index":4,"name":"Av Ruy Luis Gomes (Igreja)","id":"030422","lat":"38.763414","lon":"-9.206538","lines":["1012","1514","1703","1706","1708"],"schedule":{"travel_time":1,"stop_id":"030422"}},{"index":5,"name":"Av Ruy Luis Gomes (Alfornelos)","id":"030413","lat":"38.764513","lon":"-9.209824","lines":["1011","1012","1514","1703","1706","1708"],"schedule":{"travel_time":1,"stop_id":"030413"}},{"index":6,"name":"Av Ruy Luis Gomes (Posto Combust)","id":"030390","lat":"38.764344","lon":"-9.211585","lines":["1011","1012","1514","1703","1706","1708"],"schedule":{"travel_time":1,"stop_id":"030390"}},{"index":7,"name":"Brandoa (Largo)","id":"030852","lat":"38.766010","lon":"-9.212779","lines":["1011","1012","1514","1703","1706","1708"],"schedule":{"travel_time":1,"stop_id":"030852"}},{"index":8,"name":"R Liberdade 20A (Igreja Evangélica)","id":"030701","lat":"38.768017","lon":"-9.214093","lines":["1514","1703","1706","1708"],"schedule":{"travel_time":1,"stop_id":"030701"}},{"index":9,"name":"R Liberdade 54","id":"030357","lat":"38.768374","lon":"-9.217554","lines":["1010","1514","1703","1706","1708"],"schedule":{"travel_time":1,"stop_id":"030357"}},{"index":10,"name":"R Liberdade (X) R Tomás Kim","id":"030359","lat":"38.768674","lon":"-9.219806","lines":["1010","1012","1514","1703","1706","1708"],"schedule":{"travel_time":1,"stop_id":"030359"}},{"index":11,"name":"R Liberdade (Escola)","id":"030361","lat":"38.767328","lon":"-9.222238","lines":["1010","1012","1514","1703","1706","1708"],"schedule":{"travel_time":1,"stop_id":"030361"}},{"index":12,"name":"R Liberdade 106 (Ent Estr Falagueira)","id":"030703","lat":"38.766248","lon":"-9.223516","lines":["1514","1703"],"schedule":{"travel_time":0,"stop_id":"030703"}},{"index":13,"name":"R Ord Milit Hospital 16B","id":"030692","lat":"38.764899","lon":"-9.228380","lines":["1514","1703"],"schedule":{"travel_time":3,"stop_id":"030692"}},{"index":14,"name":"Casal São Brás","id":"030177","lat":"38.766107","lon":"-9.229482","lines":["1003","1005","1006","1010","1703"],"schedule":{"travel_time":0,"stop_id":"030177"}},{"index":15,"name":"R Moínho Galega 14","id":"030179","lat":"38.767041","lon":"-9.228115","lines":["1003","1005","1006","1010","1703"],"schedule":{"travel_time":1,"stop_id":"030179"}},{"index":16,"name":"R Cesar Oliveira 8","id":"030181","lat":"38.768347","lon":"-9.226109","lines":["1003","1005","1006","1703"],"schedule":{"travel_time":1,"stop_id":"030181"}},{"index":17,"name":"R 17 Setembro 45A - PSP","id":"030183","lat":"38.770273","lon":"-9.226459","lines":["1003","1005","1006","1703"],"schedule":{"travel_time":1,"stop_id":"030183"}},{"index":18,"name":"R 17 Set (Junta Freguesia)","id":"030185","lat":"38.769197","lon":"-9.229098","lines":["1003","1005","1006","1703"],"schedule":{"travel_time":2,"stop_id":"030185"}},{"index":19,"name":"EB1 Artur M Simões","id":"030167","lat":"38.768183","lon":"-9.231728","lines":["1003","1004","1005","1006","1010","1514","1517","1703","1707"],"schedule":{"travel_time":1,"stop_id":"030167"}},{"index":20,"name":"R Oliveira Martins 7C","id":"030135","lat":"38.767194","lon":"-9.231995","lines":["1003","1005","1006","1010","1514","1517","1703","1707"],"schedule":{"travel_time":0,"stop_id":"030135"}},{"index":21,"name":"R Sebastião Gama 10","id":"030247","lat":"38.766182","lon":"-9.232290","lines":["1005","1006","1514","1703"],"schedule":{"travel_time":0,"stop_id":"030247"}},{"index":22,"name":"Av Marquês Pombal Fte 25","id":"030249","lat":"38.763661","lon":"-9.233601","lines":["1005","1006","1514","1703"],"schedule":{"travel_time":2,"stop_id":"030249"}},{"index":23,"name":"Av Marquês Pombal 44","id":"030171","lat":"38.763040","lon":"-9.238209","lines":["1003","1005","1006","1009","1514","1703"],"schedule":{"travel_time":2,"stop_id":"030171"}},{"index":24,"name":"Amadora (Estação) P4 Entrada Norte","id":"030119","lat":"38.760562","lon":"-9.236939","lines":["1003","1005","1006","1514","1703"],"schedule":{"travel_time":1,"stop_id":"030119"}}]}