{"color":"#C61D23","headsign":"Marquês Pombal (Metro)","id":"1704_1_1","long_name":"Reboleira (Estação) - Marquês Pombal (Metro)","line_id":"1704","shape_id":"67_4X7ZR","path":[{"index":1,"name":"Reboleira (Estação) P7","id":"030045","lat":"38.750062","lon":"-9.222050","lines":["1015","1704"],"schedule":{"travel_time":0,"stop_id":"030045"}},{"index":2,"name":"Av Dom Carlos I (Aqueduto)","id":"030047","lat":"38.748849","lon":"-9.218426","lines":["1001","1015","1506","1704","1718"],"schedule":{"travel_time":1,"stop_id":"030047"}},{"index":3,"name":"R Heróis Dadrá 18","id":"030741","lat":"38.747467","lon":"-9.219179","lines":["1015","1704","1713","1718"],"schedule":{"travel_time":0,"stop_id":"030741"}},{"index":4,"name":"R Carvalho Araujo 32","id":"030743","lat":"38.747614","lon":"-9.221419","lines":["1015","1704","1713"],"schedule":{"travel_time":0,"stop_id":"030743"}},{"index":5,"name":"Av Padre Himalaia 31","id":"030682","lat":"38.746335","lon":"-9.222595","lines":["1704","1713"],"schedule":{"travel_time":1,"stop_id":"030682"}},{"index":6,"name":"Av P Himalaia (X) Av Mq Castelo Novo","id":"030505","lat":"38.745018","lon":"-9.221732","lines":["1704","1713"],"schedule":{"travel_time":0,"stop_id":"030505"}},{"index":7,"name":"R Bern Machado (Esc P Dorey Cunha)","id":"030745","lat":"38.743387","lon":"-9.219330","lines":["1704","1713"],"schedule":{"travel_time":0,"stop_id":"030745"}},{"index":8,"name":"Av Padre Bartolomeu Gusmão 33","id":"030747","lat":"38.744652","lon":"-9.217646","lines":["1704"],"schedule":{"travel_time":1,"stop_id":"030747"}},{"index":9,"name":"Av Padre Bartolomeu Gusmão 3","id":"030749","lat":"38.746229","lon":"-9.215368","lines":["1704"],"schedule":{"travel_time":0,"stop_id":"030749"}},{"index":10,"name":"Av República 15B","id":"030040","lat":"38.745973","lon":"-9.212380","lines":["1001","1507","1704","1718"],"schedule":{"travel_time":1,"stop_id":"030040"}},{"index":11,"name":"Buraca (X) Cova Moura","id":"030051","lat":"38.743964","lon":"-9.211074","lines":["1001","1507","1704","1718"],"schedule":{"travel_time":0,"stop_id":"030051"}},{"index":12,"name":"Buraca (X) Cova Moura","id":"030052","lat":"38.744051","lon":"-9.210842","lines":["1001","1507","1704","1718"],"schedule":{"travel_time":1,"stop_id":"030052"}},{"index":13,"name":"R Trindade Coelho 19","id":"030038","lat":"38.744177","lon":"-9.210299","lines":["1001","1507","1704"],"schedule":{"travel_time":0,"stop_id":"030038"}},{"index":14,"name":"R Trindade Coelho (X) Pcta Conde Arnoso","id":"030053","lat":"38.744248","lon":"-9.208001","lines":["1001","1507","1704"],"schedule":{"travel_time":0,"stop_id":"030053"}},{"index":15,"name":"Estr Alfragide (CTT)","id":"030055","lat":"38.742752","lon":"-9.205946","lines":["1001","1507","1704"],"schedule":{"travel_time":1,"stop_id":"030055"}},{"index":16,"name":"R Luís Vaz de Camões (Centro Saúde)","id":"030032","lat":"38.740877","lon":"-9.208868","lines":["1001","1507","1704"],"schedule":{"travel_time":0,"stop_id":"030032"}},{"index":17,"name":"R 5 Outubro 18","id":"030030","lat":"38.742366","lon":"-9.211530","lines":["1001","1507","1704"],"schedule":{"travel_time":1,"stop_id":"030030"}},{"index":18,"name":"Av Republica (Pav Desportivo)","id":"030028","lat":"38.742386","lon":"-9.212775","lines":["1001","1507","1704","1718"],"schedule":{"travel_time":0,"stop_id":"030028"}},{"index":19,"name":"Av F Aerea Port (Estr Maior F Aerea)","id":"030751","lat":"38.739868","lon":"-9.215910","lines":["1704"],"schedule":{"travel_time":1,"stop_id":"030751"}},{"index":20,"name":"Av Força Aérea Port (Passagem Peões)","id":"030063","lat":"38.740223","lon":"-9.218161","lines":["1704"],"schedule":{"travel_time":0,"stop_id":"030063"}},{"index":21,"name":"Av F Aerea Portug (X) Av Qta Grande","id":"030116","lat":"38.739810","lon":"-9.221049","lines":["1704"],"schedule":{"travel_time":1,"stop_id":"030116"}},{"index":22,"name":"Av Qta Grande 89C","id":"030753","lat":"38.739634","lon":"-9.224208","lines":["1704"],"schedule":{"travel_time":0,"stop_id":"030753"}},{"index":23,"name":"Trav Torres 2","id":"030755","lat":"38.738437","lon":"-9.225062","lines":["1704","1713"],"schedule":{"travel_time":1,"stop_id":"030755"}},{"index":24,"name":"Av Laranjeiras 31","id":"030757","lat":"38.737403","lon":"-9.223921","lines":["1704","1713"],"schedule":{"travel_time":0,"stop_id":"030757"}},{"index":25,"name":"Av Laranjeiras 13","id":"030759","lat":"38.736804","lon":"-9.222689","lines":["1704","1713"],"schedule":{"travel_time":0,"stop_id":"030759"}},{"index":26,"name":"Av Laranjeiras (X) Trav Moínhos","id":"030761","lat":"38.737171","lon":"-9.221534","lines":["1704","1713"],"schedule":{"travel_time":0,"stop_id":"030761"}},{"index":27,"name":"Av Qta Grande 24A","id":"030071","lat":"38.735810","lon":"-9.221682","lines":["1704","1713"],"schedule":{"travel_time":1,"stop_id":"030071"}},{"index":28,"name":"Estr Alfragide 82","id":"030522","lat":"38.734820","lon":"-9.221037","lines":["1506","1704","1712","1713"],"schedule":{"travel_time":0,"stop_id":"030522"}},{"index":29,"name":"Av Conde São Marçal Fte 3","id":"030577","lat":"38.735683","lon":"-9.218818","lines":["1507","1704"],"schedule":{"travel_time":1,"stop_id":"030577"}},{"index":30,"name":"Av Almeida Garrett 76","id":"030579","lat":"38.738281","lon":"-9.218164","lines":["1507","1704"],"schedule":{"travel_time":0,"stop_id":"030579"}},{"index":31,"name":"R Faustino Fonseca 2","id":"030581","lat":"38.736911","lon":"-9.216441","lines":["1507","1704"],"schedule":{"travel_time":1,"stop_id":"030581"}},{"index":32,"name":"Estr Alfragide (X) Praceta das Gaias","id":"030024","lat":"38.738231","lon":"-9.212534","lines":["1001","1704","1713","1718"],"schedule":{"travel_time":0,"stop_id":"030024"}},{"index":33,"name":"Estr Zambujal 26","id":"030763","lat":"38.737861","lon":"-9.210943","lines":["1704","1713","1718"],"schedule":{"travel_time":1,"stop_id":"030763"}},{"index":34,"name":"Estr Zambujal 63 (C Rainha S Isabel)","id":"030560","lat":"38.736457","lon":"-9.212924","lines":["1503","1504","1704","1713","1718"],"schedule":{"travel_time":0,"stop_id":"030560"}},{"index":35,"name":"Estr Zambujal 2","id":"030558","lat":"38.734855","lon":"-9.215499","lines":["1503","1504","1704","1713","1718"],"schedule":{"travel_time":1,"stop_id":"030558"}},{"index":36,"name":"Estr Zambujal (Escolas)","id":"030563","lat":"38.733348","lon":"-9.216180","lines":["1503","1504","1704","1713","1718"],"schedule":{"travel_time":0,"stop_id":"030563"}},{"index":37,"name":"R Cerrado Oliveiras 210","id":"030765","lat":"38.731338","lon":"-9.214429","lines":["1704"],"schedule":{"travel_time":1,"stop_id":"030765"}},{"index":38,"name":"R Ribeira 24","id":"030767","lat":"38.730316","lon":"-9.213077","lines":["1704"],"schedule":{"travel_time":0,"stop_id":"030767"}},{"index":39,"name":"R Ribeira 60","id":"030769","lat":"38.729189","lon":"-9.214015","lines":["1704"],"schedule":{"travel_time":0,"stop_id":"030769"}},{"index":40,"name":"Estr Zambujal (Pq Estacionamento)","id":"030550","lat":"38.728039","lon":"-9.214061","lines":["1002","1503","1504","1704","1713","1718"],"schedule":{"travel_time":0,"stop_id":"030550"}},{"index":41,"name":"Estr Almarjão (Rot Estr Mt Cabreira)","id":"030771","lat":"38.727836","lon":"-9.212333","lines":["1704","1718","1726","1728","1730"],"schedule":{"travel_time":1,"stop_id":"030771"}},{"index":42,"name":"AV ENG DUARTE PACHECO (POSTO COMBUST)","id":"060449","lat":"38.722969","lon":"-9.166909","lines":["1704","1716","1723","1724","1725","1726","1728","1729","1730","1733","3704","3709","3715"],"schedule":{"travel_time":9,"stop_id":"060449"}},{"index":43,"name":"Amoreiras","id":"060027","lat":"38.723855","lon":"-9.160573","lines":["1704","1716","1723","1724","1725","1726","1728","1729","1730","1733","3704","3709","3715"],"schedule":{"travel_time":1,"stop_id":"060027"}},{"index":44,"name":"Campolide","id":"060029","lat":"38.727651","lon":"-9.160680","lines":["1704","1716","1723","1724","1725","1726","1728","1729","1730","1733","3704","3709","3715"],"schedule":{"travel_time":1,"stop_id":"060029"}},{"index":45,"name":"Alameda Edgar Cardoso","id":"060031","lat":"38.729124","lon":"-9.156447","lines":["1704","1716","1723","1724","1725","1726","1728","1729","1730","1733","3704","3709","3715"],"schedule":{"travel_time":1,"stop_id":"060031"}},{"index":46,"name":"Marquês de Pombal (Metro) P1","id":"060033","lat":"38.725878","lon":"-9.151315","lines":["1704"],"schedule":{"travel_time":1,"stop_id":"060033"}}]}