{"color":"#C61D23","headsign":"Colégio Militar (Metro)","id":"1706_0_2","long_name":"Colégio Militar (Metro) - UBBO via Brandoa","line_id":"1706","shape_id":"75_4X7ZR","path":[{"index":1,"name":"Casal da Mira (Centro Comercial) P5","id":"030850","lat":"38.776952","lon":"-9.217594","lines":["1706","1708"],"schedule":{"travel_time":0,"stop_id":"030850"}},{"index":2,"name":"Pça Maria Brown","id":"030851","lat":"38.778723","lon":"-9.222438","lines":["1005","1006","1706","1707","1708"],"schedule":{"travel_time":3,"stop_id":"030851"}},{"index":3,"name":"Acesso Brandoa / C S Brás (C Futebol)","id":"030255","lat":"38.770577","lon":"-9.224759","lines":["1005","1706","1708"],"schedule":{"travel_time":3,"stop_id":"030255"}},{"index":4,"name":"Brandoa (Alto)","id":"030367","lat":"38.768080","lon":"-9.223820","lines":["1010","1012","1706","1708"],"schedule":{"travel_time":1,"stop_id":"030367"}},{"index":5,"name":"R Joaquim Tim Tim Sitima 1","id":"030369","lat":"38.766555","lon":"-9.223235","lines":["1010","1012","1706","1708"],"schedule":{"travel_time":1,"stop_id":"030369"}},{"index":6,"name":"Av Liberdade Fte 96","id":"030859","lat":"38.766825","lon":"-9.222648","lines":["1010","1012","1514","1703","1706","1708"],"schedule":{"travel_time":0,"stop_id":"030859"}},{"index":7,"name":"R Liberdade (Parque Infantil)","id":"030371","lat":"38.767907","lon":"-9.221205","lines":["1010","1012","1514","1703","1706","1708"],"schedule":{"travel_time":0,"stop_id":"030371"}},{"index":8,"name":"R Liberdade 63","id":"030360","lat":"38.768581","lon":"-9.219795","lines":["1010","1012","1514","1703","1706","1708"],"schedule":{"travel_time":1,"stop_id":"030360"}},{"index":9,"name":"R Luis Vaz Camões 46","id":"030373","lat":"38.767862","lon":"-9.217057","lines":["1010","1012","1514","1703","1706","1708"],"schedule":{"travel_time":0,"stop_id":"030373"}},{"index":10,"name":"R Luiz Vaz Camões (Igreja)","id":"030695","lat":"38.766474","lon":"-9.215391","lines":["1514","1703","1706","1708"],"schedule":{"travel_time":1,"stop_id":"030695"}},{"index":11,"name":"Largo 1º Maio","id":"030737","lat":"38.765265","lon":"-9.213124","lines":["1703","1706","1708"],"schedule":{"travel_time":0,"stop_id":"030737"}},{"index":12,"name":"Av Ruy Luis Gomes (Posto Combust)","id":"030389","lat":"38.764153","lon":"-9.211571","lines":["1011","1012","1514","1703","1706","1708"],"schedule":{"travel_time":1,"stop_id":"030389"}},{"index":13,"name":"Av Ruy Luis Gomes (Alfornelos)","id":"030391","lat":"38.764324","lon":"-9.209877","lines":["1011","1012","1514","1703","1706","1708"],"schedule":{"travel_time":0,"stop_id":"030391"}},{"index":14,"name":"Av Ruy Luis Gomes (Igreja)","id":"030421","lat":"38.763095","lon":"-9.206073","lines":["1514","1703","1706","1708"],"schedule":{"travel_time":1,"stop_id":"030421"}},{"index":15,"name":"R Damião Góis 10","id":"030397","lat":"38.762124","lon":"-9.204644","lines":["1011","1514","1703","1706","1708","2601"],"schedule":{"travel_time":1,"stop_id":"030397"}},{"index":16,"name":"Alfornelos (Metro)","id":"030399","lat":"38.760137","lon":"-9.204580","lines":["1011","1514","1706","1708","2601"],"schedule":{"travel_time":0,"stop_id":"030399"}},{"index":17,"name":"Caliça","id":"060425","lat":"38.757708","lon":"-9.205164","lines":["1706","1708"],"schedule":{"travel_time":2,"stop_id":"060425"}},{"index":18,"name":"R João Ortigão Ramos","id":"060427","lat":"38.756289","lon":"-9.203778","lines":["1706","1708"],"schedule":{"travel_time":1,"stop_id":"060427"}},{"index":19,"name":"Estr Arneiros","id":"060004","lat":"38.754277","lon":"-9.197862","lines":["1706","1708"],"schedule":{"travel_time":2,"stop_id":"060004"}},{"index":20,"name":"Benfica (R Pereira Bernardes)","id":"060006","lat":"38.751244","lon":"-9.197940","lines":["1706","1708"],"schedule":{"travel_time":1,"stop_id":"060006"}},{"index":21,"name":"Qta Granja - Av Uruguai","id":"060012","lat":"38.753289","lon":"-9.196316","lines":["1706","1708"],"schedule":{"travel_time":1,"stop_id":"060012"}},{"index":22,"name":"Colégio Militar (Metro) P7","id":"060015","lat":"38.753005","lon":"-9.189910","lines":["1706"],"schedule":{"travel_time":2,"stop_id":"060015"}}]}