{"color":"#C61D23","headsign":"Casal Mira (Centro Comercial)","id":"1707_0_1","long_name":"Colégio Militar (Metro) – Casal Mira (UBBO) via Amadora Este (Metro)","line_id":"1707","shape_id":"78_4X7ZR","path":[{"index":1,"name":"Colégio Militar (Metro) P10","id":"060440","lat":"38.752921","lon":"-9.190140","lines":["1707"],"schedule":{"travel_time":0,"stop_id":"060440"}},{"index":2,"name":"Calhariz","id":"060047","lat":"38.749613","lon":"-9.191319","lines":["1707","1717","1720","1721"],"schedule":{"travel_time":1,"stop_id":"060047"}},{"index":3,"name":"Esc Pedro Santarém","id":"060049","lat":"38.750247","lon":"-9.195982","lines":["1707","1717","1720","1721"],"schedule":{"travel_time":2,"stop_id":"060049"}},{"index":4,"name":"Igreja Benfica","id":"060041","lat":"38.750834","lon":"-9.201696","lines":["1707","1717","1720","1721"],"schedule":{"travel_time":1,"stop_id":"060041"}},{"index":5,"name":"Estr Benfica (Mercado)","id":"060043","lat":"38.752015","lon":"-9.205174","lines":["1707","1717","1720","1721"],"schedule":{"travel_time":1,"stop_id":"060043"}},{"index":6,"name":"R Elias Garcia (Portas de Benfica)","id":"030299","lat":"38.753721","lon":"-9.210032","lines":["1008","1707","1713","1717","1720","1721"],"schedule":{"travel_time":1,"stop_id":"030299"}},{"index":7,"name":"R Elias Garcia 28C","id":"030301","lat":"38.754596","lon":"-9.213767","lines":["1008","1707","1717","1720","1721"],"schedule":{"travel_time":1,"stop_id":"030301"}},{"index":8,"name":"R Elias Garcia (Hipermercado)","id":"030303","lat":"38.755675","lon":"-9.216855","lines":["1008","1707","1717","1720","1721"],"schedule":{"travel_time":1,"stop_id":"030303"}},{"index":9,"name":"Amadora Este (Metro) P3","id":"030157","lat":"38.758527","lon":"-9.218899","lines":["1003","1707","1713"],"schedule":{"travel_time":1,"stop_id":"030157"}},{"index":10,"name":"Av Eduardo Jorge 26","id":"030613","lat":"38.757683","lon":"-9.222224","lines":["1508","1514","1515","1518","1601","1707","1717","1720","1721"],"schedule":{"travel_time":1,"stop_id":"030613"}},{"index":11,"name":"Estr da Falagueira 18","id":"030727","lat":"38.759683","lon":"-9.227354","lines":["1518","1707","1717"],"schedule":{"travel_time":2,"stop_id":"030727"}},{"index":12,"name":"Estr Falagueira 60","id":"030163","lat":"38.761949","lon":"-9.228595","lines":["1003","1517","1707"],"schedule":{"travel_time":1,"stop_id":"030163"}},{"index":13,"name":"Estr Serra Mira 32","id":"030138","lat":"38.765134","lon":"-9.230620","lines":["1003","1517","1707"],"schedule":{"travel_time":1,"stop_id":"030138"}},{"index":14,"name":"Estr Serra Mira (Móveis Salima)","id":"030165","lat":"38.766987","lon":"-9.230609","lines":["1514","1517","1707"],"schedule":{"travel_time":1,"stop_id":"030165"}},{"index":15,"name":"Estr Serra da Mina 56A","id":"030187","lat":"38.768940","lon":"-9.230201","lines":["1004","1006","1010","1517","1707"],"schedule":{"travel_time":0,"stop_id":"030187"}},{"index":16,"name":"Estr Serra Mira (Fte Estal CMA)","id":"030189","lat":"38.773792","lon":"-9.230565","lines":["1004","1006","1517","1707"],"schedule":{"travel_time":2,"stop_id":"030189"}},{"index":17,"name":"Estr Serra Mira (Posto Combustível)","id":"030191","lat":"38.777645","lon":"-9.229522","lines":["1004","1006","1707"],"schedule":{"travel_time":1,"stop_id":"030191"}},{"index":18,"name":"Moinhos Funcheira (X) S Mira","id":"030193","lat":"38.776075","lon":"-9.230790","lines":["1006","1707"],"schedule":{"travel_time":1,"stop_id":"030193"}},{"index":19,"name":"Av Liberdade 44A","id":"030195","lat":"38.775032","lon":"-9.233533","lines":["1006","1707"],"schedule":{"travel_time":1,"stop_id":"030195"}},{"index":20,"name":"Av Revolução 20A","id":"030197","lat":"38.774827","lon":"-9.235740","lines":["1006","1707"],"schedule":{"travel_time":1,"stop_id":"030197"}},{"index":21,"name":"R 25 Abril 11","id":"030199","lat":"38.774241","lon":"-9.237494","lines":["1006","1509","1707"],"schedule":{"travel_time":0,"stop_id":"030199"}},{"index":22,"name":"R 25 Abril 52","id":"030201","lat":"38.776314","lon":"-9.239526","lines":["1006","1509","1707"],"schedule":{"travel_time":1,"stop_id":"030201"}},{"index":23,"name":"R D Dinis - Tras Central Elétrica","id":"030203","lat":"38.776860","lon":"-9.240077","lines":["1006","1509","1707"],"schedule":{"travel_time":0,"stop_id":"030203"}},{"index":24,"name":"R Sto António Fte Lte 328","id":"030205","lat":"38.776739","lon":"-9.242259","lines":["1006","1509","1707"],"schedule":{"travel_time":1,"stop_id":"030205"}},{"index":25,"name":"R D João V (X) R Pico","id":"030207","lat":"38.778197","lon":"-9.242885","lines":["1006","1509","1707"],"schedule":{"travel_time":0,"stop_id":"030207"}},{"index":26,"name":"R D João V 129","id":"030209","lat":"38.779353","lon":"-9.240589","lines":["1006","1509","1707"],"schedule":{"travel_time":1,"stop_id":"030209"}},{"index":27,"name":"R D João V 26","id":"030211","lat":"38.780364","lon":"-9.238582","lines":["1006","1509","1707"],"schedule":{"travel_time":1,"stop_id":"030211"}},{"index":28,"name":"Estr Central (Central Elétrica)","id":"030858","lat":"38.780734","lon":"-9.236951","lines":["1707"],"schedule":{"travel_time":0,"stop_id":"030858"}},{"index":29,"name":"Estr Central (X) Av Dr F Piteira Santos","id":"030626","lat":"38.779214","lon":"-9.236173","lines":["1707","1719"],"schedule":{"travel_time":1,"stop_id":"030626"}},{"index":30,"name":"Av D Fernando Piteira Santos 17","id":"030791","lat":"38.778100","lon":"-9.234580","lines":["1707","1719"],"schedule":{"travel_time":0,"stop_id":"030791"}},{"index":31,"name":"Av D F Piteira Santos (Supermercado)","id":"030223","lat":"38.778644","lon":"-9.233140","lines":["1006","1509","1517","1707","1719"],"schedule":{"travel_time":1,"stop_id":"030223"}},{"index":32,"name":"Moinhos Funcheira (Rotunda)","id":"030225","lat":"38.778369","lon":"-9.230223","lines":["1006","1509","1517","1707","1719"],"schedule":{"travel_time":0,"stop_id":"030225"}},{"index":33,"name":"Estr Serra Mira 177A","id":"030257","lat":"38.779384","lon":"-9.229154","lines":["1006","1509","1707","1719"],"schedule":{"travel_time":1,"stop_id":"030257"}},{"index":34,"name":"Estr Serra Mira 244","id":"030259","lat":"38.782662","lon":"-9.227312","lines":["1006","1509","1707","1719"],"schedule":{"travel_time":1,"stop_id":"030259"}},{"index":35,"name":"Casal Mira","id":"030261","lat":"38.782089","lon":"-9.226467","lines":["1006","1010","1707"],"schedule":{"travel_time":1,"stop_id":"030261"}},{"index":36,"name":"R 5 Outubro 11","id":"030263","lat":"38.782424","lon":"-9.225723","lines":["1006","1010","1707"],"schedule":{"travel_time":1,"stop_id":"030263"}},{"index":37,"name":"R dos Lirios 7","id":"030265","lat":"38.782516","lon":"-9.224055","lines":["1006","1010","1707"],"schedule":{"travel_time":0,"stop_id":"030265"}},{"index":38,"name":"R Ramiro Martins 9A","id":"030267","lat":"38.782480","lon":"-9.222639","lines":["1006","1010","1707"],"schedule":{"travel_time":1,"stop_id":"030267"}},{"index":39,"name":"R Alberto da Conceição Guerreiro 11","id":"030269","lat":"38.779745","lon":"-9.224412","lines":["1006","1010","1707"],"schedule":{"travel_time":1,"stop_id":"030269"}},{"index":40,"name":"R Nova York (Eb J Garcês)","id":"030271","lat":"38.777992","lon":"-9.224225","lines":["1006","1010","1707"],"schedule":{"travel_time":1,"stop_id":"030271"}},{"index":41,"name":"Pça J Garcês (Rot Fte Leroy Merlin)","id":"030793","lat":"38.778831","lon":"-9.220915","lines":["1006","1707","1710","2702"],"schedule":{"travel_time":2,"stop_id":"030793"}},{"index":42,"name":"Casal da Mira (Centro Comercial) P2","id":"030849","lat":"38.776923","lon":"-9.218056","lines":["1707"],"schedule":{"travel_time":1,"stop_id":"030849"}}]}