{"color":"#C61D23","headsign":"Mira Sintra (Mercado)","id":"1715_0_1","long_name":"Belém (Estação) - Mira Sintra (Mercado)","line_id":"1715","shape_id":"143_4X7ZR","path":[{"index":1,"name":"Belém (Estação)","id":"060107","lat":"38.697138","lon":"-9.199638","lines":["1715","1718"],"schedule":{"travel_time":0,"stop_id":"060107"}},{"index":2,"name":"Mosteiro Jerónimos","id":"060103","lat":"38.697814","lon":"-9.204488","lines":["1714","1715","1718"],"schedule":{"travel_time":2,"stop_id":"060103"}},{"index":3,"name":"R Jerónimos","id":"060098","lat":"38.699883","lon":"-9.205744","lines":["1714","1715","1718"],"schedule":{"travel_time":0,"stop_id":"060098"}},{"index":4,"name":"Av Restelo","id":"060109","lat":"38.699834","lon":"-9.214295","lines":["1715"],"schedule":{"travel_time":2,"stop_id":"060109"}},{"index":5,"name":"Algés (Estação) P4","id":"120340","lat":"38.698740","lon":"-9.227515","lines":["1520","1521","1715","1731"],"schedule":{"travel_time":4,"stop_id":"120340"}},{"index":6,"name":"Av D Vasco da Gama","id":"060115","lat":"38.702603","lon":"-9.217412","lines":["1712","1715","1722","1731"],"schedule":{"travel_time":2,"stop_id":"060115"}},{"index":7,"name":"Hospital S Francisco Xavier","id":"060079","lat":"38.709804","lon":"-9.214973","lines":["1712","1714","1715","1718","1722","1731"],"schedule":{"travel_time":3,"stop_id":"060079"}},{"index":8,"name":"Estr Queluz","id":"060081","lat":"38.717434","lon":"-9.209536","lines":["1712","1714","1715","1718"],"schedule":{"travel_time":2,"stop_id":"060081"}},{"index":9,"name":"Av D José Policarpo (C Comercial)","id":"030785","lat":"38.728102","lon":"-9.216909","lines":["1002","1712","1714","1715","1716"],"schedule":{"travel_time":5,"stop_id":"030785"}},{"index":10,"name":"EN 117 (Alfrapark)","id":"030787","lat":"38.732277","lon":"-9.222512","lines":["1002","1712","1714","1715","1716"],"schedule":{"travel_time":1,"stop_id":"030787"}},{"index":11,"name":"Av José Gomes Ferreira 13","id":"030533","lat":"38.737861","lon":"-9.228173","lines":["1002","1502","1714","1715","1716"],"schedule":{"travel_time":2,"stop_id":"030533"}},{"index":12,"name":"EN 117 (Supermercado)","id":"030516","lat":"38.741492","lon":"-9.230617","lines":["1002","1502","1714","1715","1716"],"schedule":{"travel_time":1,"stop_id":"030516"}},{"index":13,"name":"Amadora (Hospital)","id":"030846","lat":"38.745679","lon":"-9.245996","lines":["1509","1511","1512","1715"],"schedule":{"travel_time":8,"stop_id":"030846"}},{"index":14,"name":"Canil Municipal Amadora","id":"170001","lat":"38.750784","lon":"-9.247533","lines":["1009","1509","1511","1513","1514","1715"],"schedule":{"travel_time":1,"stop_id":"170001"}},{"index":15,"name":"Av D Pedro IV 8","id":"172066","lat":"38.756597","lon":"-9.250026","lines":["1509","1510","1511","1513","1514","1715"],"schedule":{"travel_time":3,"stop_id":"172066"}},{"index":16,"name":"Queluz (4 Caminhos)","id":"172476","lat":"38.756470","lon":"-9.253940","lines":["1510","1511","1518","1715","1721"],"schedule":{"travel_time":1,"stop_id":"172476"}},{"index":17,"name":"Av Elias Garcia 222A","id":"170926","lat":"38.757489","lon":"-9.258787","lines":["1230","1511","1512","1515","1518","1530","1601","1715","1716","1720","1721"],"schedule":{"travel_time":1,"stop_id":"170926"}},{"index":18,"name":"R Timor 2","id":"170924","lat":"38.756650","lon":"-9.262052","lines":["1224","1230","1236","1511","1512","1518","1527","1528","1530","1601","1715","1717","1721"],"schedule":{"travel_time":1,"stop_id":"170924"}},{"index":19,"name":"Monte Abraão (Estação) P13","id":"170929","lat":"38.755815","lon":"-9.265758","lines":["1226","1236","1512","1715","1721"],"schedule":{"travel_time":2,"stop_id":"170929"}},{"index":20,"name":"R Direita Massamá (Escolas)","id":"170931","lat":"38.755672","lon":"-9.268107","lines":["1525","1715","1721"],"schedule":{"travel_time":1,"stop_id":"170931"}},{"index":21,"name":"R Direita Massamá 104 (Chafariz)","id":"170920","lat":"38.756871","lon":"-9.275310","lines":["1525","1715","1721"],"schedule":{"travel_time":2,"stop_id":"170920"}},{"index":22,"name":"Av José Régio 4","id":"170945","lat":"38.757935","lon":"-9.277559","lines":["1228","1229","1715"],"schedule":{"travel_time":0,"stop_id":"170945"}},{"index":23,"name":"Av Salgueiro Maia (Fte Qta Sto Antonio)","id":"172543","lat":"38.760518","lon":"-9.278265","lines":["1228","1715"],"schedule":{"travel_time":1,"stop_id":"172543"}},{"index":24,"name":"Av Salgueiro Maia (X) D Maria I","id":"170947","lat":"38.762579","lon":"-9.278543","lines":["1228","1715"],"schedule":{"travel_time":1,"stop_id":"170947"}},{"index":25,"name":"Massamá (Urb Norte)","id":"170949","lat":"38.764848","lon":"-9.278880","lines":["1228","1715"],"schedule":{"travel_time":0,"stop_id":"170949"}},{"index":26,"name":"Massamá (Urbanização Norte)","id":"170766","lat":"38.766629","lon":"-9.279148","lines":["1217","1228","1715"],"schedule":{"travel_time":1,"stop_id":"170766"}},{"index":27,"name":"Av Salgueiro Maia (Supermercado)","id":"170764","lat":"38.767999","lon":"-9.278804","lines":["1217","1228","1715"],"schedule":{"travel_time":0,"stop_id":"170764"}},{"index":28,"name":"Av Industrias (X) R Cidade Hull","id":"170762","lat":"38.769038","lon":"-9.281504","lines":["1217","1715"],"schedule":{"travel_time":1,"stop_id":"170762"}},{"index":29,"name":"Av Industrias (X) R Panificacão","id":"170760","lat":"38.768804","lon":"-9.283826","lines":["1217","1715"],"schedule":{"travel_time":1,"stop_id":"170760"}},{"index":30,"name":"Av Industrias (X) R Colaride","id":"170758","lat":"38.768554","lon":"-9.286329","lines":["1217","1715"],"schedule":{"travel_time":0,"stop_id":"170758"}},{"index":31,"name":"R Colaride 35","id":"172471","lat":"38.769857","lon":"-9.288663","lines":["1715"],"schedule":{"travel_time":1,"stop_id":"172471"}},{"index":32,"name":"R Colaride 21","id":"170559","lat":"38.770674","lon":"-9.290439","lines":["1211","1217","1715"],"schedule":{"travel_time":1,"stop_id":"170559"}},{"index":33,"name":"R Colaride (Posto Combust)","id":"170561","lat":"38.770667","lon":"-9.291786","lines":["1211","1217","1715"],"schedule":{"travel_time":0,"stop_id":"170561"}},{"index":34,"name":"Av Bons Amigos (Largo)","id":"170460","lat":"38.769694","lon":"-9.295182","lines":["1217","1221","1715"],"schedule":{"travel_time":1,"stop_id":"170460"}},{"index":35,"name":"Agualva-Cacém (Estação) P9","id":"172489","lat":"38.765982","lon":"-9.298151","lines":["1209","1218","1219","1715"],"schedule":{"travel_time":2,"stop_id":"172489"}},{"index":36,"name":"Av Bons Amigos (Largo)","id":"170459","lat":"38.769495","lon":"-9.295174","lines":["1209","1218","1219","1221","1715","2605"],"schedule":{"travel_time":2,"stop_id":"170459"}},{"index":37,"name":"Av Bons Amigos 87 (Escola)","id":"170461","lat":"38.771839","lon":"-9.292100","lines":["1209","1218","1219","1221","1715","2605"],"schedule":{"travel_time":1,"stop_id":"170461"}},{"index":38,"name":"Av Sta Maria 10","id":"170640","lat":"38.773261","lon":"-9.294165","lines":["1213","1219","1221","1715"],"schedule":{"travel_time":1,"stop_id":"170640"}},{"index":39,"name":"Av Sta Maria (Igreja)","id":"170638","lat":"38.774349","lon":"-9.294062","lines":["1213","1219","1221","1715"],"schedule":{"travel_time":0,"stop_id":"170638"}},{"index":40,"name":"Av Sta Maria 40","id":"170636","lat":"38.776438","lon":"-9.294887","lines":["1213","1219","1221","1715"],"schedule":{"travel_time":1,"stop_id":"170636"}},{"index":41,"name":"R Silva Porto 25 (Fte Escola)","id":"170634","lat":"38.777638","lon":"-9.295723","lines":["1213","1219","1715"],"schedule":{"travel_time":0,"stop_id":"170634"}},{"index":42,"name":"R Carlos Charbel 31","id":"170632","lat":"38.776286","lon":"-9.296253","lines":["1213","1715"],"schedule":{"travel_time":1,"stop_id":"170632"}},{"index":43,"name":"Av Bomb Voluntários 36","id":"170467","lat":"38.776246","lon":"-9.297705","lines":["1209","1218","1715"],"schedule":{"travel_time":0,"stop_id":"170467"}},{"index":44,"name":"Av Bomb Voluntários (Escola)","id":"170469","lat":"38.777761","lon":"-9.297594","lines":["1209","1218","1219","1715"],"schedule":{"travel_time":1,"stop_id":"170469"}},{"index":45,"name":"Av Bomb Volunt (X) R Gen Humb Delgado","id":"170471","lat":"38.780356","lon":"-9.298645","lines":["1209","1218","1219","1715"],"schedule":{"travel_time":0,"stop_id":"170471"}},{"index":46,"name":"M Sintra (Pq Inf)","id":"170473","lat":"38.780677","lon":"-9.301247","lines":["1209","1218","1219","1715"],"schedule":{"travel_time":1,"stop_id":"170473"}},{"index":47,"name":"Av 25 Abril (Supermercado)","id":"170475","lat":"38.782480","lon":"-9.302160","lines":["1209","1218","1219","1234","1715"],"schedule":{"travel_time":1,"stop_id":"170475"}},{"index":48,"name":"Av 25 Abril 120","id":"170477","lat":"38.783393","lon":"-9.304884","lines":["1209","1218","1219","1234","1715"],"schedule":{"travel_time":1,"stop_id":"170477"}},{"index":49,"name":"Av 25 Abril (Ringue)","id":"170479","lat":"38.784746","lon":"-9.303894","lines":["1209","1218","1219","1234","1715"],"schedule":{"travel_time":0,"stop_id":"170479"}},{"index":50,"name":"Mira Sintra (Centro)","id":"170481","lat":"38.785817","lon":"-9.304237","lines":["1209","1218","1219","1234","1715"],"schedule":{"travel_time":1,"stop_id":"170481"}},{"index":51,"name":"Av 25 Abril 198","id":"170483","lat":"38.786908","lon":"-9.306212","lines":["1209","1218","1219","1234","1512","1715"],"schedule":{"travel_time":0,"stop_id":"170483"}},{"index":52,"name":"Av 25 Abril (Campo Futebol)","id":"170485","lat":"38.788854","lon":"-9.306761","lines":["1209","1218","1219","1234","1512","1715"],"schedule":{"travel_time":1,"stop_id":"170485"}},{"index":53,"name":"Mira Sintra (Mercado)","id":"170487","lat":"38.788003","lon":"-9.304419","lines":["1209","1218","1219","1234","1512","1715"],"schedule":{"travel_time":1,"stop_id":"170487"}}]}