{"color":"#C61D23","headsign":"Idanha (Urb Campinas)","id":"1716_0_2","long_name":"Idanha (Urb Campinas) - Marquês Pombal (Metro)","line_id":"1716","shape_id":"397_4X7ZR","path":[{"index":1,"name":"Marquês de Pombal (Metro) P2","id":"060123","lat":"38.725820","lon":"-9.151457","lines":["1716","1725"],"schedule":{"travel_time":0,"stop_id":"060123"}},{"index":2,"name":"R Joaquim António Aguiar","id":"060035","lat":"38.725117","lon":"-9.155267","lines":["1704","1716","1723","1724","1725","1726","1728","1729","1730","1733","3704","3709","3715"],"schedule":{"travel_time":1,"stop_id":"060035"}},{"index":3,"name":"Amoreiras","id":"060037","lat":"38.724437","lon":"-9.160764","lines":["1704","1716","1723","1724","1725","1726","1728","1729","1730","1733","3704","3709","3715"],"schedule":{"travel_time":2,"stop_id":"060037"}},{"index":4,"name":"AV ENG DUARTE PACHECO (POSTO COMBUST)","id":"060450","lat":"38.723324","lon":"-9.166410","lines":["1704","1716","1723","1724","1725","1726","1728","1729","1730","1733","3704","3709","3715"],"schedule":{"travel_time":1,"stop_id":"060450"}},{"index":5,"name":"Av D José Policarpo (C Comercial)","id":"030785","lat":"38.728102","lon":"-9.216909","lines":["1002","1712","1714","1715","1716"],"schedule":{"travel_time":13,"stop_id":"030785"}},{"index":6,"name":"EN 117 (Alfrapark)","id":"030787","lat":"38.732277","lon":"-9.222512","lines":["1002","1712","1714","1715","1716"],"schedule":{"travel_time":2,"stop_id":"030787"}},{"index":7,"name":"Av José Gomes Ferreira 13","id":"030533","lat":"38.737861","lon":"-9.228173","lines":["1002","1502","1714","1715","1716"],"schedule":{"travel_time":1,"stop_id":"030533"}},{"index":8,"name":"EN 117 (Supermercado)","id":"030516","lat":"38.741492","lon":"-9.230617","lines":["1002","1502","1714","1715","1716"],"schedule":{"travel_time":2,"stop_id":"030516"}},{"index":9,"name":"Av D José I (Análises Clínicas)","id":"030445","lat":"38.749288","lon":"-9.233006","lines":["1013","1014","1502","1506","1514","1704","1712","1714","1716"],"schedule":{"travel_time":2,"stop_id":"030445"}},{"index":10,"name":"Av Pangim 4","id":"030535","lat":"38.750770","lon":"-9.230909","lines":["1502","1514","1714","1716"],"schedule":{"travel_time":1,"stop_id":"030535"}},{"index":11,"name":"R Moínho Velho 3E","id":"030537","lat":"38.753305","lon":"-9.232151","lines":["1502","1514","1714","1716","1718"],"schedule":{"travel_time":1,"stop_id":"030537"}},{"index":12,"name":"Av Aviação Portuguesa 18","id":"030539","lat":"38.755832","lon":"-9.233483","lines":["1002","1502","1514","1714","1716","1718"],"schedule":{"travel_time":0,"stop_id":"030539"}},{"index":13,"name":"Amadora (Estação) P9 Entrada Sul","id":"030685","lat":"38.757526","lon":"-9.233969","lines":["1515","1601","1716","1720","1721"],"schedule":{"travel_time":1,"stop_id":"030685"}},{"index":14,"name":"R Elias Garcia (Parque)","id":"030319","lat":"38.758863","lon":"-9.237048","lines":["1014","1601","1716","1718","1721"],"schedule":{"travel_time":1,"stop_id":"030319"}},{"index":15,"name":"Amadora (Hosp Luz)","id":"030323","lat":"38.760534","lon":"-9.242658","lines":["1009","1014","1508","1515","1518","1601","1716","1717","1718","1720","1721"],"schedule":{"travel_time":1,"stop_id":"030323"}},{"index":16,"name":"R Elias Garcia Fte 323","id":"030325","lat":"38.761179","lon":"-9.245491","lines":["1009","1014","1508","1515","1518","1601","1716","1717","1718","1720","1721"],"schedule":{"travel_time":1,"stop_id":"030325"}},{"index":17,"name":"R Elias Garcia (Fte Escolas)","id":"030327","lat":"38.760717","lon":"-9.247945","lines":["1009","1014","1508","1515","1518","1601","1603","1716","1717","1718","1720","1721"],"schedule":{"travel_time":0,"stop_id":"030327"}},{"index":18,"name":"Av Elias Garcia 40","id":"171028","lat":"38.759253","lon":"-9.250478","lines":["1230","1512","1515","1518","1519","1601","1716","1717","1720","1721"],"schedule":{"travel_time":1,"stop_id":"171028"}},{"index":19,"name":"Queluz (4 Caminhos)","id":"172495","lat":"38.756483","lon":"-9.253747","lines":["1230","1512","1513","1515","1716","1720"],"schedule":{"travel_time":1,"stop_id":"172495"}},{"index":20,"name":"Av Elias Garcia 222A","id":"170926","lat":"38.757489","lon":"-9.258787","lines":["1230","1511","1512","1515","1518","1530","1601","1715","1716","1720","1721"],"schedule":{"travel_time":1,"stop_id":"170926"}},{"index":21,"name":"Queluz - Belas (Estação)","id":"170599","lat":"38.759173","lon":"-9.257452","lines":["1224","1513","1515","1716","1718","1720"],"schedule":{"travel_time":2,"stop_id":"170599"}},{"index":22,"name":"Av Miguel Bombarda 82","id":"170598","lat":"38.761754","lon":"-9.256460","lines":["1212","1224","1226","1513","1515","1716","1718","1720"],"schedule":{"travel_time":1,"stop_id":"170598"}},{"index":23,"name":"Av Miguel Bombarda 156","id":"170596","lat":"38.764157","lon":"-9.256783","lines":["1212","1224","1226","1513","1515","1716","1718","1720"],"schedule":{"travel_time":0,"stop_id":"170596"}},{"index":24,"name":"Av Miguel Bombarda 182","id":"170594","lat":"38.766810","lon":"-9.257873","lines":["1212","1224","1230","1512","1516","1716","1718"],"schedule":{"travel_time":1,"stop_id":"170594"}},{"index":25,"name":"R Alexandre Herculano 21","id":"170592","lat":"38.769755","lon":"-9.259741","lines":["1212","1224","1230","1512","1516","1716","1718"],"schedule":{"travel_time":1,"stop_id":"170592"}},{"index":26,"name":"EN 117 10 (Farmácia)","id":"170601","lat":"38.775303","lon":"-9.260590","lines":["1212","1224","1228","1230","1512","1716","1718","2605"],"schedule":{"travel_time":2,"stop_id":"170601"}},{"index":27,"name":"EN 250 2 (X) Pça 5 Outubro","id":"170533","lat":"38.775948","lon":"-9.264059","lines":["1211","1212","1224","1228","1230","1512","1716","1718","2605"],"schedule":{"travel_time":1,"stop_id":"170533"}},{"index":28,"name":"R Victor Cordon 22","id":"170535","lat":"38.776286","lon":"-9.265389","lines":["1211","1212","1228","1230","1512","1716","1718","2605"],"schedule":{"travel_time":0,"stop_id":"170535"}},{"index":29,"name":"Av Veiga Cunha 15","id":"170537","lat":"38.776285","lon":"-9.268517","lines":["1211","1212","1228","1230","1512","1716","1718","2605"],"schedule":{"travel_time":1,"stop_id":"170537"}},{"index":30,"name":"Av Veiga Cunha 47","id":"170539","lat":"38.775385","lon":"-9.271127","lines":["1211","1212","1228","1230","1512","1716","1718","2605"],"schedule":{"travel_time":0,"stop_id":"170539"}},{"index":31,"name":"Av Alves Redol (Escola)","id":"170955","lat":"38.774493","lon":"-9.270075","lines":["1228","1230","1716"],"schedule":{"travel_time":1,"stop_id":"170955"}},{"index":32,"name":"R Norton Matos 28","id":"170957","lat":"38.772904","lon":"-9.268695","lines":["1228","1230","1716"],"schedule":{"travel_time":0,"stop_id":"170957"}},{"index":33,"name":"Estr Mirante 30","id":"170959","lat":"38.772327","lon":"-9.270583","lines":["1228","1230","1716"],"schedule":{"travel_time":1,"stop_id":"170959"}},{"index":34,"name":"Estr Portela (Supermercado)","id":"171077","lat":"38.771103","lon":"-9.271156","lines":["1228","1230","1716"],"schedule":{"travel_time":0,"stop_id":"171077"}},{"index":35,"name":"Idanha (Xetaria)","id":"170953","lat":"38.769088","lon":"-9.271606","lines":["1230","1716"],"schedule":{"travel_time":1,"stop_id":"170953"}},{"index":36,"name":"Estr da Xetaria (X) Av de Portugal","id":"172474","lat":"38.766870","lon":"-9.271056","lines":["1716"],"schedule":{"travel_time":1,"stop_id":"172474"}},{"index":37,"name":"Avenida de Portugal (X) Impasse da Finlândia","id":"171084","lat":"38.767198","lon":"-9.273013","lines":["1230","1716"],"schedule":{"travel_time":0,"stop_id":"171084"}},{"index":38,"name":"Idanha (Urb Campinas)","id":"170951","lat":"38.768623","lon":"-9.274289","lines":["1228","1716"],"schedule":{"travel_time":1,"stop_id":"170951"}}]}