{"color":"#C61D23","headsign":"Queluz - Belas (Estação)","id":"1716_1_1","long_name":"Idanha (Urb Campinas) - Queluz - Belas (Estação)","line_id":"1716","shape_id":"396_4X7ZR","path":[{"index":1,"name":"Idanha (Urb Campinas)","id":"170951","lat":"38.768623","lon":"-9.274289","lines":["1228","1716"],"schedule":{"travel_time":0,"stop_id":"170951"}},{"index":2,"name":"Avenida de Portugal (X) Impasse da Finlândia","id":"171083","lat":"38.767105","lon":"-9.272980","lines":["1230","1716"],"schedule":{"travel_time":1,"stop_id":"171083"}},{"index":3,"name":"Estr da Xetaria (X) Av de Portugal","id":"172473","lat":"38.767097","lon":"-9.270998","lines":["1716"],"schedule":{"travel_time":0,"stop_id":"172473"}},{"index":4,"name":"Idanha (Xetaria)","id":"172524","lat":"38.769262","lon":"-9.271139","lines":["1228","1716"],"schedule":{"travel_time":1,"stop_id":"172524"}},{"index":5,"name":"Estr Portela (Supermercado)","id":"171078","lat":"38.771130","lon":"-9.270993","lines":["1228","1230","1716"],"schedule":{"travel_time":0,"stop_id":"171078"}},{"index":6,"name":"Estr Mirante 26","id":"170960","lat":"38.772097","lon":"-9.270775","lines":["1230","1716"],"schedule":{"travel_time":1,"stop_id":"170960"}},{"index":7,"name":"R Norton Matos 35A","id":"170958","lat":"38.772970","lon":"-9.268558","lines":["1230","1716"],"schedule":{"travel_time":0,"stop_id":"170958"}},{"index":8,"name":"Av Alves Redol (X) R Guerra junqueiro","id":"170956","lat":"38.774451","lon":"-9.269333","lines":["1230","1716"],"schedule":{"travel_time":1,"stop_id":"170956"}},{"index":9,"name":"Av Alves Redol 2","id":"171091","lat":"38.774835","lon":"-9.271103","lines":["1230","1716"],"schedule":{"travel_time":0,"stop_id":"171091"}},{"index":10,"name":"Av Veiga Cunha 47","id":"170540","lat":"38.775242","lon":"-9.271073","lines":["1211","1212","1228","1230","1512","1716","1718","2605"],"schedule":{"travel_time":0,"stop_id":"170540"}},{"index":11,"name":"Av Veiga Cunha 15","id":"170538","lat":"38.776202","lon":"-9.268709","lines":["1211","1212","1228","1230","1512","1716","1718","2605"],"schedule":{"travel_time":1,"stop_id":"170538"}},{"index":12,"name":"R Victor Cordon 5A","id":"170573","lat":"38.776133","lon":"-9.265704","lines":["1211","1212","1228","1230","1512","1716","1718","2605"],"schedule":{"travel_time":1,"stop_id":"170573"}},{"index":13,"name":"EN 250 2 (Largo)","id":"170575","lat":"38.775618","lon":"-9.263800","lines":["1211","1212","1224","1228","1230","1512","1716","1718","2605"],"schedule":{"travel_time":0,"stop_id":"170575"}},{"index":14,"name":"Av Marinha Portuguesa (Correios)","id":"170577","lat":"38.775302","lon":"-9.261438","lines":["1211","1212","1224","1228","1230","1512","1716","1718","2605"],"schedule":{"travel_time":1,"stop_id":"170577"}},{"index":15,"name":"R Alexandre Herculano 18","id":"170591","lat":"38.769923","lon":"-9.259952","lines":["1212","1224","1230","1512","1516","1716","1718"],"schedule":{"travel_time":2,"stop_id":"170591"}},{"index":16,"name":"Av Miguel Bombarda 221","id":"170593","lat":"38.766564","lon":"-9.257897","lines":["1212","1224","1230","1512","1516","1716","1718"],"schedule":{"travel_time":1,"stop_id":"170593"}},{"index":17,"name":"Av Mig Bombarda (Pcta M Av Humb Cruz)","id":"170595","lat":"38.763952","lon":"-9.256824","lines":["1212","1224","1226","1513","1515","1716","1718","1720"],"schedule":{"travel_time":1,"stop_id":"170595"}},{"index":18,"name":"Av Miguel Bombarda 91","id":"170597","lat":"38.761872","lon":"-9.256532","lines":["1212","1224","1226","1513","1515","1716","1718","1720"],"schedule":{"travel_time":0,"stop_id":"170597"}},{"index":19,"name":"Queluz - Belas (Estação)","id":"170599","lat":"38.759173","lon":"-9.257452","lines":["1224","1513","1515","1716","1718","1720"],"schedule":{"travel_time":1,"stop_id":"170599"}}]}