{"color":"#C61D23","headsign":"Tercena","id":"1717_1_1","long_name":"Queluz (4 Caminhos) - Tercena","line_id":"1717","shape_id":"399_4X7ZR","path":[{"index":1,"name":"Queluz (4 Caminhos)","id":"170928","lat":"38.756449","lon":"-9.254178","lines":["1519","1530","1601","1717"],"schedule":{"travel_time":0,"stop_id":"170928"}},{"index":2,"name":"Av Republica 55","id":"172067","lat":"38.753842","lon":"-9.256074","lines":["1510","1513","1519","1717"],"schedule":{"travel_time":1,"stop_id":"172067"}},{"index":3,"name":"Av Republica 1","id":"172069","lat":"38.752231","lon":"-9.257848","lines":["1510","1513","1519","1717"],"schedule":{"travel_time":1,"stop_id":"172069"}},{"index":4,"name":"Queluz (Fte Palácio)","id":"172505","lat":"38.751965","lon":"-9.258842","lines":["1512","1513","1717"],"schedule":{"travel_time":0,"stop_id":"172505"}},{"index":5,"name":"Av Eng Duarte Pacheco (Parque)","id":"172502","lat":"38.755536","lon":"-9.259687","lines":["1512","1513","1717"],"schedule":{"travel_time":1,"stop_id":"172502"}},{"index":6,"name":"R Timor 2","id":"170924","lat":"38.756650","lon":"-9.262052","lines":["1224","1230","1236","1511","1512","1518","1527","1528","1530","1601","1715","1717","1721"],"schedule":{"travel_time":2,"stop_id":"170924"}},{"index":7,"name":"Monte Abraão (Estação) P9","id":"172197","lat":"38.755703","lon":"-9.266211","lines":["1527","1530","1601","1717"],"schedule":{"travel_time":2,"stop_id":"172197"}},{"index":8,"name":"Estr Consigl Pedroso (Esc Primária)","id":"121099","lat":"38.746119","lon":"-9.265263","lines":["1522","1527","1528","1530","1601","1717"],"schedule":{"travel_time":4,"stop_id":"121099"}},{"index":9,"name":"Estr Consigl Pedroso 52","id":"120387","lat":"38.744306","lon":"-9.266936","lines":["1105","1106","1107","1111","1522","1527","1528","1530","1601","1717","1729","1730"],"schedule":{"travel_time":1,"stop_id":"120387"}},{"index":10,"name":"Estr Consiglieri P (X) R M Castelhano","id":"120389","lat":"38.741884","lon":"-9.269407","lines":["1105","1106","1107","1111","1522","1527","1528","1530","1601","1717","1729","1730"],"schedule":{"travel_time":1,"stop_id":"120389"}},{"index":11,"name":"Estr Palmeiras (X) Estr Consig Pedroso","id":"120585","lat":"38.740948","lon":"-9.271523","lines":["1111","1528","1530","1601","1717"],"schedule":{"travel_time":1,"stop_id":"120585"}},{"index":12,"name":"Estr Consigl Pedroso 123","id":"120534","lat":"38.740227","lon":"-9.273357","lines":["1111","1528","1530","1601","1717"],"schedule":{"travel_time":0,"stop_id":"120534"}},{"index":13,"name":"Estr Cruz Cavalinhos 30","id":"120532","lat":"38.742334","lon":"-9.277415","lines":["1111","1528","1717"],"schedule":{"travel_time":2,"stop_id":"120532"}},{"index":14,"name":"Jardim Odette de Saint-Maurice","id":"121169","lat":"38.743721","lon":"-9.279334","lines":["1111","1528","1717"],"schedule":{"travel_time":0,"stop_id":"121169"}},{"index":15,"name":"R Constituição (X) Estr c Cavalinhos","id":"121251","lat":"38.744169","lon":"-9.281042","lines":["1717"],"schedule":{"travel_time":1,"stop_id":"121251"}},{"index":16,"name":"R Constituição (X) R Juventude","id":"121253","lat":"38.745736","lon":"-9.281435","lines":["1717"],"schedule":{"travel_time":0,"stop_id":"121253"}},{"index":17,"name":"Tercena","id":"121255","lat":"38.744431","lon":"-9.279785","lines":["1717"],"schedule":{"travel_time":2,"stop_id":"121255"}}]}