{"color":"#C61D23","headsign":"Colégio Militar (Metro)","id":"1717_2_2","long_name":"Tercena - Colégio Militar (Metro)","line_id":"1717","shape_id":"401_4X7ZR","path":[{"index":1,"name":"Tercena","id":"121255","lat":"38.744431","lon":"-9.279785","lines":["1717"],"schedule":{"travel_time":0,"stop_id":"121255"}},{"index":2,"name":"R Juventude (X) R Constituição","id":"120528","lat":"38.745943","lon":"-9.281275","lines":["1111","1717"],"schedule":{"travel_time":1,"stop_id":"120528"}},{"index":3,"name":"R Constituição (X) Estr Cavalinhos","id":"121252","lat":"38.743914","lon":"-9.281093","lines":["1717"],"schedule":{"travel_time":0,"stop_id":"121252"}},{"index":4,"name":"Estr Cruz Cavalinhos 28","id":"120531","lat":"38.742124","lon":"-9.277300","lines":["1111","1528","1717"],"schedule":{"travel_time":1,"stop_id":"120531"}},{"index":5,"name":"Estr Consigl Pedroso 123","id":"120533","lat":"38.740268","lon":"-9.272985","lines":["1111","1528","1530","1601","1717"],"schedule":{"travel_time":1,"stop_id":"120533"}},{"index":6,"name":"Estr Palmeiras (X) Estr Consig Pedroso","id":"120391","lat":"38.740537","lon":"-9.271399","lines":["1105","1106","1107","1111","1522","1527","1528","1717","1729","1730"],"schedule":{"travel_time":1,"stop_id":"120391"}},{"index":7,"name":"R Trabalho (Fábricas)","id":"120377","lat":"38.738220","lon":"-9.269267","lines":["1105","1107","1111","1522","1527","1528","1717","1729","1730"],"schedule":{"travel_time":0,"stop_id":"120377"}},{"index":8,"name":"R Mário Castelhano 40","id":"120379","lat":"38.740304","lon":"-9.268346","lines":["1105","1107","1111","1522","1527","1528","1717","1729","1730"],"schedule":{"travel_time":1,"stop_id":"120379"}},{"index":9,"name":"R Mario Castelhano (Consiglieri Park)","id":"120381","lat":"38.741741","lon":"-9.269270","lines":["1105","1107","1111","1522","1527","1528","1717","1729","1730"],"schedule":{"travel_time":1,"stop_id":"120381"}},{"index":10,"name":"Estr Consiglieri Pedroso 69","id":"120383","lat":"38.742764","lon":"-9.267929","lines":["1105","1107","1111","1522","1527","1528","1530","1601","1717","1729","1730"],"schedule":{"travel_time":0,"stop_id":"120383"}},{"index":11,"name":"Queluz Baixo (CC)","id":"120385","lat":"38.744460","lon":"-9.266581","lines":["1522","1527","1528","1530","1601","1717"],"schedule":{"travel_time":1,"stop_id":"120385"}},{"index":12,"name":"Estr Consigl Pedroso (Esc Primária)","id":"121097","lat":"38.745938","lon":"-9.265228","lines":["1522","1527","1528","1530","1601","1717"],"schedule":{"travel_time":0,"stop_id":"121097"}},{"index":13,"name":"Monte Abraão (Estação) P4","id":"170921","lat":"38.755607","lon":"-9.265726","lines":["1512","1717","1721"],"schedule":{"travel_time":3,"stop_id":"170921"}},{"index":14,"name":"R Timor 2","id":"170923","lat":"38.756556","lon":"-9.261663","lines":["1224","1230","1236","1512","1518","1527","1528","1530","1601","1715","1717","1721"],"schedule":{"travel_time":1,"stop_id":"170923"}},{"index":15,"name":"Av Eng Duarte Pacheco (Fte Parque)","id":"172507","lat":"38.755350","lon":"-9.259801","lines":["1513","1717"],"schedule":{"travel_time":1,"stop_id":"172507"}},{"index":16,"name":"Queluz (Palácio)","id":"172509","lat":"38.751852","lon":"-9.258852","lines":["1513","1717"],"schedule":{"travel_time":1,"stop_id":"172509"}},{"index":17,"name":"R Heliodoro Salgado 2","id":"172059","lat":"38.752372","lon":"-9.257069","lines":["1510","1513","1519","1717"],"schedule":{"travel_time":0,"stop_id":"172059"}},{"index":18,"name":"Av Conde Almeida Araújo 12","id":"172061","lat":"38.753798","lon":"-9.255675","lines":["1510","1513","1519","1717"],"schedule":{"travel_time":1,"stop_id":"172061"}},{"index":19,"name":"Av C Almeida Araujo (Jta Freguesia)","id":"172063","lat":"38.755009","lon":"-9.255052","lines":["1510","1513","1519","1717"],"schedule":{"travel_time":0,"stop_id":"172063"}},{"index":20,"name":"Queluz (4 Caminhos)","id":"172499","lat":"38.756331","lon":"-9.253467","lines":["1515","1518","1530","1601","1715","1717","1720","1721"],"schedule":{"travel_time":1,"stop_id":"172499"}},{"index":21,"name":"Rua Laura Alves (X) Rua Dom Pedro IV","id":"175188","lat":"38.756760","lon":"-9.250327","lines":["1510","1518","1601","1716","1717"],"schedule":{"travel_time":0,"stop_id":"175188"}},{"index":22,"name":"Av Elias Garcia 25","id":"171027","lat":"38.759411","lon":"-9.250340","lines":["1230","1509","1510","1512","1514","1515","1518","1519","1601","1716","1717","1720","1721"],"schedule":{"travel_time":1,"stop_id":"171027"}},{"index":23,"name":"R Elias Garcia (Escolas)","id":"030328","lat":"38.760571","lon":"-9.247861","lines":["1009","1014","1508","1509","1510","1514","1515","1518","1601","1603","1716","1717","1718","1720","1721"],"schedule":{"travel_time":1,"stop_id":"030328"}},{"index":24,"name":"R Elias Garcia 323","id":"030326","lat":"38.760998","lon":"-9.245511","lines":["1009","1014","1508","1509","1510","1514","1515","1518","1601","1716","1717","1718","1720","1721"],"schedule":{"travel_time":0,"stop_id":"030326"}},{"index":25,"name":"Rua Elias Garcia 281","id":"173561","lat":"38.760437","lon":"-9.241812","lines":["1509","1514","1518","1717"],"schedule":{"travel_time":1,"stop_id":"173561"}},{"index":26,"name":"Amadora (Estação) P2 Entrada Norte","id":"030843","lat":"38.760890","lon":"-9.237513","lines":["1518","1717"],"schedule":{"travel_time":1,"stop_id":"030843"}},{"index":27,"name":"R Henrique Nogueira 12a (Jardim)","id":"030101","lat":"38.759188","lon":"-9.233165","lines":["1005","1006","1518","1703","1717"],"schedule":{"travel_time":1,"stop_id":"030101"}},{"index":28,"name":"Bombeiros Volunt 4C (Mercado da Mina)","id":"030103","lat":"38.760720","lon":"-9.233497","lines":["1005","1006","1518","1703","1717"],"schedule":{"travel_time":1,"stop_id":"030103"}},{"index":29,"name":"Av Com Luis Antonio Silva 62B","id":"030105","lat":"38.759686","lon":"-9.229522","lines":["1517","1518","1707","1717"],"schedule":{"travel_time":1,"stop_id":"030105"}},{"index":30,"name":"R Elias Garcia 103","id":"030605","lat":"38.757920","lon":"-9.226425","lines":["1508","1514","1515","1518","1601","1707","1717","1720","1721"],"schedule":{"travel_time":1,"stop_id":"030605"}},{"index":31,"name":"R Elias Garcia 88","id":"030607","lat":"38.757305","lon":"-9.223257","lines":["1508","1514","1515","1518","1601","1707","1717","1720","1721"],"schedule":{"travel_time":0,"stop_id":"030607"}},{"index":32,"name":"R Elias Garcia 43","id":"030609","lat":"38.756526","lon":"-9.221063","lines":["1508","1515","1601","1707","1717","1720","1721"],"schedule":{"travel_time":1,"stop_id":"030609"}},{"index":33,"name":"R Elias Garcia 23I","id":"030860","lat":"38.755957","lon":"-9.218376","lines":["1508","1515","1601","1707","1717","1720","1721"],"schedule":{"travel_time":0,"stop_id":"030860"}},{"index":34,"name":"R Elias Garcia (Hipermercado)","id":"030797","lat":"38.755281","lon":"-9.216064","lines":["1707","1717","1720","1721"],"schedule":{"travel_time":1,"stop_id":"030797"}},{"index":35,"name":"R Elias Garcia 15","id":"030302","lat":"38.754391","lon":"-9.213623","lines":["1707","1717","1720","1721"],"schedule":{"travel_time":0,"stop_id":"030302"}},{"index":36,"name":"R Elias Garcia (Portas de Benfica)","id":"030300","lat":"38.753588","lon":"-9.210522","lines":["1707","1713","1717","1720","1721"],"schedule":{"travel_time":1,"stop_id":"030300"}},{"index":37,"name":"Estr Benfica (Mercado)","id":"060044","lat":"38.752042","lon":"-9.205484","lines":["1707","1717","1720","1721"],"schedule":{"travel_time":1,"stop_id":"060044"}},{"index":38,"name":"Igreja Benfica","id":"060051","lat":"38.750660","lon":"-9.201458","lines":["1707","1717","1720","1721"],"schedule":{"travel_time":1,"stop_id":"060051"}},{"index":39,"name":"Esc Pedro Santarém","id":"060053","lat":"38.749741","lon":"-9.194285","lines":["1707","1717","1720","1721"],"schedule":{"travel_time":2,"stop_id":"060053"}},{"index":40,"name":"Calhariz","id":"060055","lat":"38.748636","lon":"-9.191161","lines":["1707","1717","1720","1721"],"schedule":{"travel_time":1,"stop_id":"060055"}},{"index":41,"name":"Colégio Militar (Metro) P14","id":"060125","lat":"38.752797","lon":"-9.190093","lines":["1717"],"schedule":{"travel_time":1,"stop_id":"060125"}}]}