{"color":"#C61D23","headsign":"Colégio Militar (Metro)","id":"1720_1_1","long_name":"A-da-Beja - Colégio Militar (Metro)","line_id":"1720","shape_id":"106_4X7ZR","path":[{"index":1,"name":"Largo Visconde Asseca (Coreto)","id":"030645","lat":"38.791675","lon":"-9.230476","lines":["1509","1515","1517","1720"],"schedule":{"travel_time":0,"stop_id":"030645"}},{"index":2,"name":"R Horta Costa (X) R Ponte","id":"030647","lat":"38.792206","lon":"-9.229607","lines":["1509","1515","1517","1720"],"schedule":{"travel_time":0,"stop_id":"030647"}},{"index":3,"name":"Estr Prin Caneças (X) Horta Costa","id":"030711","lat":"38.792133","lon":"-9.228076","lines":["1515","1517","1709","1710","1711","1719","1720","2702"],"schedule":{"travel_time":1,"stop_id":"030711"}},{"index":4,"name":"Av Lisboa (X) R D João I","id":"172123","lat":"38.796187","lon":"-9.228717","lines":["1515","1517","1709","1710","1711","1719","1720","2702"],"schedule":{"travel_time":1,"stop_id":"172123"}},{"index":5,"name":"Av Lisboa 26D","id":"172125","lat":"38.798055","lon":"-9.228513","lines":["1515","1517","1709","1710","1711","1719","1720","2702"],"schedule":{"travel_time":1,"stop_id":"172125"}},{"index":6,"name":"Casal Cambra (Centro saúde)","id":"171553","lat":"38.800311","lon":"-9.228422","lines":["1244","1509","1515","1516","1517","1637","1709","1710","1719","1720","2702"],"schedule":{"travel_time":0,"stop_id":"171553"}},{"index":7,"name":"Av Lisboa 80","id":"171555","lat":"38.801813","lon":"-9.228414","lines":["1244","1509","1515","1516","1517","1637","1709","1710","1719","1720","2702"],"schedule":{"travel_time":1,"stop_id":"171555"}},{"index":8,"name":"Av Brasil 42A","id":"172049","lat":"38.802565","lon":"-9.230620","lines":["1509","1515","1720"],"schedule":{"travel_time":1,"stop_id":"172049"}},{"index":9,"name":"Av Brasil 68 (Fte Jardim Infância)","id":"172051","lat":"38.802584","lon":"-9.232636","lines":["1509","1515","1720"],"schedule":{"travel_time":0,"stop_id":"172051"}},{"index":10,"name":"Av Moçambique (Parq Casal Cambra)","id":"172053","lat":"38.800163","lon":"-9.233456","lines":["1509","1515","1517","1711","1720"],"schedule":{"travel_time":1,"stop_id":"172053"}},{"index":11,"name":"Casal Cambra (Escola)","id":"171550","lat":"38.798349","lon":"-9.234196","lines":["1244","1509","1515","1516","1517","1720"],"schedule":{"travel_time":0,"stop_id":"171550"}},{"index":12,"name":"R Lyon 4A","id":"172127","lat":"38.796036","lon":"-9.233573","lines":["1515","1517","1720"],"schedule":{"travel_time":1,"stop_id":"172127"}},{"index":13,"name":"R Castelhana 55 (X) R J Augusto Costa","id":"030642","lat":"38.793433","lon":"-9.233271","lines":["1509","1515","1720"],"schedule":{"travel_time":1,"stop_id":"030642"}},{"index":14,"name":"A-da-Beja (Fonte Sta)","id":"030643","lat":"38.792277","lon":"-9.232565","lines":["1509","1515","1720"],"schedule":{"travel_time":0,"stop_id":"030643"}},{"index":15,"name":"R Fernando Maia 27","id":"030710","lat":"38.789416","lon":"-9.232347","lines":["1509","1515","1517","1720"],"schedule":{"travel_time":1,"stop_id":"030710"}},{"index":16,"name":"R Fernando Maia (X) R Campos","id":"030708","lat":"38.788341","lon":"-9.233816","lines":["1509","1515","1517","1720"],"schedule":{"travel_time":1,"stop_id":"030708"}},{"index":17,"name":"R Fernando Maia (Viveiros R Bacará)","id":"030713","lat":"38.786040","lon":"-9.239784","lines":["1515","1720"],"schedule":{"travel_time":1,"stop_id":"030713"}},{"index":18,"name":"R Fernando Maia (Fte ETAR)","id":"030878","lat":"38.785087","lon":"-9.241509","lines":["1515","1720"],"schedule":{"travel_time":1,"stop_id":"030878"}},{"index":19,"name":"EN 250 (X) Estrada Águas Livres","id":"030593","lat":"38.782688","lon":"-9.245411","lines":["1508","1515","1516","1603","1720","2605"],"schedule":{"travel_time":1,"stop_id":"030593"}},{"index":20,"name":"Estr Águas Livres (Esc S Silveira)","id":"030595","lat":"38.778093","lon":"-9.249893","lines":["1508","1515","1603","1720"],"schedule":{"travel_time":2,"stop_id":"030595"}},{"index":21,"name":"Estr Ág Livres 155 (Cas S Vicente)","id":"030597","lat":"38.774131","lon":"-9.252107","lines":["1508","1515","1603","1720"],"schedule":{"travel_time":1,"stop_id":"030597"}},{"index":22,"name":"Carenque (Lgo)","id":"030599","lat":"38.770662","lon":"-9.251608","lines":["1508","1515","1519","1603","1720"],"schedule":{"travel_time":1,"stop_id":"030599"}},{"index":23,"name":"Estr Carenque 21d","id":"172037","lat":"38.766213","lon":"-9.251244","lines":["1508","1515","1519","1603","1720"],"schedule":{"travel_time":1,"stop_id":"172037"}},{"index":24,"name":"Carenque (X) Bica Costa","id":"172039","lat":"38.763931","lon":"-9.251895","lines":["1508","1515","1519","1603","1720"],"schedule":{"travel_time":1,"stop_id":"172039"}},{"index":25,"name":"R Bica Costa 31","id":"172079","lat":"38.764342","lon":"-9.252731","lines":["1512","1515","1718","1720"],"schedule":{"travel_time":0,"stop_id":"172079"}},{"index":26,"name":"Pendão (Bica Costa)","id":"171051","lat":"38.765103","lon":"-9.255829","lines":["1230","1512","1513","1515","1718","1720"],"schedule":{"travel_time":1,"stop_id":"171051"}},{"index":27,"name":"Av Mig Bombarda (Pcta M Av Humb Cruz)","id":"170595","lat":"38.763952","lon":"-9.256824","lines":["1212","1224","1226","1513","1515","1716","1718","1720"],"schedule":{"travel_time":1,"stop_id":"170595"}},{"index":28,"name":"Av Miguel Bombarda 91","id":"170597","lat":"38.761872","lon":"-9.256532","lines":["1212","1224","1226","1513","1515","1716","1718","1720"],"schedule":{"travel_time":1,"stop_id":"170597"}},{"index":29,"name":"Queluz - Belas (Estação)","id":"170599","lat":"38.759173","lon":"-9.257452","lines":["1224","1513","1515","1716","1718","1720"],"schedule":{"travel_time":0,"stop_id":"170599"}},{"index":30,"name":"Av Elias Garcia 219","id":"170925","lat":"38.757352","lon":"-9.258757","lines":["1230","1512","1515","1518","1530","1601","1715","1716","1720","1721"],"schedule":{"travel_time":2,"stop_id":"170925"}},{"index":31,"name":"Queluz (4 Caminhos)","id":"172499","lat":"38.756331","lon":"-9.253467","lines":["1515","1518","1530","1601","1715","1717","1720","1721"],"schedule":{"travel_time":2,"stop_id":"172499"}},{"index":32,"name":"Av Elias Garcia 25","id":"171027","lat":"38.759411","lon":"-9.250340","lines":["1230","1509","1510","1512","1514","1515","1518","1519","1601","1716","1717","1720","1721"],"schedule":{"travel_time":1,"stop_id":"171027"}},{"index":33,"name":"R Elias Garcia (Escolas)","id":"030328","lat":"38.760571","lon":"-9.247861","lines":["1009","1014","1508","1509","1510","1514","1515","1518","1601","1603","1716","1717","1718","1720","1721"],"schedule":{"travel_time":1,"stop_id":"030328"}},{"index":34,"name":"R Elias Garcia 323","id":"030326","lat":"38.760998","lon":"-9.245511","lines":["1009","1014","1508","1509","1510","1514","1515","1518","1601","1716","1717","1718","1720","1721"],"schedule":{"travel_time":0,"stop_id":"030326"}},{"index":35,"name":"Amadora (Hosp Luz)","id":"030322","lat":"38.760333","lon":"-9.241066","lines":["1014","1508","1510","1515","1601","1716","1718","1720","1721"],"schedule":{"travel_time":1,"stop_id":"030322"}},{"index":36,"name":"R Elias Garcia 362","id":"030475","lat":"38.759271","lon":"-9.237939","lines":["1009","1014","1508","1509","1510","1514","1515","1601","1716","1718","1720","1721"],"schedule":{"travel_time":1,"stop_id":"030475"}},{"index":37,"name":"R Luís Camões 9 (CTT)","id":"030477","lat":"38.757233","lon":"-9.236109","lines":["1002","1009","1014","1501","1502","1508","1509","1510","1514","1515","1601","1712","1714","1716","1718","1720","1721"],"schedule":{"travel_time":1,"stop_id":"030477"}},{"index":38,"name":"Estr Salv Allende (Posto Combustivel)","id":"030601","lat":"38.756682","lon":"-9.233272","lines":["1002","1508","1514","1515","1601","1712","1720","1721"],"schedule":{"travel_time":1,"stop_id":"030601"}},{"index":39,"name":"Praceta Miguel Cláudio 2","id":"030603","lat":"38.757911","lon":"-9.229085","lines":["1002","1508","1514","1515","1601","1712","1720","1721"],"schedule":{"travel_time":1,"stop_id":"030603"}},{"index":40,"name":"R Elias Garcia 103","id":"030605","lat":"38.757920","lon":"-9.226425","lines":["1508","1514","1515","1518","1601","1707","1717","1720","1721"],"schedule":{"travel_time":0,"stop_id":"030605"}},{"index":41,"name":"R Elias Garcia 88","id":"030607","lat":"38.757305","lon":"-9.223257","lines":["1508","1514","1515","1518","1601","1707","1717","1720","1721"],"schedule":{"travel_time":1,"stop_id":"030607"}},{"index":42,"name":"R Elias Garcia 43","id":"030609","lat":"38.756526","lon":"-9.221063","lines":["1508","1515","1601","1707","1717","1720","1721"],"schedule":{"travel_time":1,"stop_id":"030609"}},{"index":43,"name":"R Elias Garcia 23I","id":"030860","lat":"38.755957","lon":"-9.218376","lines":["1508","1515","1601","1707","1717","1720","1721"],"schedule":{"travel_time":0,"stop_id":"030860"}},{"index":44,"name":"Amadora Este (Metro) P1","id":"030853","lat":"38.758274","lon":"-9.218996","lines":["1707","1717","1720","1721"],"schedule":{"travel_time":1,"stop_id":"030853"}},{"index":45,"name":"R Elias Garcia (Hipermercado)","id":"030797","lat":"38.755281","lon":"-9.216064","lines":["1707","1717","1720","1721"],"schedule":{"travel_time":2,"stop_id":"030797"}},{"index":46,"name":"R Elias Garcia 15","id":"030302","lat":"38.754391","lon":"-9.213623","lines":["1707","1717","1720","1721"],"schedule":{"travel_time":1,"stop_id":"030302"}},{"index":47,"name":"R Elias Garcia (Portas de Benfica)","id":"030300","lat":"38.753588","lon":"-9.210522","lines":["1707","1713","1717","1720","1721"],"schedule":{"travel_time":0,"stop_id":"030300"}},{"index":48,"name":"Estr Benfica (Mercado)","id":"060044","lat":"38.752042","lon":"-9.205484","lines":["1707","1717","1720","1721"],"schedule":{"travel_time":2,"stop_id":"060044"}},{"index":49,"name":"Igreja Benfica","id":"060051","lat":"38.750660","lon":"-9.201458","lines":["1707","1717","1720","1721"],"schedule":{"travel_time":2,"stop_id":"060051"}},{"index":50,"name":"Esc Pedro Santarém","id":"060053","lat":"38.749741","lon":"-9.194285","lines":["1707","1717","1720","1721"],"schedule":{"travel_time":1,"stop_id":"060053"}},{"index":51,"name":"Calhariz","id":"060055","lat":"38.748636","lon":"-9.191161","lines":["1707","1717","1720","1721"],"schedule":{"travel_time":1,"stop_id":"060055"}},{"index":52,"name":"Colégio Militar (Metro) P11","id":"060131","lat":"38.752806","lon":"-9.189929","lines":["1720"],"schedule":{"travel_time":2,"stop_id":"060131"}}]}