{"color":"#C61D23","headsign":"Colégio Militar (Metro)","id":"1721_1_2","long_name":"Massamá (Casal Olival) - Colégio Militar (Metro)","line_id":"1721","shape_id":"407_4X7ZR","path":[{"index":1,"name":"Massamá (Casal Olival)","id":"170853","lat":"38.753250","lon":"-9.275923","lines":["1226","1229","1721"],"schedule":{"travel_time":0,"stop_id":"170853"}},{"index":2,"name":"Av 25 Abril 32","id":"170855","lat":"38.752546","lon":"-9.276594","lines":["1226","1229","1721"],"schedule":{"travel_time":0,"stop_id":"170855"}},{"index":3,"name":"Av 25 Abril 18B","id":"170905","lat":"38.751813","lon":"-9.279066","lines":["1229","1236","1721"],"schedule":{"travel_time":1,"stop_id":"170905"}},{"index":4,"name":"Massamá - Barcarena (Estação Norte)","id":"170907","lat":"38.752384","lon":"-9.282491","lines":["1229","1236","1721"],"schedule":{"travel_time":1,"stop_id":"170907"}},{"index":5,"name":"Av Aquilino Ribeiro 192 (Escola)","id":"170909","lat":"38.753306","lon":"-9.286690","lines":["1721"],"schedule":{"travel_time":0,"stop_id":"170909"}},{"index":6,"name":"Massamá (B Bico)","id":"170911","lat":"38.755817","lon":"-9.286678","lines":["1229","1721"],"schedule":{"travel_time":1,"stop_id":"170911"}},{"index":7,"name":"R Direita Massamá 172","id":"170913","lat":"38.756678","lon":"-9.282950","lines":["1229","1721"],"schedule":{"travel_time":1,"stop_id":"170913"}},{"index":8,"name":"R Direita Massamá 129","id":"170915","lat":"38.756541","lon":"-9.280946","lines":["1229","1721"],"schedule":{"travel_time":1,"stop_id":"170915"}},{"index":9,"name":"R Direita Massamá 134","id":"170917","lat":"38.756856","lon":"-9.276969","lines":["1525","1715","1721"],"schedule":{"travel_time":0,"stop_id":"170917"}},{"index":10,"name":"R Direita Massamá 98B(chafariz)","id":"170919","lat":"38.756689","lon":"-9.275206","lines":["1525","1715","1721"],"schedule":{"travel_time":1,"stop_id":"170919"}},{"index":11,"name":"Monte Abraão (Estação) P4","id":"170921","lat":"38.755607","lon":"-9.265726","lines":["1512","1717","1721"],"schedule":{"travel_time":2,"stop_id":"170921"}},{"index":12,"name":"R Timor 2","id":"170923","lat":"38.756556","lon":"-9.261663","lines":["1224","1230","1236","1512","1518","1527","1528","1530","1601","1715","1717","1721"],"schedule":{"travel_time":1,"stop_id":"170923"}},{"index":13,"name":"Av Elias Garcia 219","id":"170925","lat":"38.757352","lon":"-9.258757","lines":["1230","1512","1515","1518","1530","1601","1715","1716","1720","1721"],"schedule":{"travel_time":0,"stop_id":"170925"}},{"index":14,"name":"Queluz (4 Caminhos)","id":"172499","lat":"38.756331","lon":"-9.253467","lines":["1515","1518","1530","1601","1715","1717","1720","1721"],"schedule":{"travel_time":1,"stop_id":"172499"}},{"index":15,"name":"Av Elias Garcia 25","id":"171027","lat":"38.759411","lon":"-9.250340","lines":["1230","1509","1510","1512","1514","1515","1518","1519","1601","1716","1717","1720","1721"],"schedule":{"travel_time":2,"stop_id":"171027"}},{"index":16,"name":"R Elias Garcia (Escolas)","id":"030328","lat":"38.760571","lon":"-9.247861","lines":["1009","1014","1508","1509","1510","1514","1515","1518","1601","1603","1716","1717","1718","1720","1721"],"schedule":{"travel_time":1,"stop_id":"030328"}},{"index":17,"name":"R Elias Garcia 323","id":"030326","lat":"38.760998","lon":"-9.245511","lines":["1009","1014","1508","1509","1510","1514","1515","1518","1601","1716","1717","1718","1720","1721"],"schedule":{"travel_time":0,"stop_id":"030326"}},{"index":18,"name":"Amadora (Hosp Luz)","id":"030322","lat":"38.760333","lon":"-9.241066","lines":["1014","1508","1510","1515","1601","1716","1718","1720","1721"],"schedule":{"travel_time":1,"stop_id":"030322"}},{"index":19,"name":"R Elias Garcia 362","id":"030475","lat":"38.759271","lon":"-9.237939","lines":["1009","1014","1508","1509","1510","1514","1515","1601","1716","1718","1720","1721"],"schedule":{"travel_time":1,"stop_id":"030475"}},{"index":20,"name":"R Luís Camões 9 (CTT)","id":"030477","lat":"38.757233","lon":"-9.236109","lines":["1002","1009","1014","1501","1502","1508","1509","1510","1514","1515","1601","1712","1714","1716","1718","1720","1721"],"schedule":{"travel_time":0,"stop_id":"030477"}},{"index":21,"name":"Estr Salv Allende (Posto Combustivel)","id":"030601","lat":"38.756682","lon":"-9.233272","lines":["1002","1508","1514","1515","1601","1712","1720","1721"],"schedule":{"travel_time":1,"stop_id":"030601"}},{"index":22,"name":"Praceta Miguel Cláudio 2","id":"030603","lat":"38.757911","lon":"-9.229085","lines":["1002","1508","1514","1515","1601","1712","1720","1721"],"schedule":{"travel_time":1,"stop_id":"030603"}},{"index":23,"name":"R Elias Garcia 103","id":"030605","lat":"38.757920","lon":"-9.226425","lines":["1508","1514","1515","1518","1601","1707","1717","1720","1721"],"schedule":{"travel_time":1,"stop_id":"030605"}},{"index":24,"name":"R Elias Garcia 88","id":"030607","lat":"38.757305","lon":"-9.223257","lines":["1508","1514","1515","1518","1601","1707","1717","1720","1721"],"schedule":{"travel_time":0,"stop_id":"030607"}},{"index":25,"name":"R Elias Garcia 43","id":"030609","lat":"38.756526","lon":"-9.221063","lines":["1508","1515","1601","1707","1717","1720","1721"],"schedule":{"travel_time":1,"stop_id":"030609"}},{"index":26,"name":"R Elias Garcia 23I","id":"030860","lat":"38.755957","lon":"-9.218376","lines":["1508","1515","1601","1707","1717","1720","1721"],"schedule":{"travel_time":0,"stop_id":"030860"}},{"index":27,"name":"R Elias Garcia (Hipermercado)","id":"030797","lat":"38.755281","lon":"-9.216064","lines":["1707","1717","1720","1721"],"schedule":{"travel_time":1,"stop_id":"030797"}},{"index":28,"name":"R Elias Garcia 15","id":"030302","lat":"38.754391","lon":"-9.213623","lines":["1707","1717","1720","1721"],"schedule":{"travel_time":0,"stop_id":"030302"}},{"index":29,"name":"R Elias Garcia (Portas de Benfica)","id":"030300","lat":"38.753588","lon":"-9.210522","lines":["1707","1713","1717","1720","1721"],"schedule":{"travel_time":1,"stop_id":"030300"}},{"index":30,"name":"Estr Benfica (Mercado)","id":"060044","lat":"38.752042","lon":"-9.205484","lines":["1707","1717","1720","1721"],"schedule":{"travel_time":1,"stop_id":"060044"}},{"index":31,"name":"Igreja Benfica","id":"060051","lat":"38.750660","lon":"-9.201458","lines":["1707","1717","1720","1721"],"schedule":{"travel_time":1,"stop_id":"060051"}},{"index":32,"name":"Esc Pedro Santarém","id":"060053","lat":"38.749741","lon":"-9.194285","lines":["1707","1717","1720","1721"],"schedule":{"travel_time":2,"stop_id":"060053"}},{"index":33,"name":"Calhariz","id":"060055","lat":"38.748636","lon":"-9.191161","lines":["1707","1717","1720","1721"],"schedule":{"travel_time":1,"stop_id":"060055"}},{"index":34,"name":"Colégio Militar (Metro) P13","id":"060134","lat":"38.752959","lon":"-9.190387","lines":["1721"],"schedule":{"travel_time":1,"stop_id":"060134"}}]}