{"color":"#C61D23","headsign":"Massamá (Casal Olival)","id":"1721_2_1","long_name":"Massamá (Casal Olival) - Queluz (4 Caminhos)","line_id":"1721","shape_id":"405_4X7ZR","path":[{"index":1,"name":"Queluz (4 Caminhos)","id":"172476","lat":"38.756470","lon":"-9.253940","lines":["1510","1511","1518","1715","1721"],"schedule":{"travel_time":0,"stop_id":"172476"}},{"index":2,"name":"Av Elias Garcia 222A","id":"170926","lat":"38.757489","lon":"-9.258787","lines":["1230","1511","1512","1515","1518","1530","1601","1715","1716","1720","1721"],"schedule":{"travel_time":1,"stop_id":"170926"}},{"index":3,"name":"R Timor 2","id":"170924","lat":"38.756650","lon":"-9.262052","lines":["1224","1230","1236","1511","1512","1518","1527","1528","1530","1601","1715","1717","1721"],"schedule":{"travel_time":1,"stop_id":"170924"}},{"index":4,"name":"Monte Abraão (Estação) P13","id":"170929","lat":"38.755815","lon":"-9.265758","lines":["1226","1236","1512","1715","1721"],"schedule":{"travel_time":1,"stop_id":"170929"}},{"index":5,"name":"R Direita Massamá (Escolas)","id":"170931","lat":"38.755672","lon":"-9.268107","lines":["1525","1715","1721"],"schedule":{"travel_time":1,"stop_id":"170931"}},{"index":6,"name":"R Direita Massamá 104 (Chafariz)","id":"170920","lat":"38.756871","lon":"-9.275310","lines":["1525","1715","1721"],"schedule":{"travel_time":1,"stop_id":"170920"}},{"index":7,"name":"R Direita Massamá (X) R Milharada","id":"170933","lat":"38.756892","lon":"-9.279479","lines":["1228","1525","1721"],"schedule":{"travel_time":1,"stop_id":"170933"}},{"index":8,"name":"R Direita Massamá 172","id":"170935","lat":"38.756781","lon":"-9.282301","lines":["1228","1229","1721"],"schedule":{"travel_time":1,"stop_id":"170935"}},{"index":9,"name":"Massamá (B Bico)","id":"170912","lat":"38.756238","lon":"-9.286809","lines":["1228","1229","1721"],"schedule":{"travel_time":1,"stop_id":"170912"}},{"index":10,"name":"Av Aquilino Ribeiro 192 (Escola)","id":"170910","lat":"38.753620","lon":"-9.286769","lines":["1228","1721"],"schedule":{"travel_time":0,"stop_id":"170910"}},{"index":11,"name":"Massamá (Estação)","id":"172496","lat":"38.752070","lon":"-9.283301","lines":["1236","1721"],"schedule":{"travel_time":1,"stop_id":"172496"}},{"index":12,"name":"Av 25 Abril 18B","id":"170906","lat":"38.751675","lon":"-9.279273","lines":["1228","1229","1236","1721"],"schedule":{"travel_time":1,"stop_id":"170906"}},{"index":13,"name":"Av 1º Maio 47","id":"170857","lat":"38.751404","lon":"-9.276544","lines":["1226","1236","1721"],"schedule":{"travel_time":0,"stop_id":"170857"}},{"index":14,"name":"Av 1º Maio 3","id":"170937","lat":"38.752267","lon":"-9.273784","lines":["1226","1721"],"schedule":{"travel_time":1,"stop_id":"170937"}},{"index":15,"name":"Massamá (Casal Olival)","id":"170853","lat":"38.753250","lon":"-9.275923","lines":["1226","1229","1721"],"schedule":{"travel_time":1,"stop_id":"170853"}}]}