{"color":"#C61D23","headsign":"Queluz (4 Caminhos)","id":"1721_2_2","long_name":"Massamá (Casal Olival) - Queluz (4 Caminhos)","line_id":"1721","shape_id":"408_4X7ZR","path":[{"index":1,"name":"Massamá (Casal Olival)","id":"170853","lat":"38.753250","lon":"-9.275923","lines":["1226","1229","1721"],"schedule":{"travel_time":0,"stop_id":"170853"}},{"index":2,"name":"Av 25 Abril 32","id":"170855","lat":"38.752546","lon":"-9.276594","lines":["1226","1229","1721"],"schedule":{"travel_time":0,"stop_id":"170855"}},{"index":3,"name":"Av 25 Abril 18B","id":"170905","lat":"38.751813","lon":"-9.279066","lines":["1229","1236","1721"],"schedule":{"travel_time":1,"stop_id":"170905"}},{"index":4,"name":"Massamá - Barcarena (Estação Norte)","id":"170907","lat":"38.752384","lon":"-9.282491","lines":["1229","1236","1721"],"schedule":{"travel_time":0,"stop_id":"170907"}},{"index":5,"name":"Av Aquilino Ribeiro 192 (Escola)","id":"170909","lat":"38.753306","lon":"-9.286690","lines":["1721"],"schedule":{"travel_time":1,"stop_id":"170909"}},{"index":6,"name":"Massamá (B Bico)","id":"170911","lat":"38.755817","lon":"-9.286678","lines":["1229","1721"],"schedule":{"travel_time":1,"stop_id":"170911"}},{"index":7,"name":"R Direita Massamá 172","id":"170913","lat":"38.756678","lon":"-9.282950","lines":["1229","1721"],"schedule":{"travel_time":1,"stop_id":"170913"}},{"index":8,"name":"R Direita Massamá 129","id":"170915","lat":"38.756541","lon":"-9.280946","lines":["1229","1721"],"schedule":{"travel_time":0,"stop_id":"170915"}},{"index":9,"name":"R Direita Massamá 134","id":"170917","lat":"38.756856","lon":"-9.276969","lines":["1525","1715","1721"],"schedule":{"travel_time":1,"stop_id":"170917"}},{"index":10,"name":"R Direita Massamá 98B(chafariz)","id":"170919","lat":"38.756689","lon":"-9.275206","lines":["1525","1715","1721"],"schedule":{"travel_time":0,"stop_id":"170919"}},{"index":11,"name":"Monte Abraão (Estação) P4","id":"170921","lat":"38.755607","lon":"-9.265726","lines":["1512","1717","1721"],"schedule":{"travel_time":2,"stop_id":"170921"}},{"index":12,"name":"R Timor 2","id":"170923","lat":"38.756556","lon":"-9.261663","lines":["1224","1230","1236","1512","1518","1527","1528","1530","1601","1715","1717","1721"],"schedule":{"travel_time":1,"stop_id":"170923"}},{"index":13,"name":"Av Elias Garcia 219","id":"170925","lat":"38.757352","lon":"-9.258757","lines":["1230","1512","1515","1518","1530","1601","1715","1716","1720","1721"],"schedule":{"travel_time":1,"stop_id":"170925"}},{"index":14,"name":"Queluz (4 Caminhos)","id":"172499","lat":"38.756331","lon":"-9.253467","lines":["1515","1518","1530","1601","1715","1717","1720","1721"],"schedule":{"travel_time":1,"stop_id":"172499"}}]}