{"color":"#C61D23","headsign":"Marquês Pombal (Metro)","id":"1724_2_3","long_name":"Marquês Pombal (Metro) via Linda-a-Velha | Circular","line_id":"1724","shape_id":"316_4X7ZR","path":[{"index":1,"name":"Marquês de Pombal (Metro) P3","id":"060462","lat":"38.725768","lon":"-9.151555","lines":["1724"],"schedule":{"travel_time":0,"stop_id":"060462"}},{"index":2,"name":"R Joaquim António Aguiar","id":"060035","lat":"38.725117","lon":"-9.155267","lines":["1704","1716","1723","1724","1725","1726","1728","1729","1730","1733","3704","3709","3715"],"schedule":{"travel_time":1,"stop_id":"060035"}},{"index":3,"name":"Amoreiras","id":"060037","lat":"38.724437","lon":"-9.160764","lines":["1704","1716","1723","1724","1725","1726","1728","1729","1730","1733","3704","3709","3715"],"schedule":{"travel_time":1,"stop_id":"060037"}},{"index":4,"name":"AV ENG DUARTE PACHECO (POSTO COMBUST)","id":"060450","lat":"38.723324","lon":"-9.166410","lines":["1704","1716","1723","1724","1725","1726","1728","1729","1730","1733","3704","3709","3715"],"schedule":{"travel_time":1,"stop_id":"060450"}},{"index":5,"name":"Av 25 de Abril - Central Park","id":"120241","lat":"38.716867","lon":"-9.238174","lines":["1103","1107","1502","1528","1724"],"schedule":{"travel_time":12,"stop_id":"120241"}},{"index":6,"name":"R Rodrigues Lobo 2","id":"120166","lat":"38.714845","lon":"-9.239991","lines":["1114","1724"],"schedule":{"travel_time":0,"stop_id":"120166"}},{"index":7,"name":"R Lusíadas 25","id":"121261","lat":"38.714273","lon":"-9.239028","lines":["1114","1724"],"schedule":{"travel_time":1,"stop_id":"121261"}},{"index":8,"name":"R Ceuta 33","id":"120240","lat":"38.714586","lon":"-9.236871","lines":["1114","1724","1728","1730"],"schedule":{"travel_time":0,"stop_id":"120240"}},{"index":9,"name":"Linda-a-velha","id":"120177","lat":"38.713959","lon":"-9.233856","lines":["1114","1724","1728","1730"],"schedule":{"travel_time":0,"stop_id":"120177"}},{"index":10,"name":"Av Carolina Michaellis (Esc Cond)","id":"120353","lat":"38.712265","lon":"-9.233669","lines":["1105","1503","1522","1528","1724","1728","1730"],"schedule":{"travel_time":1,"stop_id":"120353"}},{"index":11,"name":"Av Carolina Michaellis (Esc Secund)","id":"120355","lat":"38.712067","lon":"-9.235765","lines":["1105","1503","1522","1528","1724","1728","1730"],"schedule":{"travel_time":0,"stop_id":"120355"}},{"index":12,"name":"R Eng J F Ulrich(x)r D Dom Fernandes","id":"121051","lat":"38.710835","lon":"-9.238599","lines":["1502","1724","1728","1730"],"schedule":{"travel_time":1,"stop_id":"121051"}},{"index":13,"name":"R Pedro Alvares Cabral (Esc Primária)","id":"120160","lat":"38.710744","lon":"-9.240563","lines":["1502","1724","1728","1730"],"schedule":{"travel_time":0,"stop_id":"120160"}},{"index":14,"name":"R João Chagas 159","id":"120272","lat":"38.708102","lon":"-9.241007","lines":["1103","1107","1724","1728","1730"],"schedule":{"travel_time":1,"stop_id":"120272"}},{"index":15,"name":"Linda-a-velha (Alto Stª Catarina)","id":"120070","lat":"38.705292","lon":"-9.240430","lines":["1101","1504","1722","1724","1728","1730"],"schedule":{"travel_time":1,"stop_id":"120070"}},{"index":16,"name":"R Manuel Ferreira 12","id":"120089","lat":"38.704121","lon":"-9.241711","lines":["1101","1504","1722","1724","1728","1730"],"schedule":{"travel_time":1,"stop_id":"120089"}},{"index":17,"name":"R Manuel Ferreira (Esc Secundária)","id":"120066","lat":"38.705772","lon":"-9.241997","lines":["1101","1504","1722","1724","1728","1730"],"schedule":{"travel_time":0,"stop_id":"120066"}},{"index":18,"name":"R Luz soriano 6","id":"120149","lat":"38.708247","lon":"-9.243326","lines":["1724","1728","1730"],"schedule":{"travel_time":1,"stop_id":"120149"}},{"index":19,"name":"R Francisco José Vitorino 13","id":"120151","lat":"38.709122","lon":"-9.244315","lines":["1103","1107","1114","1724","1728","1730"],"schedule":{"travel_time":0,"stop_id":"120151"}},{"index":20,"name":"Av D Pedro V 16D","id":"120062","lat":"38.709834","lon":"-9.245140","lines":["1101","1103","1107","1114","1504","1722","1724","1728","1730"],"schedule":{"travel_time":0,"stop_id":"120062"}},{"index":21,"name":"Av D Pedro V 28","id":"120060","lat":"38.711436","lon":"-9.246127","lines":["1101","1103","1107","1114","1504","1722","1724","1728","1730"],"schedule":{"travel_time":1,"stop_id":"120060"}},{"index":22,"name":"Calçada Chafariz 4","id":"120058","lat":"38.713110","lon":"-9.245274","lines":["1101","1103","1107","1114","1504","1722","1724","1728","1730"],"schedule":{"travel_time":0,"stop_id":"120058"}},{"index":23,"name":"Av 25 de Abril Fte 22","id":"120249","lat":"38.714632","lon":"-9.242100","lines":["1103","1107","1502","1528","1724","1728","1730"],"schedule":{"travel_time":1,"stop_id":"120249"}},{"index":24,"name":"Av 25 de Abril - Central Park","id":"120173","lat":"38.716695","lon":"-9.238147","lines":["1103","1107","1502","1528","1724","1728","1730"],"schedule":{"travel_time":0,"stop_id":"120173"}},{"index":25,"name":"AV ENG DUARTE PACHECO (POSTO COMBUST)","id":"060449","lat":"38.722969","lon":"-9.166909","lines":["1704","1716","1723","1724","1725","1726","1728","1729","1730","1733","3704","3709","3715"],"schedule":{"travel_time":12,"stop_id":"060449"}},{"index":26,"name":"Amoreiras","id":"060027","lat":"38.723855","lon":"-9.160573","lines":["1704","1716","1723","1724","1725","1726","1728","1729","1730","1733","3704","3709","3715"],"schedule":{"travel_time":1,"stop_id":"060027"}},{"index":27,"name":"Campolide","id":"060029","lat":"38.727651","lon":"-9.160680","lines":["1704","1716","1723","1724","1725","1726","1728","1729","1730","1733","3704","3709","3715"],"schedule":{"travel_time":1,"stop_id":"060029"}},{"index":28,"name":"Alameda Edgar Cardoso","id":"060031","lat":"38.729124","lon":"-9.156447","lines":["1704","1716","1723","1724","1725","1726","1728","1729","1730","1733","3704","3709","3715"],"schedule":{"travel_time":1,"stop_id":"060031"}},{"index":29,"name":"Marquês de Pombal (Metro) P3","id":"060462","lat":"38.725768","lon":"-9.151555","lines":["1724"],"schedule":{"travel_time":0,"stop_id":"060462"}}]}