{"color":"#C61D23","headsign":"Marquês Pombal (Metro)","id":"1725_0_2","long_name":"Marquês Pombal (Metro) - Oeiras (Estação Norte)","line_id":"1725","shape_id":"318_4X7ZR","path":[{"index":1,"name":"Oeiras (Estação) P7 Entrada Norte","id":"120729","lat":"38.688787","lon":"-9.316630","lines":["1121","1530","1601","1605","1606","1725"],"schedule":{"travel_time":0,"stop_id":"120729"}},{"index":2,"name":"R Desembargador Faria (Ina)","id":"120731","lat":"38.691720","lon":"-9.314050","lines":["1120","1121","1523","1529","1530","1601","1604","1605","1606","1725"],"schedule":{"travel_time":1,"stop_id":"120731"}},{"index":3,"name":"R Cândido dos Reis 84","id":"120733","lat":"38.692621","lon":"-9.311273","lines":["1120","1121","1523","1529","1530","1601","1604","1605","1606","1725"],"schedule":{"travel_time":0,"stop_id":"120733"}},{"index":4,"name":"R Cândido dos Reis - PSP","id":"121191","lat":"38.693324","lon":"-9.307790","lines":["1121","1604","1725"],"schedule":{"travel_time":1,"stop_id":"121191"}},{"index":5,"name":"Av Ultramar (Jardim Ultramar)","id":"121269","lat":"38.694450","lon":"-9.305253","lines":["1121","1725"],"schedule":{"travel_time":1,"stop_id":"121269"}},{"index":6,"name":"R Figueirinha 26","id":"120747","lat":"38.697254","lon":"-9.306189","lines":["1120","1121","1523","1529","1530","1601","1612","1725"],"schedule":{"travel_time":0,"stop_id":"120747"}},{"index":7,"name":"Av Brasilia 12","id":"120749","lat":"38.697464","lon":"-9.305153","lines":["1120","1725"],"schedule":{"travel_time":1,"stop_id":"120749"}},{"index":8,"name":"Av Brasília 33","id":"120751","lat":"38.697573","lon":"-9.303103","lines":["1120","1725"],"schedule":{"travel_time":0,"stop_id":"120751"}},{"index":9,"name":"R Carlos Vieira Ramos 32","id":"120753","lat":"38.697758","lon":"-9.301341","lines":["1120","1725"],"schedule":{"travel_time":0,"stop_id":"120753"}},{"index":10,"name":"R Carlos Vieira Ramos 20 (Escola)","id":"121268","lat":"38.697167","lon":"-9.298958","lines":["1725"],"schedule":{"travel_time":1,"stop_id":"121268"}},{"index":11,"name":"R Manuel Pinhanços (Fte Escola)","id":"120894","lat":"38.697677","lon":"-9.294958","lines":["1725"],"schedule":{"travel_time":0,"stop_id":"120894"}},{"index":12,"name":"Paço Arcos (X) Tap Mocho","id":"120687","lat":"38.699894","lon":"-9.295375","lines":["1115","1117","1123","1616","1617","1725"],"schedule":{"travel_time":1,"stop_id":"120687"}},{"index":13,"name":"Paço De Arcos (Estação Norte)","id":"120627","lat":"38.698542","lon":"-9.291074","lines":["1119","1531","1617","1725"],"schedule":{"travel_time":1,"stop_id":"120627"}},{"index":14,"name":"Av Conde S Januário 21","id":"120629","lat":"38.700301","lon":"-9.290897","lines":["1115","1117","1606","1725"],"schedule":{"travel_time":1,"stop_id":"120629"}},{"index":15,"name":"R Instituto Conde Agrolongo 36a","id":"120631","lat":"38.702291","lon":"-9.290598","lines":["1115","1117","1606","1725"],"schedule":{"travel_time":0,"stop_id":"120631"}},{"index":16,"name":"R Conde Rio Maior 56","id":"120633","lat":"38.704146","lon":"-9.289894","lines":["1115","1117","1122","1606","1725"],"schedule":{"travel_time":1,"stop_id":"120633"}},{"index":17,"name":"Av Conde S Januário 54","id":"120635","lat":"38.704894","lon":"-9.288059","lines":["1115","1117","1122","1606","1725"],"schedule":{"travel_time":0,"stop_id":"120635"}},{"index":18,"name":"R Augusto Sousa Lobo (X) R Maluda","id":"120643","lat":"38.704444","lon":"-9.286590","lines":["1115","1117","1122","1725"],"schedule":{"travel_time":0,"stop_id":"120643"}},{"index":19,"name":"R Aug Sousa Lobo (X) Al Cal Gulbenk","id":"120645","lat":"38.702836","lon":"-9.284820","lines":["1115","1117","1122","1725"],"schedule":{"travel_time":1,"stop_id":"120645"}},{"index":20,"name":"R S Gabriel 11A","id":"120647","lat":"38.702034","lon":"-9.281861","lines":["1115","1117","1122","1725"],"schedule":{"travel_time":0,"stop_id":"120647"}},{"index":21,"name":"R Vasco Gama 23a","id":"120899","lat":"38.703944","lon":"-9.280235","lines":["1122","1725"],"schedule":{"travel_time":1,"stop_id":"120899"}},{"index":22,"name":"R Vasco Gama 3","id":"120901","lat":"38.702466","lon":"-9.277574","lines":["1122","1725"],"schedule":{"travel_time":1,"stop_id":"120901"}},{"index":23,"name":"R Bernardim Ribeiro 3","id":"120903","lat":"38.701904","lon":"-9.276591","lines":["1122","1725"],"schedule":{"travel_time":0,"stop_id":"120903"}},{"index":24,"name":"Av Cons Ferreira Lobo 2A (CTT)","id":"120591","lat":"38.703735","lon":"-9.274660","lines":["1115","1117","1507","1525","1725"],"schedule":{"travel_time":1,"stop_id":"120591"}},{"index":25,"name":"Av Cons Ferreira Lobo 40","id":"120593","lat":"38.706733","lon":"-9.274879","lines":["1115","1117","1507","1525","1725"],"schedule":{"travel_time":1,"stop_id":"120593"}},{"index":26,"name":"Laveiras (Coreto)","id":"120595","lat":"38.707784","lon":"-9.273801","lines":["1115","1117","1122","1507","1525","1606","1725"],"schedule":{"travel_time":0,"stop_id":"120595"}},{"index":27,"name":"Av João Freitas Branco 24","id":"120597","lat":"38.709573","lon":"-9.272455","lines":["1115","1117","1122","1507","1525","1606","1725"],"schedule":{"travel_time":1,"stop_id":"120597"}},{"index":28,"name":"Av J Freitas Branco (Lgo Qta Jardim)","id":"120599","lat":"38.711078","lon":"-9.271136","lines":["1115","1117","1122","1507","1525","1606","1725"],"schedule":{"travel_time":0,"stop_id":"120599"}},{"index":29,"name":"R Tilias (X) al Sabugueiros","id":"120601","lat":"38.711028","lon":"-9.268907","lines":["1507","1606","1725"],"schedule":{"travel_time":1,"stop_id":"120601"}},{"index":30,"name":"Caxias (Cidade Futebol)","id":"120603","lat":"38.707434","lon":"-9.267238","lines":["1507","1525","1606","1725"],"schedule":{"travel_time":1,"stop_id":"120603"}},{"index":31,"name":"AV ENG DUARTE PACHECO (POSTO COMBUST)","id":"060449","lat":"38.722969","lon":"-9.166909","lines":["1704","1716","1723","1724","1725","1726","1728","1729","1730","1733","3704","3709","3715"],"schedule":{"travel_time":21,"stop_id":"060449"}},{"index":32,"name":"Amoreiras","id":"060027","lat":"38.723855","lon":"-9.160573","lines":["1704","1716","1723","1724","1725","1726","1728","1729","1730","1733","3704","3709","3715"],"schedule":{"travel_time":1,"stop_id":"060027"}},{"index":33,"name":"Campolide","id":"060029","lat":"38.727651","lon":"-9.160680","lines":["1704","1716","1723","1724","1725","1726","1728","1729","1730","1733","3704","3709","3715"],"schedule":{"travel_time":1,"stop_id":"060029"}},{"index":34,"name":"Alameda Edgar Cardoso","id":"060031","lat":"38.729124","lon":"-9.156447","lines":["1704","1716","1723","1724","1725","1726","1728","1729","1730","1733","3704","3709","3715"],"schedule":{"travel_time":1,"stop_id":"060031"}},{"index":35,"name":"Marquês de Pombal (Metro) P2","id":"060123","lat":"38.725820","lon":"-9.151457","lines":["1716","1725"],"schedule":{"travel_time":1,"stop_id":"060123"}}]}