{"color":"#C61D23","headsign":"Carnaxide (Escola Secundária)","id":"1726_2_1","long_name":"Marquês Pombal (Metro) - Carnaxide (Escola Secundária)","line_id":"1726","shape_id":"321_4X7ZR","path":[{"index":1,"name":"Marquês de Pombal (Metro) P4","id":"060143","lat":"38.725707","lon":"-9.151714","lines":["1723","1726","1728","1730"],"schedule":{"travel_time":0,"stop_id":"060143"}},{"index":2,"name":"R Joaquim António Aguiar","id":"060035","lat":"38.725117","lon":"-9.155267","lines":["1704","1716","1723","1724","1725","1726","1728","1729","1730","1733","3704","3709","3715"],"schedule":{"travel_time":2,"stop_id":"060035"}},{"index":3,"name":"Amoreiras","id":"060037","lat":"38.724437","lon":"-9.160764","lines":["1704","1716","1723","1724","1725","1726","1728","1729","1730","1733","3704","3709","3715"],"schedule":{"travel_time":1,"stop_id":"060037"}},{"index":4,"name":"AV ENG DUARTE PACHECO (POSTO COMBUST)","id":"060450","lat":"38.723324","lon":"-9.166410","lines":["1704","1716","1723","1724","1725","1726","1728","1729","1730","1733","3704","3709","3715"],"schedule":{"travel_time":2,"stop_id":"060450"}},{"index":5,"name":"R Qta Paizinho 8","id":"120007","lat":"38.723812","lon":"-9.215444","lines":["1101","1503","1504","1605","1606","1713","1722","1726","1728","1730"],"schedule":{"travel_time":16,"stop_id":"120007"}},{"index":6,"name":"R Qta Paizinho 11","id":"120009","lat":"38.722314","lon":"-9.217916","lines":["1101","1503","1504","1605","1606","1713","1722","1726","1728","1730"],"schedule":{"travel_time":1,"stop_id":"120009"}},{"index":7,"name":"R Cincinato da Costa 39","id":"120011","lat":"38.720288","lon":"-9.219559","lines":["1101","1503","1504","1605","1606","1722","1726","1728","1730"],"schedule":{"travel_time":1,"stop_id":"120011"}},{"index":8,"name":"Estr Portela 45","id":"120013","lat":"38.721288","lon":"-9.221364","lines":["1101","1503","1504","1605","1606","1722","1726","1728","1730"],"schedule":{"travel_time":1,"stop_id":"120013"}},{"index":9,"name":"Estr Portela (Esc Primária)","id":"120015","lat":"38.722379","lon":"-9.224595","lines":["1101","1503","1504","1605","1606","1722","1726","1728","1730"],"schedule":{"travel_time":1,"stop_id":"120015"}},{"index":10,"name":"R Cravos Abril (P Desp Carlos Queiroz)","id":"120017","lat":"38.723790","lon":"-9.225990","lines":["1101","1109","1503","1504","1605","1606","1722","1726","1728","1730"],"schedule":{"travel_time":1,"stop_id":"120017"}},{"index":11,"name":"R Cravos Abril (X) Liberdade","id":"120019","lat":"38.724048","lon":"-9.228229","lines":["1101","1503","1504","1605","1606","1722","1726","1728","1730"],"schedule":{"travel_time":0,"stop_id":"120019"}},{"index":12,"name":"Av Professor D Bernardino Machado","id":"120021","lat":"38.723044","lon":"-9.229799","lines":["1101","1504","1722","1726","1728","1730"],"schedule":{"travel_time":1,"stop_id":"120021"}},{"index":13,"name":"R C Belo Morais(x)Av Lima Bastos","id":"120023","lat":"38.719527","lon":"-9.227835","lines":["1101","1504","1722","1726","1728","1730"],"schedule":{"travel_time":2,"stop_id":"120023"}},{"index":14,"name":"R C Belo Morais (Alam Alto Barronhos)","id":"120025","lat":"38.717407","lon":"-9.231800","lines":["1101","1504","1722","1726","1728","1730"],"schedule":{"travel_time":1,"stop_id":"120025"}},{"index":15,"name":"R Mário Moreira 16A","id":"120027","lat":"38.718946","lon":"-9.232812","lines":["1101","1504","1722","1726","1728","1730"],"schedule":{"travel_time":1,"stop_id":"120027"}},{"index":16,"name":"R Manuel Ant Rodrigues (Escadinhas)","id":"120029","lat":"38.720625","lon":"-9.232564","lines":["1101","1504","1722","1726","1728","1730"],"schedule":{"travel_time":1,"stop_id":"120029"}},{"index":17,"name":"R nossa Senhora Conceição 2","id":"120031","lat":"38.720954","lon":"-9.233341","lines":["1101","1504","1722","1726","1728","1730"],"schedule":{"travel_time":0,"stop_id":"120031"}},{"index":18,"name":"Av Forte (Posto Combust)","id":"120033","lat":"38.724253","lon":"-9.234694","lines":["1101","1103","1105","1107","1502","1503","1504","1520","1522","1722","1723","1726","1728","1730","1731"],"schedule":{"travel_time":2,"stop_id":"120033"}},{"index":19,"name":"Av Prof Rein Santos (Edif S Paulo)","id":"120035","lat":"38.725609","lon":"-9.234424","lines":["1101","1103","1105","1107","1109","1110","1502","1503","1504","1522","1605","1606","1722","1723","1726","1728","1730"],"schedule":{"travel_time":1,"stop_id":"120035"}},{"index":20,"name":"Av Prof Reinaldo Santos (Hosp Sta Cruz)","id":"120037","lat":"38.727377","lon":"-9.234218","lines":["1101","1103","1105","1107","1109","1110","1502","1503","1504","1522","1605","1606","1722","1723","1726","1728","1730"],"schedule":{"travel_time":0,"stop_id":"120037"}},{"index":21,"name":"R Manuel Teixeira Gomes (Bombeiros)","id":"120039","lat":"38.728748","lon":"-9.236794","lines":["1101","1103","1105","1107","1109","1110","1502","1503","1504","1522","1605","1606","1722","1723","1726","1728","1730"],"schedule":{"travel_time":1,"stop_id":"120039"}},{"index":22,"name":"R Manuel Teixeira Gomes 23A","id":"120473","lat":"38.728194","lon":"-9.238484","lines":["1101","1103","1105","1107","1109","1110","1502","1503","1504","1522","1605","1606","1722","1723","1726","1728","1730"],"schedule":{"travel_time":1,"stop_id":"120473"}},{"index":23,"name":"R Aquilino Ribeiro 7","id":"120041","lat":"38.727662","lon":"-9.240078","lines":["1101","1105","1110","1503","1504","1522","1605","1606","1722","1726","1728","1730"],"schedule":{"travel_time":0,"stop_id":"120041"}},{"index":24,"name":"R Aquilino Ribeiro 20","id":"120043","lat":"38.728511","lon":"-9.241654","lines":["1101","1105","1110","1503","1504","1522","1605","1606","1722","1726","1728","1730"],"schedule":{"travel_time":1,"stop_id":"120043"}},{"index":25,"name":"R Aquilino Ribeiro (Esc Preparatória)","id":"120045","lat":"38.728850","lon":"-9.244842","lines":["1101","1105","1110","1503","1504","1522","1605","1606","1722","1726","1728","1730"],"schedule":{"travel_time":1,"stop_id":"120045"}},{"index":26,"name":"Carnaxide (Av Portugal)","id":"120361","lat":"38.726557","lon":"-9.244423","lines":["1105","1507","1522","1605","1606","1726","1728","1730"],"schedule":{"travel_time":1,"stop_id":"120361"}},{"index":27,"name":"Av Tomás Ribeiro 47 (Cemitério)","id":"120049","lat":"38.723962","lon":"-9.243478","lines":["1101","1105","1109","1110","1504","1528","1722","1726","1730"],"schedule":{"travel_time":1,"stop_id":"120049"}},{"index":28,"name":"Carnaxide (Escola Secundária)","id":"120123","lat":"38.722622","lon":"-9.244832","lines":["1101","1105","1109","1110","1726","1730"],"schedule":{"travel_time":1,"stop_id":"120123"}}]}