{"color":"#C61D23","headsign":"Marquês Pombal (Metro)","id":"1729_1_2","long_name":"Marquês Pombal (Metro) - Queijas (PSP)","line_id":"1729","shape_id":"332_4X7ZR","path":[{"index":1,"name":"Queijas (PSP)","id":"120309","lat":"38.720514","lon":"-9.263724","lines":["1103","1106","1107","1110","1111","1507","1520","1527","1528","1726","1728","1729","1730","1731","1733"],"schedule":{"travel_time":0,"stop_id":"120309"}},{"index":2,"name":"R Mouzinho Silveira 25","id":"120299","lat":"38.722013","lon":"-9.263508","lines":["1103","1106","1107","1507","1527","1726","1728","1729","1730","1733"],"schedule":{"travel_time":0,"stop_id":"120299"}},{"index":3,"name":"R Mouzinho Silveira (X) Açores","id":"120543","lat":"38.723493","lon":"-9.263602","lines":["1103","1106","1107","1111","1507","1527","1726","1728","1729","1730","1733"],"schedule":{"travel_time":1,"stop_id":"120543"}},{"index":4,"name":"R Açores 32","id":"120303","lat":"38.723270","lon":"-9.266329","lines":["1103","1106","1107","1110","1111","1507","1527","1726","1728","1729","1730","1733"],"schedule":{"travel_time":1,"stop_id":"120303"}},{"index":5,"name":"R Angra Heroísmo (Escadinhas)","id":"120305","lat":"38.721763","lon":"-9.266498","lines":["1103","1106","1107","1110","1111","1507","1520","1527","1528","1726","1728","1729","1730","1731","1733"],"schedule":{"travel_time":0,"stop_id":"120305"}},{"index":6,"name":"R Qta Bonfim (X) R Marquez Sá Bandeira","id":"120307","lat":"38.720458","lon":"-9.265822","lines":["1103","1106","1107","1110","1111","1507","1520","1527","1528","1726","1728","1729","1730","1731","1733"],"schedule":{"travel_time":1,"stop_id":"120307"}},{"index":7,"name":"Queijas (PSP)","id":"120309","lat":"38.720514","lon":"-9.263724","lines":["1103","1106","1107","1110","1111","1507","1520","1527","1528","1726","1728","1729","1730","1731","1733"],"schedule":{"travel_time":0,"stop_id":"120309"}},{"index":8,"name":"R João XXI (Igreja)","id":"120313","lat":"38.718816","lon":"-9.263157","lines":["1103","1106","1107","1110","1111","1507","1520","1527","1528","1726","1728","1729","1730","1731","1733"],"schedule":{"travel_time":1,"stop_id":"120313"}},{"index":9,"name":"R João XXI 1","id":"120296","lat":"38.717532","lon":"-9.263398","lines":["1103","1106","1107","1110","1111","1507","1520","1527","1528","1726","1728","1729","1730","1731","1733"],"schedule":{"travel_time":0,"stop_id":"120296"}},{"index":10,"name":"Queijas (Rotunda saida)","id":"121219","lat":"38.715154","lon":"-9.263576","lines":["1605","1606","1729","1733"],"schedule":{"travel_time":1,"stop_id":"121219"}},{"index":11,"name":"AV ENG DUARTE PACHECO (POSTO COMBUST)","id":"060449","lat":"38.722969","lon":"-9.166909","lines":["1704","1716","1723","1724","1725","1726","1728","1729","1730","1733","3704","3709","3715"],"schedule":{"travel_time":29,"stop_id":"060449"}},{"index":12,"name":"Amoreiras","id":"060027","lat":"38.723855","lon":"-9.160573","lines":["1704","1716","1723","1724","1725","1726","1728","1729","1730","1733","3704","3709","3715"],"schedule":{"travel_time":2,"stop_id":"060027"}},{"index":13,"name":"Campolide","id":"060029","lat":"38.727651","lon":"-9.160680","lines":["1704","1716","1723","1724","1725","1726","1728","1729","1730","1733","3704","3709","3715"],"schedule":{"travel_time":1,"stop_id":"060029"}},{"index":14,"name":"Alameda Edgar Cardoso","id":"060031","lat":"38.729124","lon":"-9.156447","lines":["1704","1716","1723","1724","1725","1726","1728","1729","1730","1733","3704","3709","3715"],"schedule":{"travel_time":2,"stop_id":"060031"}},{"index":15,"name":"Marquês de Pombal (Metro) P5","id":"060149","lat":"38.725614","lon":"-9.152188","lines":["1729","1733"],"schedule":{"travel_time":1,"stop_id":"060149"}}]}