{"color":"#C61D23","headsign":"Queluz Baixo (Centro Comercial)","id":"1729_0_1","long_name":"Marquês Pombal (Metro) - Queluz Baixo (Centro Comercial)","line_id":"1729","shape_id":"329_4X7ZR","path":[{"index":1,"name":"Marquês de Pombal (Metro) P5","id":"060149","lat":"38.725614","lon":"-9.152188","lines":["1729","1733"],"schedule":{"travel_time":0,"stop_id":"060149"}},{"index":2,"name":"R Joaquim António Aguiar","id":"060035","lat":"38.725117","lon":"-9.155267","lines":["1704","1716","1723","1724","1725","1726","1728","1729","1730","1733","3704","3709","3715"],"schedule":{"travel_time":1,"stop_id":"060035"}},{"index":3,"name":"Amoreiras","id":"060037","lat":"38.724437","lon":"-9.160764","lines":["1704","1716","1723","1724","1725","1726","1728","1729","1730","1733","3704","3709","3715"],"schedule":{"travel_time":1,"stop_id":"060037"}},{"index":4,"name":"AV ENG DUARTE PACHECO (POSTO COMBUST)","id":"060450","lat":"38.723324","lon":"-9.166410","lines":["1704","1716","1723","1724","1725","1726","1728","1729","1730","1733","3704","3709","3715"],"schedule":{"travel_time":1,"stop_id":"060450"}},{"index":5,"name":"R João XXI 10","id":"120295","lat":"38.717597","lon":"-9.263256","lines":["1103","1106","1107","1111","1507","1520","1527","1528","1726","1728","1729","1730","1731","1733"],"schedule":{"travel_time":16,"stop_id":"120295"}},{"index":6,"name":"R João XXI (Igreja)","id":"120297","lat":"38.719079","lon":"-9.263025","lines":["1103","1106","1107","1111","1507","1520","1527","1528","1726","1728","1729","1730","1731","1733"],"schedule":{"travel_time":0,"stop_id":"120297"}},{"index":7,"name":"R Mouzinho Silveira 25","id":"120299","lat":"38.722013","lon":"-9.263508","lines":["1103","1106","1107","1507","1527","1726","1728","1729","1730","1733"],"schedule":{"travel_time":1,"stop_id":"120299"}},{"index":8,"name":"R Mouzinho Silveira (X) Açores","id":"120543","lat":"38.723493","lon":"-9.263602","lines":["1103","1106","1107","1111","1507","1527","1726","1728","1729","1730","1733"],"schedule":{"travel_time":0,"stop_id":"120543"}},{"index":9,"name":"R Açores 32","id":"120303","lat":"38.723270","lon":"-9.266329","lines":["1103","1106","1107","1110","1111","1507","1527","1726","1728","1729","1730","1733"],"schedule":{"travel_time":0,"stop_id":"120303"}},{"index":10,"name":"R Ilha S Jorge 4 (C Lameiro)","id":"120411","lat":"38.722255","lon":"-9.267172","lines":["1107","1111","1520","1729","1730","1731"],"schedule":{"travel_time":1,"stop_id":"120411"}},{"index":11,"name":"Estr Militar (Viv GNR)","id":"120408","lat":"38.731203","lon":"-9.272105","lines":["1107","1111","1729","1730"],"schedule":{"travel_time":2,"stop_id":"120408"}},{"index":12,"name":"Estr Militar (Fte Estudios)","id":"120406","lat":"38.733294","lon":"-9.270125","lines":["1107","1111","1729","1730"],"schedule":{"travel_time":1,"stop_id":"120406"}},{"index":13,"name":"Estr Militar 75","id":"120413","lat":"38.735323","lon":"-9.267924","lines":["1107","1111","1729","1730"],"schedule":{"travel_time":0,"stop_id":"120413"}},{"index":14,"name":"R Trabalho (Fábricas)","id":"120377","lat":"38.738220","lon":"-9.269267","lines":["1105","1107","1111","1522","1527","1528","1717","1729","1730"],"schedule":{"travel_time":1,"stop_id":"120377"}},{"index":15,"name":"R Mário Castelhano 40","id":"120379","lat":"38.740304","lon":"-9.268346","lines":["1105","1107","1111","1522","1527","1528","1717","1729","1730"],"schedule":{"travel_time":1,"stop_id":"120379"}},{"index":16,"name":"R Mario Castelhano (Consiglieri Park)","id":"120381","lat":"38.741741","lon":"-9.269270","lines":["1105","1107","1111","1522","1527","1528","1717","1729","1730"],"schedule":{"travel_time":0,"stop_id":"120381"}},{"index":17,"name":"Estr Consiglieri Pedroso 69","id":"120383","lat":"38.742764","lon":"-9.267929","lines":["1105","1107","1111","1522","1527","1528","1530","1601","1717","1729","1730"],"schedule":{"travel_time":0,"stop_id":"120383"}},{"index":18,"name":"Queluz Baixo (Centro Comercial)","id":"120403","lat":"38.744686","lon":"-9.266123","lines":["1105","1106","1107","1527","1729","1730"],"schedule":{"travel_time":1,"stop_id":"120403"}}]}